[{"id":"컴포즈커피_MA010120220800155603","brand":"컴포즈커피","name":"컴포즈커피 거제고현점","lat":34.8861802527983,"lng":128.624427508471,"address":"경상남도 거제시 거제중앙로 1880","phone":"055-635-1300","openingHours":"","services":{"parking":null,"wifi":true,"outlet":true,"driveThrough":null,"terrace":null,"pet":null},"petPolicyType":"정보 없음","lastCheckedAt":""},{"id":"봄봄_MA010120220800061393","brand":"봄봄","name":"봄봄영산점","lat":35.4558890900851,"lng":128.527650992083,"address":"경상남도 창녕군 영산면 연지길 16","phone":"055-526-0095","openingHours":"","services":{"parking":null,"wifi":null,"outlet":null,"driveThrough":null,"terrace":null,"pet":null},"petPolicyType":"정보 없음","lastCheckedAt":""},{"id":"드롭탑_MA010120220800111240","brand":"드롭탑","name":"드롭탑 창원상남점","lat":35.2194511715183,"lng":128.681384342737,"address":"경상남도 창원시 성산구 마디미로64번길 3","phone":"055-274-1117","openingHours":"","services":{"parking":null,"wifi":true,"outlet":null,"driveThrough":null,"terrace":null,"pet":null},"petPolicyType":"정보 없음","lastCheckedAt":""},{"id":"텐퍼센트커피_MA010120220800114357","brand":"텐퍼센트커피","name":"텐퍼센트 용원점","lat":35.1014468293378,"lng":128.810715235062,"address":"경상남도 창원시 진해구 용원서로39번길 23","phone":"055-552-4465","openingHours":"","services":{"parking":null,"wifi":null,"outlet":null,"driveThrough":null,"terrace":null,"pet":null},"petPolicyType":"정보 없음","lastCheckedAt":""},{"id":"컴포즈커피_MA010120220800092630","brand":"컴포즈커피","name":"컴포즈커피팔판점","lat":35.1781593025333,"lng":128.794875151583,"address":"경상남도 김해시 계동로23번길 9","phone":"055-724-1255","openingHours":"","services":{"parking":null,"wifi":true,"outlet":true,"driveThrough":null,"terrace":null,"pet":null},"petPolicyType":"정보 없음","lastCheckedAt":""},{"id":"더벤티_MA010120220800100229","brand":"더벤티","name":"더벤티 신진주역점","lat":35.1521791422591,"lng":128.116803210317,"address":"경상남도 진주시 관문로 7","phone":"","openingHours":"","services":{"parking":null,"wifi":null,"outlet":null,"driveThrough":null,"terrace":null,"pet":null},"petPolicyType":"정보 없음","lastCheckedAt":""},{"id":"텐퍼센트커피_MA010120220800372890","brand":"텐퍼센트커피","name":"텐퍼센트커피김해삼계 북부점","lat":35.2609314435421,"lng":128.868293042392,"address":"경상남도 김해시 해반천로144번길 10","phone":"055-723-2600","openingHours":"","services":{"parking":null,"wifi":null,"outlet":null,"driveThrough":null,"terrace":null,"pet":null},"petPolicyType":"정보 없음","lastCheckedAt":""},{"id":"더벤티_MA010120220800375543","brand":"더벤티","name":"더벤티함안 호암점","lat":35.2752582022065,"lng":128.521844161775,"address":"경상남도 함안군 칠원읍 호암길 14","phone":"070-8691-2792","openingHours":"","services":{"parking":null,"wifi":null,"outlet":null,"driveThrough":null,"terrace":null,"pet":null},"petPolicyType":"정보 없음","lastCheckedAt":""},{"id":"이디야커피_MA010120220800371067","brand":"이디야커피","name":"이디야가음로점","lat":35.2040265608326,"lng":128.704278048179,"address":"경상남도 창원시 성산구 가음로 107","phone":"055-262-3803","openingHours":"","services":{"parking":null,"wifi":null,"outlet":null,"driveThrough":null,"terrace":null,"pet":null},"petPolicyType":"정보 없음","lastCheckedAt":""},{"id":"봄봄_MA010120220800544354","brand":"봄봄","name":"카페봄봄양산CC점","lat":35.4023287271493,"lng":129.040157066091,"address":"경상남도 양산시 상북면 충렬로 687","phone":"","openingHours":"","services":{"parking":null,"wifi":null,"outlet":null,"driveThrough":null,"terrace":null,"pet":null},"petPolicyType":"정보 없음","lastCheckedAt":""},{"id":"이디야커피_MA010120220800526053","brand":"이디야커피","name":"이디야커피거제고현 중앙점","lat":34.8887947211702,"lng":128.624369595608,"address":"경상남도 거제시 거제중앙로24길 13","phone":"055-634-2030","openingHours":"","services":{"parking":null,"wifi":null,"outlet":null,"driveThrough":null,"terrace":null,"pet":null},"petPolicyType":"정보 없음","lastCheckedAt":""},{"id":"메가MGC커피_MA010120220800301228","brand":"메가MGC커피","name":"메가커피김해메가마트점","lat":35.226457069369,"lng":128.900955410856,"address":"경상남도 김해시 김해대로2492번길 20","phone":"055-337-1239","openingHours":"","services":{"parking":null,"wifi":null,"outlet":null,"driveThrough":null,"terrace":null,"pet":null},"petPolicyType":"정보 없음","lastCheckedAt":""},{"id":"이디야커피_MA010120220800525381","brand":"이디야커피","name":"이디야커피김해대청계곡점","lat":35.1841452555084,"lng":128.775796749326,"address":"경상남도 김해시 대청계곡길 176","phone":"","openingHours":"","services":{"parking":null,"wifi":null,"outlet":null,"driveThrough":null,"terrace":null,"pet":null},"petPolicyType":"정보 없음","lastCheckedAt":""},{"id":"더벤티_MA010120220800524372","brand":"더벤티","name":"더벤티북신점","lat":34.8559062227391,"lng":128.42844451394,"address":"경상남도 통영시 중앙로 285-1","phone":"055-646-7759","openingHours":"","services":{"parking":null,"wifi":null,"outlet":null,"driveThrough":null,"terrace":null,"pet":null},"petPolicyType":"정보 없음","lastCheckedAt":""},{"id":"이디야커피_MA010120220800310884","brand":"이디야커피","name":"이디야커피김해내동래미안점","lat":35.2393005134188,"lng":128.869037916306,"address":"경상남도 김해시 구지로 54","phone":"055-333-5020","openingHours":"","services":{"parking":null,"wifi":null,"outlet":null,"driveThrough":null,"terrace":null,"pet":null},"petPolicyType":"정보 없음","lastCheckedAt":""},{"id":"더벤티_MA010120220800675672","brand":"더벤티","name":"더벤티진주금산점","lat":35.2174030715741,"lng":128.146053391006,"address":"경상남도 진주시 금산면 중천로 84","phone":"055-755-6644","openingHours":"","services":{"parking":null,"wifi":null,"outlet":null,"driveThrough":null,"terrace":null,"pet":null},"petPolicyType":"정보 없음","lastCheckedAt":""},{"id":"이디야커피_MA010120220800894791","brand":"이디야커피","name":"이디야양산평산동점","lat":35.3863258887444,"lng":129.155250310512,"address":"경상남도 양산시 평산북1길 11","phone":"055-372-3339","openingHours":"","services":{"parking":null,"wifi":null,"outlet":null,"driveThrough":null,"terrace":null,"pet":null},"petPolicyType":"정보 없음","lastCheckedAt":""},{"id":"메가MGC커피_MA010120220800640635","brand":"메가MGC커피","name":"메가엠지씨커피진주 초전점","lat":35.2133939596734,"lng":128.111073668587,"address":"경상남도 진주시 초북로 54","phone":"055-920-0700","openingHours":"","services":{"parking":null,"wifi":null,"outlet":null,"driveThrough":null,"terrace":null,"pet":null},"petPolicyType":"정보 없음","lastCheckedAt":""},{"id":"컴포즈커피_MA010120220800690926","brand":"컴포즈커피","name":"컴포즈커피","lat":35.1774396646508,"lng":128.137456734731,"address":"경상남도 진주시 에나로 75","phone":"055-795-3258","openingHours":"","services":{"parking":null,"wifi":true,"outlet":true,"driveThrough":null,"terrace":null,"pet":null},"petPolicyType":"정보 없음","lastCheckedAt":""},{"id":"이디야커피_MA010120220800656605","brand":"이디야커피","name":"이디야커피창원상남햇살점","lat":35.2198849928076,"lng":128.680646503349,"address":"경상남도 창원시 성산구 마디미로64번길 13","phone":"055-264-8864","openingHours":"","services":{"parking":null,"wifi":null,"outlet":null,"driveThrough":null,"terrace":null,"pet":null},"petPolicyType":"정보 없음","lastCheckedAt":""},{"id":"하삼동커피_MA010120220801140745","brand":"하삼동커피","name":"하삼동부산대양산캠퍼스역점","lat":35.3157689425265,"lng":129.011439412354,"address":"경상남도 양산시 물금읍 부산대학로 150","phone":"055-366-4781","openingHours":"","services":{"parking":null,"wifi":null,"outlet":null,"driveThrough":null,"terrace":null,"pet":null},"petPolicyType":"정보 없음","lastCheckedAt":""},{"id":"더벤티_MA010120220801612981","brand":"더벤티","name":"더벤티통영 죽림점","lat":34.8857902239285,"lng":128.417947021857,"address":"경상남도 통영시 광도면 죽림4로 23-19","phone":"055-641-1441","openingHours":"","services":{"parking":null,"wifi":null,"outlet":null,"driveThrough":null,"terrace":null,"pet":null},"petPolicyType":"정보 없음","lastCheckedAt":""},{"id":"봄봄_MA010120220802648069","brand":"봄봄","name":"카페봄봄동읍점","lat":35.2779372720742,"lng":128.684823587605,"address":"경상남도 창원시 의창구 동읍 동읍로 6-1","phone":"055-293-6300","openingHours":"","services":{"parking":null,"wifi":null,"outlet":null,"driveThrough":null,"terrace":null,"pet":null},"petPolicyType":"정보 없음","lastCheckedAt":""},{"id":"이디야커피_MA010120220802477086","brand":"이디야커피","name":"이디야커피외동 사거리점","lat":35.2315945796187,"lng":128.850914202887,"address":"경상남도 김해시 금관대로 1165","phone":"055-326-4660","openingHours":"","services":{"parking":null,"wifi":null,"outlet":null,"driveThrough":null,"terrace":null,"pet":null},"petPolicyType":"정보 없음","lastCheckedAt":""},{"id":"하삼동커피_MA010120220802588526","brand":"하삼동커피","name":"하삼동커피상남 2호점","lat":35.2203187062379,"lng":128.683159399011,"address":"경상남도 창원시 성산구 단정로 23","phone":"055-264-4900","openingHours":"","services":{"parking":null,"wifi":null,"outlet":null,"driveThrough":null,"terrace":null,"pet":null},"petPolicyType":"정보 없음","lastCheckedAt":""},{"id":"하삼동커피_MA010120220802514570","brand":"하삼동커피","name":"하삼동커피 인제대점","lat":35.2465427151646,"lng":128.904500159934,"address":"경상남도 김해시 인제로200번길 5","phone":"055-329-0419","openingHours":"","services":{"parking":null,"wifi":null,"outlet":null,"driveThrough":null,"terrace":null,"pet":null},"petPolicyType":"정보 없음","lastCheckedAt":""},{"id":"더벤티_MA010120220802927431","brand":"더벤티","name":"더벤티창원드림타운점","lat":35.2400395401615,"lng":128.633684203766,"address":"경상남도 창원시 의창구 차룡로48번길 66","phone":"055-295-1112","openingHours":"","services":{"parking":null,"wifi":null,"outlet":null,"driveThrough":null,"terrace":null,"pet":null},"petPolicyType":"정보 없음","lastCheckedAt":""},{"id":"메가MGC커피_MA010120220802881828","brand":"메가MGC커피","name":"메가엠지씨커피칠원점","lat":35.3068843929485,"lng":128.517389982526,"address":"경상남도 함안군 칠원읍 원서로 25","phone":"055-586-2828","openingHours":"","services":{"parking":null,"wifi":null,"outlet":null,"driveThrough":null,"terrace":null,"pet":null},"petPolicyType":"정보 없음","lastCheckedAt":""},{"id":"빽다방_MA010120220802938202","brand":"빽다방","name":"빽다방베이커리김해삼계한라비발디점","lat":35.2723153403446,"lng":128.865246824488,"address":"경상남도 김해시 해반천로278번길 6","phone":"","openingHours":"","services":{"parking":null,"wifi":true,"outlet":true,"driveThrough":null,"terrace":null,"pet":null},"petPolicyType":"정보 없음","lastCheckedAt":""},{"id":"봄봄_MA010120220802862690","brand":"봄봄","name":"카페봄봄창원감계점","lat":35.3015751020625,"lng":128.594508866844,"address":"경상남도 창원시 의창구 북면 감계로110번길 54-19","phone":"055-255-2810","openingHours":"","services":{"parking":null,"wifi":null,"outlet":null,"driveThrough":null,"terrace":null,"pet":null},"petPolicyType":"정보 없음","lastCheckedAt":""},{"id":"엔제리너스_MA010120220802920647","brand":"엔제리너스","name":"엔제리너스마산진동점","lat":35.116059322578,"lng":128.485006430691,"address":"경상남도 창원시 마산합포구 진동면 신서촌로 16","phone":"055-271-0980","openingHours":"","services":{"parking":null,"wifi":null,"outlet":null,"driveThrough":null,"terrace":null,"pet":null},"petPolicyType":"정보 없음","lastCheckedAt":""},{"id":"감성커피_MA010120220802908643","brand":"감성커피","name":"감성커피","lat":35.2321064270159,"lng":128.864534371358,"address":"경상남도 김해시 함박로 102","phone":"","openingHours":"","services":{"parking":null,"wifi":null,"outlet":null,"driveThrough":null,"terrace":null,"pet":null},"petPolicyType":"정보 없음","lastCheckedAt":""},{"id":"텐퍼센트커피_MA010120220802913581","brand":"텐퍼센트커피","name":"텐퍼센트","lat":35.6843245351485,"lng":127.908632237669,"address":"경상남도 거창군 거창읍 강변로 105","phone":"055-945-1117","openingHours":"","services":{"parking":null,"wifi":null,"outlet":null,"driveThrough":null,"terrace":null,"pet":null},"petPolicyType":"정보 없음","lastCheckedAt":""},{"id":"더벤티_MA010120220802982856","brand":"더벤티","name":"더벤티김해진례점","lat":35.2486140944577,"lng":128.75316465744,"address":"경상남도 김해시 진례면 송현로 43","phone":"055-345-7750","openingHours":"","services":{"parking":null,"wifi":null,"outlet":null,"driveThrough":null,"terrace":null,"pet":null},"petPolicyType":"정보 없음","lastCheckedAt":""},{"id":"더벤티_MA010120220803012232","brand":"더벤티","name":"더벤티김해 율하점","lat":35.1779787366097,"lng":128.820852066933,"address":"경상남도 김해시 율하2로 272","phone":"055-337-8070","openingHours":"","services":{"parking":null,"wifi":null,"outlet":null,"driveThrough":null,"terrace":null,"pet":null},"petPolicyType":"정보 없음","lastCheckedAt":""},{"id":"스타벅스_MA010120220803059493","brand":"스타벅스","name":"장원네트웍스스타벅스칠암DT점","lat":35.1748577291394,"lng":128.092886993269,"address":"경상남도 진주시 진주대로829번길 2","phone":"","openingHours":"","services":{"parking":null,"wifi":true,"outlet":true,"driveThrough":true,"terrace":null,"pet":null},"petPolicyType":"정보 없음","lastCheckedAt":""},{"id":"메가MGC커피_MA010120220803183662","brand":"메가MGC커피","name":"메가엠지씨커피하동점","lat":35.0663005563969,"lng":127.749128169333,"address":"경상남도 하동군 하동읍 경서대로 124","phone":"055-884-1817","openingHours":"","services":{"parking":null,"wifi":null,"outlet":null,"driveThrough":null,"terrace":null,"pet":null},"petPolicyType":"정보 없음","lastCheckedAt":""},{"id":"매머드커피_MA010120220803250513","brand":"매머드커피","name":"매머드익스프레스충무공점","lat":35.1779760415168,"lng":128.137925258764,"address":"경상남도 진주시 에나로77번길 10","phone":"","openingHours":"","services":{"parking":null,"wifi":null,"outlet":null,"driveThrough":null,"terrace":null,"pet":null},"petPolicyType":"정보 없음","lastCheckedAt":""},{"id":"컴포즈커피_MA010120220803231020","brand":"컴포즈커피","name":"컴포즈커피김해 터미널점","lat":35.2293378483044,"lng":128.872247034182,"address":"경상남도 김해시 김해대로 2232","phone":"","openingHours":"","services":{"parking":null,"wifi":true,"outlet":true,"driveThrough":null,"terrace":null,"pet":null},"petPolicyType":"정보 없음","lastCheckedAt":""},{"id":"커피나무_MA010120220803271876","brand":"커피나무","name":"커피나무","lat":35.2248049620911,"lng":128.874570000826,"address":"경상남도 김해시 전하로176번길 93","phone":"055-329-2439","openingHours":"","services":{"parking":null,"wifi":true,"outlet":null,"driveThrough":null,"terrace":null,"pet":null},"petPolicyType":"정보 없음","lastCheckedAt":""},{"id":"이디야커피_MA010120220803181270","brand":"이디야커피","name":"이디야커피진주대 안동점","lat":35.1947358260368,"lng":128.082360106386,"address":"경상남도 진주시 촉석로186번길 6-1","phone":"055-743-3262","openingHours":"","services":{"parking":null,"wifi":null,"outlet":null,"driveThrough":null,"terrace":null,"pet":null},"petPolicyType":"정보 없음","lastCheckedAt":""},{"id":"컴포즈커피_MA010120220803120982","brand":"컴포즈커피","name":"컴포즈커피마산양덕메트로점","lat":35.2289148195371,"lng":128.584474520332,"address":"경상남도 창원시 마산회원구 율림교로 6","phone":"055-299-8898","openingHours":"","services":{"parking":null,"wifi":true,"outlet":true,"driveThrough":null,"terrace":null,"pet":null},"petPolicyType":"정보 없음","lastCheckedAt":""},{"id":"공차_MA010120220803234569","brand":"공차","name":"공차거제디 큐브점","lat":34.8910549273643,"lng":128.616407243116,"address":"경상남도 거제시 장평로 12","phone":"055-680-0009","openingHours":"","services":{"parking":null,"wifi":false,"outlet":false,"driveThrough":null,"terrace":null,"pet":null},"petPolicyType":"정보 없음","lastCheckedAt":""},{"id":"커피에반하다_MA010120220803262870","brand":"커피에반하다","name":"커피에반하다","lat":35.2760665977034,"lng":128.400461931573,"address":"경상남도 함안군 가야읍 함마대로 1511","phone":"055-582-1300","openingHours":"","services":{"parking":null,"wifi":null,"outlet":null,"driveThrough":null,"terrace":null,"pet":null},"petPolicyType":"정보 없음","lastCheckedAt":""},{"id":"할리스_MA010120220803383212","brand":"할리스","name":"할리스커피밀양킹콩점","lat":35.4868407919906,"lng":128.747119300337,"address":"경상남도 밀양시 삼문강변로 272","phone":"055-351-0056","openingHours":"","services":{"parking":null,"wifi":true,"outlet":true,"driveThrough":null,"terrace":null,"pet":null},"petPolicyType":"정보 없음","lastCheckedAt":""},{"id":"하삼동커피_MA010120220803312244","brand":"하삼동커피","name":"하삼동커피풍호자은점","lat":35.1404468002336,"lng":128.705452915165,"address":"경상남도 창원시 진해구 풍호로49번길 5-12","phone":"","openingHours":"","services":{"parking":null,"wifi":null,"outlet":null,"driveThrough":null,"terrace":null,"pet":null},"petPolicyType":"정보 없음","lastCheckedAt":""},{"id":"메가MGC커피_MA010120220803364546","brand":"메가MGC커피","name":"메가커피 사천점","lat":35.0621486020805,"lng":128.068647559629,"address":"경상남도 사천시 사남면 조동길 38","phone":"055-855-2455","openingHours":"","services":{"parking":null,"wifi":null,"outlet":null,"driveThrough":null,"terrace":null,"pet":null},"petPolicyType":"정보 없음","lastCheckedAt":""},{"id":"투썸플레이스_MA010120220803343777","brand":"투썸플레이스","name":"투썸플레이스진해 용원점","lat":35.1005935717139,"lng":128.802055232627,"address":"경상남도 창원시 진해구 청안로 241-61","phone":"055-544-3500","openingHours":"","services":{"parking":null,"wifi":true,"outlet":true,"driveThrough":null,"terrace":null,"pet":null},"petPolicyType":"정보 없음","lastCheckedAt":""},{"id":"빽다방_MA010120220803324699","brand":"빽다방","name":"빽다방경남고성송학점","lat":34.9775695556411,"lng":128.324566897125,"address":"경상남도 고성군 고성읍 송학로 140","phone":"055-674-5678","openingHours":"","services":{"parking":null,"wifi":true,"outlet":true,"driveThrough":null,"terrace":null,"pet":null},"petPolicyType":"정보 없음","lastCheckedAt":""},{"id":"봄봄_MA010120220803313782","brand":"봄봄","name":"봄봄 남지점","lat":35.3904808287678,"lng":128.483395386337,"address":"경상남도 창녕군 남지읍 동포옛길 10","phone":"","openingHours":"","services":{"parking":null,"wifi":null,"outlet":null,"driveThrough":null,"terrace":null,"pet":null},"petPolicyType":"정보 없음","lastCheckedAt":""},{"id":"하삼동커피_MA010120220803404915","brand":"하삼동커피","name":"하삼동커피양산덕계점","lat":35.3741009300971,"lng":129.162131412683,"address":"경상남도 양산시 신덕계3길 36","phone":"055-362-1567","openingHours":"","services":{"parking":null,"wifi":null,"outlet":null,"driveThrough":null,"terrace":null,"pet":null},"petPolicyType":"정보 없음","lastCheckedAt":""},{"id":"빽다방_MA010120220803356971","brand":"빽다방","name":"빽다방사천정동점","lat":35.0760598642791,"lng":128.084452359225,"address":"경상남도 사천시 정동면 진삼로 1394-1","phone":"055-854-6264","openingHours":"","services":{"parking":null,"wifi":true,"outlet":true,"driveThrough":null,"terrace":null,"pet":null},"petPolicyType":"정보 없음","lastCheckedAt":""},{"id":"메가MGC커피_MA010120220803315167","brand":"메가MGC커피","name":"메가커피통영 죽림점","lat":34.8800607654001,"lng":128.422332856064,"address":"경상남도 통영시 광도면 죽림2로 55-69","phone":"055-645-0533","openingHours":"","services":{"parking":null,"wifi":null,"outlet":null,"driveThrough":null,"terrace":null,"pet":null},"petPolicyType":"정보 없음","lastCheckedAt":""},{"id":"커피에반하다_MA010120220803387081","brand":"커피에반하다","name":"커피에반하다 고성점","lat":34.9763341254982,"lng":128.326277127152,"address":"경상남도 고성군 고성읍 동외로 170","phone":"","openingHours":"","services":{"parking":null,"wifi":null,"outlet":null,"driveThrough":null,"terrace":null,"pet":null},"petPolicyType":"정보 없음","lastCheckedAt":""},{"id":"메가MGC커피_MA010120220803307043","brand":"메가MGC커피","name":"메가엠지씨커피창원월영애시앙점","lat":35.1764986518188,"lng":128.564390277823,"address":"경상남도 창원시 마산합포구 가포순환로 33","phone":"055-242-0994","openingHours":"","services":{"parking":null,"wifi":null,"outlet":null,"driveThrough":null,"terrace":null,"pet":null},"petPolicyType":"정보 없음","lastCheckedAt":""},{"id":"컴포즈커피_MA010120220803377174","brand":"컴포즈커피","name":"컴포즈커피창원소계점","lat":35.2567523892692,"lng":128.598970143902,"address":"경상남도 창원시 의창구 소계로 83-6","phone":"055-253-3463","openingHours":"","services":{"parking":null,"wifi":true,"outlet":true,"driveThrough":null,"terrace":null,"pet":null},"petPolicyType":"정보 없음","lastCheckedAt":""},{"id":"공차_MA010120220803323898","brand":"공차","name":"공차경남거창점","lat":35.6884327890507,"lng":127.90523210125,"address":"경상남도 거창군 거창읍 거열로 104","phone":"070-7622-3889","openingHours":"","services":{"parking":null,"wifi":false,"outlet":false,"driveThrough":null,"terrace":null,"pet":null},"petPolicyType":"정보 없음","lastCheckedAt":""},{"id":"커피나무_MA010120220803293920","brand":"커피나무","name":"사과나무커피나무","lat":35.1500999479993,"lng":128.661280399036,"address":"경상남도 창원시 진해구 벚꽃로 44-1","phone":"","openingHours":"","services":{"parking":null,"wifi":true,"outlet":null,"driveThrough":null,"terrace":null,"pet":null},"petPolicyType":"정보 없음","lastCheckedAt":""},{"id":"이디야커피_MA010120220803712736","brand":"이디야커피","name":"이디야커피주약동점","lat":35.1733482792022,"lng":128.092361856012,"address":"경상남도 진주시 진주대로815번길 14","phone":"055-762-4488","openingHours":"","services":{"parking":null,"wifi":null,"outlet":null,"driveThrough":null,"terrace":null,"pet":null},"petPolicyType":"정보 없음","lastCheckedAt":""},{"id":"엔제리너스_MA010120220803580270","brand":"엔제리너스","name":"엔제리너스","lat":35.5230866959903,"lng":127.720969861111,"address":"경상남도 함양군 함양읍 상림1길 5-12","phone":"055-964-8585","openingHours":"","services":{"parking":null,"wifi":null,"outlet":null,"driveThrough":null,"terrace":null,"pet":null},"petPolicyType":"정보 없음","lastCheckedAt":""},{"id":"투썸플레이스_MA010120220803436218","brand":"투썸플레이스","name":"투썸플레이스통영 죽림점","lat":34.8782346842289,"lng":128.42202796931,"address":"경상남도 통영시 광도면 죽림해안로 144","phone":"055-641-1177","openingHours":"","services":{"parking":null,"wifi":true,"outlet":true,"driveThrough":null,"terrace":null,"pet":null},"petPolicyType":"정보 없음","lastCheckedAt":""},{"id":"빽다방_MA010120220803447033","brand":"빽다방","name":"빽다방김해 장유점","lat":35.1922599057084,"lng":128.802979861284,"address":"경상남도 김해시 삼문로 22","phone":"055-326-0410","openingHours":"","services":{"parking":null,"wifi":true,"outlet":true,"driveThrough":null,"terrace":null,"pet":null},"petPolicyType":"정보 없음","lastCheckedAt":""},{"id":"하삼동커피_MA010120220803713152","brand":"하삼동커피","name":"하삼동커피 경남대점","lat":35.1812913604016,"lng":128.558247073818,"address":"경상남도 창원시 마산합포구 315대로 9","phone":"055-222-3533","openingHours":"","services":{"parking":null,"wifi":null,"outlet":null,"driveThrough":null,"terrace":null,"pet":null},"petPolicyType":"정보 없음","lastCheckedAt":""},{"id":"컴포즈커피_MA010120220803709611","brand":"컴포즈커피","name":"컴포즈 석동점","lat":35.1558325354323,"lng":128.705324121165,"address":"경상남도 창원시 진해구 석동로 59","phone":"055-713-8899","openingHours":"","services":{"parking":null,"wifi":true,"outlet":true,"driveThrough":null,"terrace":null,"pet":null},"petPolicyType":"정보 없음","lastCheckedAt":""},{"id":"텐퍼센트커피_MA010120220803827421","brand":"텐퍼센트커피","name":"텐퍼센트커피마산회원점","lat":35.2189825258642,"lng":128.570004483326,"address":"경상남도 창원시 마산회원구 회원남로 82","phone":"055-607-2855","openingHours":"","services":{"parking":null,"wifi":null,"outlet":null,"driveThrough":null,"terrace":null,"pet":null},"petPolicyType":"정보 없음","lastCheckedAt":""},{"id":"빽다방_MA010120220803827895","brand":"빽다방","name":"빽다방진주과기대점","lat":35.1791698843391,"lng":128.093449685963,"address":"경상남도 진주시 동진로 21","phone":"055-753-1435","openingHours":"","services":{"parking":null,"wifi":true,"outlet":true,"driveThrough":null,"terrace":null,"pet":null},"petPolicyType":"정보 없음","lastCheckedAt":""},{"id":"커피빈_MA010120220804038512","brand":"커피빈","name":"커피빈","lat":34.9331027570331,"lng":128.080137632673,"address":"경상남도 사천시 남일로 33","phone":"","openingHours":"","services":{"parking":null,"wifi":true,"outlet":true,"driveThrough":null,"terrace":null,"pet":null},"petPolicyType":"정보 없음","lastCheckedAt":""},{"id":"하삼동커피_MA010120220804045623","brand":"하삼동커피","name":"하삼동커피 교동점","lat":35.3443080529818,"lng":129.027093551802,"address":"경상남도 양산시 황산로 919","phone":"055-382-3030","openingHours":"","services":{"parking":null,"wifi":null,"outlet":null,"driveThrough":null,"terrace":null,"pet":null},"petPolicyType":"정보 없음","lastCheckedAt":""},{"id":"컴포즈커피_MA010120220803920803","brand":"컴포즈커피","name":"컴포즈커피양산천성점","lat":35.4072317442202,"lng":129.158778724866,"address":"경상남도 양산시 소주회야로 51","phone":"055-913-0997","openingHours":"","services":{"parking":null,"wifi":true,"outlet":true,"driveThrough":null,"terrace":null,"pet":null},"petPolicyType":"정보 없음","lastCheckedAt":""},{"id":"이디야커피_MA010120220803852359","brand":"이디야커피","name":"이디야커피 합천점","lat":35.5684957145044,"lng":128.158742362333,"address":"경상남도 합천군 합천읍 옥산로 34","phone":"055-934-0345","openingHours":"","services":{"parking":null,"wifi":null,"outlet":null,"driveThrough":null,"terrace":null,"pet":null},"petPolicyType":"정보 없음","lastCheckedAt":""},{"id":"투썸플레이스_MA010120220803828522","brand":"투썸플레이스","name":"투썸플레이스창원 용호점","lat":35.2300795891793,"lng":128.680516283672,"address":"경상남도 창원시 성산구 용지로169번길 11-14","phone":"055-274-2323","openingHours":"","services":{"parking":null,"wifi":true,"outlet":true,"driveThrough":null,"terrace":null,"pet":null},"petPolicyType":"정보 없음","lastCheckedAt":""},{"id":"더리터_MA010120220803871748","brand":"더리터","name":"더리터경상대 후문점","lat":35.1567143590881,"lng":128.104826072611,"address":"경상남도 진주시 가좌길 28","phone":"","openingHours":"","services":{"parking":null,"wifi":null,"outlet":null,"driveThrough":null,"terrace":null,"pet":null},"petPolicyType":"정보 없음","lastCheckedAt":""},{"id":"봄봄_MA010120220803787848","brand":"봄봄","name":"카페봄봄","lat":35.5669394112206,"lng":128.161256900643,"address":"경상남도 합천군 합천읍 충효로 74-1","phone":"055-932-9994","openingHours":"","services":{"parking":null,"wifi":null,"outlet":null,"driveThrough":null,"terrace":null,"pet":null},"petPolicyType":"정보 없음","lastCheckedAt":""},{"id":"봄봄_MA010120220804152894","brand":"봄봄","name":"카페봄봄","lat":35.2776666483772,"lng":128.40625948009,"address":"경상남도 함안군 가야읍 가야로 45-1","phone":"070-8726-7072","openingHours":"","services":{"parking":null,"wifi":null,"outlet":null,"driveThrough":null,"terrace":null,"pet":null},"petPolicyType":"정보 없음","lastCheckedAt":""},{"id":"더리터_MA010120220804049906","brand":"더리터","name":"더리터의령JS","lat":35.3199742914687,"lng":128.262258357685,"address":"경상남도 의령군 의령읍 의병로 233","phone":"","openingHours":"","services":{"parking":null,"wifi":null,"outlet":null,"driveThrough":null,"terrace":null,"pet":null},"petPolicyType":"정보 없음","lastCheckedAt":""},{"id":"이디야커피_MA010120220804379134","brand":"이디야커피","name":"이디야사천사주리점","lat":35.0775285305658,"lng":128.085513373929,"address":"경상남도 사천시 정동면 진삼로 1414","phone":"055-852-5004","openingHours":"","services":{"parking":null,"wifi":null,"outlet":null,"driveThrough":null,"terrace":null,"pet":null},"petPolicyType":"정보 없음","lastCheckedAt":""},{"id":"이디야커피_MA010120220804427629","brand":"이디야커피","name":"이디야진주개양 오거리점","lat":35.160415351594,"lng":128.106182156158,"address":"경상남도 진주시 가좌길74번길 1","phone":"055-754-4646","openingHours":"","services":{"parking":null,"wifi":null,"outlet":null,"driveThrough":null,"terrace":null,"pet":null},"petPolicyType":"정보 없음","lastCheckedAt":""},{"id":"메가MGC커피_MA010120220804140946","brand":"메가MGC커피","name":"메가엠지씨커피주촌센텀위브점","lat":35.2339314932181,"lng":128.837720888236,"address":"경상남도 김해시 주촌면 천곡로 18","phone":"","openingHours":"","services":{"parking":null,"wifi":null,"outlet":null,"driveThrough":null,"terrace":null,"pet":null},"petPolicyType":"정보 없음","lastCheckedAt":""},{"id":"투썸플레이스_MA010120220804688283","brand":"투썸플레이스","name":"투썸플레이스진영DT점","lat":35.3063643112475,"lng":128.744977381877,"address":"경상남도 김해시 진영읍 김해대로 502","phone":"055-343-5010","openingHours":"","services":{"parking":null,"wifi":true,"outlet":true,"driveThrough":true,"terrace":null,"pet":null},"petPolicyType":"정보 없음","lastCheckedAt":""},{"id":"더벤티_MA010120220804539079","brand":"더벤티","name":"더벤티과기대점","lat":35.178047454032,"lng":128.091985626088,"address":"경상남도 진주시 진주대로 868","phone":"055-758-7588","openingHours":"","services":{"parking":null,"wifi":null,"outlet":null,"driveThrough":null,"terrace":null,"pet":null},"petPolicyType":"정보 없음","lastCheckedAt":""},{"id":"더리터_MA010120220804603237","brand":"더리터","name":"더리터","lat":35.0624379692233,"lng":128.075677971388,"address":"경상남도 사천시 사남면 월성1길 104","phone":"055-853-2488","openingHours":"","services":{"parking":null,"wifi":null,"outlet":null,"driveThrough":null,"terrace":null,"pet":null},"petPolicyType":"정보 없음","lastCheckedAt":""},{"id":"더벤티_MA010120220804575981","brand":"더벤티","name":"더벤티양산덕계점","lat":35.3750056884251,"lng":129.152341619658,"address":"경상남도 양산시 덕계로 86","phone":"070-4099-5581","openingHours":"","services":{"parking":null,"wifi":null,"outlet":null,"driveThrough":null,"terrace":null,"pet":null},"petPolicyType":"정보 없음","lastCheckedAt":""},{"id":"봄봄_MA010120220804877867","brand":"봄봄","name":"카페봄봄","lat":35.2153798134241,"lng":128.564960344249,"address":"경상남도 창원시 마산합포구 노산서18길 80","phone":"055-222-9759","openingHours":"","services":{"parking":null,"wifi":null,"outlet":null,"driveThrough":null,"terrace":null,"pet":null},"petPolicyType":"정보 없음","lastCheckedAt":""},{"id":"이디야커피_MA010120220804787497","brand":"이디야커피","name":"이디야커피김해한림점","lat":35.2769743219993,"lng":128.832242109669,"address":"경상남도 김해시 한림면 김해대로 1464","phone":"055-342-8441","openingHours":"","services":{"parking":null,"wifi":null,"outlet":null,"driveThrough":null,"terrace":null,"pet":null},"petPolicyType":"정보 없음","lastCheckedAt":""},{"id":"컴포즈커피_MA010120220804808572","brand":"컴포즈커피","name":"컴포즈커피김해장유능동로점","lat":35.1968214185188,"lng":128.796822738263,"address":"경상남도 김해시 능동로 31","phone":"055-724-2623","openingHours":"","services":{"parking":null,"wifi":true,"outlet":true,"driveThrough":null,"terrace":null,"pet":null},"petPolicyType":"정보 없음","lastCheckedAt":""},{"id":"더벤티_MA010120220804764053","brand":"더벤티","name":"더벤티창원더샵 센트럴파크점","lat":35.2091304217946,"lng":128.697653553823,"address":"경상남도 창원시 성산구 원이대로863번길 19","phone":"055-262-8076","openingHours":"","services":{"parking":null,"wifi":null,"outlet":null,"driveThrough":null,"terrace":null,"pet":null},"petPolicyType":"정보 없음","lastCheckedAt":""},{"id":"하삼동커피_MA010120220804729933","brand":"하삼동커피","name":"하삼동 신촌점","lat":35.2022570959041,"lng":128.628557029307,"address":"경상남도 창원시 성산구 신촌로 83","phone":"055-602-9210","openingHours":"","services":{"parking":null,"wifi":null,"outlet":null,"driveThrough":null,"terrace":null,"pet":null},"petPolicyType":"정보 없음","lastCheckedAt":""},{"id":"하삼동커피_MA010120220804837465","brand":"하삼동커피","name":"하삼동커피김해관동점","lat":35.1761709280968,"lng":128.806773389627,"address":"경상남도 김해시 율하카페길 3","phone":"055-329-2468","openingHours":"","services":{"parking":null,"wifi":null,"outlet":null,"driveThrough":null,"terrace":null,"pet":null},"petPolicyType":"정보 없음","lastCheckedAt":""},{"id":"이디야커피_MA010120220804766788","brand":"이디야커피","name":"이디야삼천포점","lat":34.9315083095471,"lng":128.078004435416,"address":"경상남도 사천시 동금2길 31","phone":"055-835-7688","openingHours":"","services":{"parking":null,"wifi":null,"outlet":null,"driveThrough":null,"terrace":null,"pet":null},"petPolicyType":"정보 없음","lastCheckedAt":""},{"id":"하삼동커피_MA010120220804773287","brand":"하삼동커피","name":"하삼동칠암점","lat":35.1785192420446,"lng":128.093638567486,"address":"경상남도 진주시 동진로 22","phone":"055-752-0056","openingHours":"","services":{"parking":null,"wifi":null,"outlet":null,"driveThrough":null,"terrace":null,"pet":null},"petPolicyType":"정보 없음","lastCheckedAt":""},{"id":"하삼동커피_MA010120220804784086","brand":"하삼동커피","name":"하삼동커피마산 현동점","lat":35.1499954348794,"lng":128.554402067485,"address":"경상남도 창원시 마산합포구 현동7길 28","phone":"","openingHours":"","services":{"parking":null,"wifi":null,"outlet":null,"driveThrough":null,"terrace":null,"pet":null},"petPolicyType":"정보 없음","lastCheckedAt":""},{"id":"공차_MA010120220804958810","brand":"공차","name":"공차진해 용원점","lat":35.1020388118902,"lng":128.810300652472,"address":"경상남도 창원시 진해구 안골로 348","phone":"055-546-0708","openingHours":"","services":{"parking":null,"wifi":false,"outlet":false,"driveThrough":null,"terrace":null,"pet":null},"petPolicyType":"정보 없음","lastCheckedAt":""},{"id":"컴포즈커피_MA010120220804982497","brand":"컴포즈커피","name":"컴포즈커피진해웅동로점","lat":35.124403653089,"lng":128.781946757429,"address":"경상남도 창원시 진해구 웅동로 42-5","phone":"055-546-4153","openingHours":"","services":{"parking":null,"wifi":true,"outlet":true,"driveThrough":null,"terrace":null,"pet":null},"petPolicyType":"정보 없음","lastCheckedAt":""},{"id":"봄봄_MA010120220804994150","brand":"봄봄","name":"카페봄봄","lat":35.1784080115203,"lng":128.094976335485,"address":"경상남도 진주시 동진로34번길 6","phone":"","openingHours":"","services":{"parking":null,"wifi":null,"outlet":null,"driveThrough":null,"terrace":null,"pet":null},"petPolicyType":"정보 없음","lastCheckedAt":""},{"id":"컴포즈커피_MA010120220804923965","brand":"컴포즈커피","name":"컴포즈커피마산합성롯데 캐슬점","lat":35.2450736497573,"lng":128.586557585678,"address":"경상남도 창원시 마산회원구 합성북16길 197","phone":"055-607-9929","openingHours":"","services":{"parking":null,"wifi":true,"outlet":true,"driveThrough":null,"terrace":null,"pet":null},"petPolicyType":"정보 없음","lastCheckedAt":""},{"id":"할리스_MA010120220804983827","brand":"할리스","name":"할리스커피양산원동점","lat":35.359799197963,"lng":128.925142968855,"address":"경상남도 양산시 원동면 원동로 1429","phone":"055-372-0268","openingHours":"","services":{"parking":null,"wifi":true,"outlet":true,"driveThrough":null,"terrace":null,"pet":null},"petPolicyType":"정보 없음","lastCheckedAt":""},{"id":"하삼동커피_MA010120220804890253","brand":"하삼동커피","name":"하삼동커피양산 중부점","lat":35.3369722767675,"lng":129.027658083455,"address":"경상남도 양산시 양산역1길 24","phone":"055-385-7676","openingHours":"","services":{"parking":null,"wifi":null,"outlet":null,"driveThrough":null,"terrace":null,"pet":null},"petPolicyType":"정보 없음","lastCheckedAt":""},{"id":"이디야커피_MA010120220805034757","brand":"이디야커피","name":"이디야커피가촌점","lat":35.3203844502034,"lng":128.999393163858,"address":"경상남도 양산시 물금읍 백호로 34","phone":"055-384-1234","openingHours":"","services":{"parking":null,"wifi":null,"outlet":null,"driveThrough":null,"terrace":null,"pet":null},"petPolicyType":"정보 없음","lastCheckedAt":""},{"id":"엔제리너스_MA010120220804940360","brand":"엔제리너스","name":"엔제리너스","lat":35.6844739776414,"lng":127.910324070207,"address":"경상남도 거창군 거창읍 강변로 121","phone":"055-945-2345","openingHours":"","services":{"parking":null,"wifi":null,"outlet":null,"driveThrough":null,"terrace":null,"pet":null},"petPolicyType":"정보 없음","lastCheckedAt":""},{"id":"더리터_MA010120220804976020","brand":"더리터","name":"더리터 고성점","lat":34.9746780054782,"lng":128.325243030794,"address":"경상남도 고성군 고성읍 중앙로43번길 16","phone":"055-673-9459","openingHours":"","services":{"parking":null,"wifi":null,"outlet":null,"driveThrough":null,"terrace":null,"pet":null},"petPolicyType":"정보 없음","lastCheckedAt":""},{"id":"하삼동커피_MA010120220805048480","brand":"하삼동커피","name":"하삼동커피 외동점","lat":35.2324009142571,"lng":128.865892083507,"address":"경상남도 김해시 내외중앙로 27","phone":"055-322-2320","openingHours":"","services":{"parking":null,"wifi":null,"outlet":null,"driveThrough":null,"terrace":null,"pet":null},"petPolicyType":"정보 없음","lastCheckedAt":""},{"id":"하삼동커피_MA010120220805133772","brand":"하삼동커피","name":"하삼동커피 평거점","lat":35.1712499659386,"lng":128.060732203679,"address":"경상남도 진주시 남강로309번길 44","phone":"0507-0289-9991","openingHours":"","services":{"parking":null,"wifi":null,"outlet":null,"driveThrough":null,"terrace":null,"pet":null},"petPolicyType":"정보 없음","lastCheckedAt":""},{"id":"하삼동커피_MA010120220805042362","brand":"하삼동커피","name":"하삼동커피가촌 증산역점","lat":35.3106876005815,"lng":129.007575675323,"address":"경상남도 양산시 물금읍 야리1길 17","phone":"070-7543-1489","openingHours":"","services":{"parking":null,"wifi":null,"outlet":null,"driveThrough":null,"terrace":null,"pet":null},"petPolicyType":"정보 없음","lastCheckedAt":""},{"id":"공차_MA010120220805195362","brand":"공차","name":"공차마산 합성점","lat":35.2383083918713,"lng":128.582888672794,"address":"경상남도 창원시 마산회원구 315대로 744","phone":"055-297-7707","openingHours":"","services":{"parking":null,"wifi":false,"outlet":false,"driveThrough":null,"terrace":null,"pet":null},"petPolicyType":"정보 없음","lastCheckedAt":""},{"id":"컴포즈커피_MA010120220805072896","brand":"컴포즈커피","name":"컴포즈커피충장로점","lat":35.1518584188419,"lng":128.666451543872,"address":"경상남도 창원시 진해구 충장로 132","phone":"070-7358-8892","openingHours":"","services":{"parking":null,"wifi":true,"outlet":true,"driveThrough":null,"terrace":null,"pet":null},"petPolicyType":"정보 없음","lastCheckedAt":""},{"id":"공차_MA010120220805175457","brand":"공차","name":"공차 창원상남점","lat":35.2213430235945,"lng":128.685970077821,"address":"경상남도 창원시 성산구 마디미로21번길 18","phone":"070-8711-0707","openingHours":"","services":{"parking":null,"wifi":false,"outlet":false,"driveThrough":null,"terrace":null,"pet":null},"petPolicyType":"정보 없음","lastCheckedAt":""},{"id":"컴포즈커피_MA010120220805142540","brand":"컴포즈커피","name":"컴포즈커피 김해부원점","lat":35.2271156105365,"lng":128.882464858402,"address":"경상남도 김해시 가락로 7","phone":"055-312-1686","openingHours":"","services":{"parking":null,"wifi":true,"outlet":true,"driveThrough":null,"terrace":null,"pet":null},"petPolicyType":"정보 없음","lastCheckedAt":""},{"id":"컴포즈커피_MA010120220805094092","brand":"컴포즈커피","name":"컴포즈커피양산덕계점","lat":35.3743131495078,"lng":129.150749923347,"address":"경상남도 양산시 번영로 19","phone":"055-913-3308","openingHours":"","services":{"parking":null,"wifi":true,"outlet":true,"driveThrough":null,"terrace":null,"pet":null},"petPolicyType":"정보 없음","lastCheckedAt":""},{"id":"더벤티_MA010120220805041728","brand":"더벤티","name":"더벤티용호 롯데점","lat":35.2340396814506,"lng":128.685430977391,"address":"경상남도 창원시 성산구 용지로 225","phone":"055-263-2223","openingHours":"","services":{"parking":null,"wifi":null,"outlet":null,"driveThrough":null,"terrace":null,"pet":null},"petPolicyType":"정보 없음","lastCheckedAt":""},{"id":"하삼동커피_MA010120220805187620","brand":"하삼동커피","name":"하삼동커피삼계서희스타힐스점","lat":35.2728443086172,"lng":128.865423789344,"address":"경상남도 김해시 해반천로 280-1","phone":"","openingHours":"","services":{"parking":null,"wifi":null,"outlet":null,"driveThrough":null,"terrace":null,"pet":null},"petPolicyType":"정보 없음","lastCheckedAt":""},{"id":"하삼동커피_MA010120220805183456","brand":"하삼동커피","name":"하삼동커피 신진주역점","lat":35.1550658797724,"lng":128.116524406465,"address":"경상남도 진주시 개양로 100","phone":"","openingHours":"","services":{"parking":null,"wifi":null,"outlet":null,"driveThrough":null,"terrace":null,"pet":null},"petPolicyType":"정보 없음","lastCheckedAt":""},{"id":"텐퍼센트커피_MA010120220805157104","brand":"텐퍼센트커피","name":"텐퍼센트김해삼계장신대점","lat":35.257567277796,"lng":128.867303896701,"address":"경상남도 김해시 삼계로13번길 5","phone":"055-323-1437","openingHours":"","services":{"parking":null,"wifi":null,"outlet":null,"driveThrough":null,"terrace":null,"pet":null},"petPolicyType":"정보 없음","lastCheckedAt":""},{"id":"컴포즈커피_MA010120220805046301","brand":"컴포즈커피","name":"컴포즈커피창원 중앙역점","lat":35.2395046766506,"lng":128.699989095139,"address":"경상남도 창원시 의창구 용동로83번안길 36","phone":"055-275-8989","openingHours":"","services":{"parking":null,"wifi":true,"outlet":true,"driveThrough":null,"terrace":null,"pet":null},"petPolicyType":"정보 없음","lastCheckedAt":""},{"id":"컴포즈커피_MA010120220805089142","brand":"컴포즈커피","name":"컴포즈커피마산 삼계점","lat":35.2333673295586,"lng":128.503925685553,"address":"경상남도 창원시 마산회원구 내서읍 삼계4길 30","phone":"055-231-9766","openingHours":"","services":{"parking":null,"wifi":true,"outlet":true,"driveThrough":null,"terrace":null,"pet":null},"petPolicyType":"정보 없음","lastCheckedAt":""},{"id":"빽다방_MA010120220805232136","brand":"빽다방","name":"빽다방경남 창녕점","lat":35.5418977316064,"lng":128.49257421358,"address":"경상남도 창녕군 창녕읍 군청길 23","phone":"055-532-8090","openingHours":"","services":{"parking":null,"wifi":true,"outlet":true,"driveThrough":null,"terrace":null,"pet":null},"petPolicyType":"정보 없음","lastCheckedAt":""},{"id":"메가MGC커피_MA010120220805247697","brand":"메가MGC커피","name":"메가엠지씨커피불모산점","lat":35.1901754626736,"lng":128.725231347184,"address":"경상남도 창원시 성산구 창원대로 1310","phone":"055-286-8004","openingHours":"","services":{"parking":null,"wifi":null,"outlet":null,"driveThrough":null,"terrace":null,"pet":null},"petPolicyType":"정보 없음","lastCheckedAt":""},{"id":"이디야커피_MA010120220805301338","brand":"이디야커피","name":"이디야커피금산점","lat":35.2176884306362,"lng":128.146375902258,"address":"경상남도 진주시 금산면 중천로 83","phone":"055-757-8420","openingHours":"","services":{"parking":null,"wifi":null,"outlet":null,"driveThrough":null,"terrace":null,"pet":null},"petPolicyType":"정보 없음","lastCheckedAt":""},{"id":"감성커피_MA010120220805278500","brand":"감성커피","name":"감성커피진해 석동점","lat":35.1515991723099,"lng":128.702591282952,"address":"경상남도 창원시 진해구 냉천로 47","phone":"055-545-5933","openingHours":"","services":{"parking":null,"wifi":null,"outlet":null,"driveThrough":null,"terrace":null,"pet":null},"petPolicyType":"정보 없음","lastCheckedAt":""},{"id":"이디야커피_MA010120220805276235","brand":"이디야커피","name":"이디야장 대동점","lat":35.1912779209873,"lng":128.087046304793,"address":"경상남도 진주시 남강로 690","phone":"055-747-1788","openingHours":"","services":{"parking":null,"wifi":null,"outlet":null,"driveThrough":null,"terrace":null,"pet":null},"petPolicyType":"정보 없음","lastCheckedAt":""},{"id":"더리터_MA010120220805247971","brand":"더리터","name":"더리터","lat":35.1977326290271,"lng":128.068663697544,"address":"경상남도 진주시 의병로 56","phone":"","openingHours":"","services":{"parking":null,"wifi":null,"outlet":null,"driveThrough":null,"terrace":null,"pet":null},"petPolicyType":"정보 없음","lastCheckedAt":""},{"id":"텐퍼센트커피_MA010120220805306692","brand":"텐퍼센트커피","name":"텐퍼센트커피 중부점","lat":35.3351399980124,"lng":129.028371094223,"address":"경상남도 양산시 삽량로 199","phone":"070-7543-9330","openingHours":"","services":{"parking":null,"wifi":null,"outlet":null,"driveThrough":null,"terrace":null,"pet":null},"petPolicyType":"정보 없음","lastCheckedAt":""},{"id":"이디야커피_MA010120220805239840","brand":"이디야커피","name":"이디야커피 강남점","lat":35.1819073680244,"lng":128.088721901181,"address":"경상남도 진주시 진주대로929번길 15","phone":"055-758-8990","openingHours":"","services":{"parking":null,"wifi":null,"outlet":null,"driveThrough":null,"terrace":null,"pet":null},"petPolicyType":"정보 없음","lastCheckedAt":""},{"id":"컴포즈커피_MA010120220805277765","brand":"컴포즈커피","name":"컴포즈커피","lat":35.3015608738593,"lng":128.594904349521,"address":"경상남도 창원시 의창구 북면 감계로110번길 54-29","phone":"055-299-2402","openingHours":"","services":{"parking":null,"wifi":true,"outlet":true,"driveThrough":null,"terrace":null,"pet":null},"petPolicyType":"정보 없음","lastCheckedAt":""},{"id":"이디야커피_MA010120220805247234","brand":"이디야커피","name":"이디야커피양산역점","lat":35.3384589113526,"lng":129.027673240539,"address":"경상남도 양산시 양산역7길 14","phone":"055-381-1005","openingHours":"","services":{"parking":null,"wifi":null,"outlet":null,"driveThrough":null,"terrace":null,"pet":null},"petPolicyType":"정보 없음","lastCheckedAt":""},{"id":"빽다방_MA010120220805277777","brand":"빽다방","name":"빽다방 진주호탄점","lat":35.1645776496388,"lng":128.110310484615,"address":"경상남도 진주시 강변길9번길 6","phone":"055-741-3350","openingHours":"","services":{"parking":null,"wifi":true,"outlet":true,"driveThrough":null,"terrace":null,"pet":null},"petPolicyType":"정보 없음","lastCheckedAt":""},{"id":"하삼동커피_MA010120220805318416","brand":"하삼동커피","name":"하삼동커피무전점","lat":34.8580037048785,"lng":128.42635952886,"address":"경상남도 통영시 중앙로 303-38","phone":"055-643-1112","openingHours":"","services":{"parking":null,"wifi":null,"outlet":null,"driveThrough":null,"terrace":null,"pet":null},"petPolicyType":"정보 없음","lastCheckedAt":""},{"id":"공차_MA010120220805350982","brand":"공차","name":"공차통영무전점","lat":34.8580037048785,"lng":128.42635952886,"address":"경상남도 통영시 중앙로 303-38","phone":"055-648-1339","openingHours":"","services":{"parking":null,"wifi":false,"outlet":false,"driveThrough":null,"terrace":null,"pet":null},"petPolicyType":"정보 없음","lastCheckedAt":""},{"id":"텐퍼센트커피_MA010120220805282535","brand":"텐퍼센트커피","name":"텐퍼센트구산이진캐스빌점","lat":35.2497508146869,"lng":128.866926842462,"address":"경상남도 김해시 김해대로1902번길 88","phone":"","openingHours":"","services":{"parking":null,"wifi":null,"outlet":null,"driveThrough":null,"terrace":null,"pet":null},"petPolicyType":"정보 없음","lastCheckedAt":""},{"id":"하삼동커피_MA010120220805481745","brand":"하삼동커피","name":"하삼동커피창원감계점","lat":35.3012049170055,"lng":128.593193395643,"address":"경상남도 창원시 의창구 북면 감계로110번길 53","phone":"055-295-6665","openingHours":"","services":{"parking":null,"wifi":null,"outlet":null,"driveThrough":null,"terrace":null,"pet":null},"petPolicyType":"정보 없음","lastCheckedAt":""},{"id":"더벤티_MA010120220805503694","brand":"더벤티","name":"더벤티 창원소답점","lat":35.2651026409913,"lng":128.626989861982,"address":"경상남도 창원시 의창구 읍성로 81","phone":"","openingHours":"","services":{"parking":null,"wifi":null,"outlet":null,"driveThrough":null,"terrace":null,"pet":null},"petPolicyType":"정보 없음","lastCheckedAt":""},{"id":"더리터_MA010120220805441594","brand":"더리터","name":"더리터삼문점","lat":35.4865925305091,"lng":128.75614890087,"address":"경상남도 밀양시 중앙로 260-2","phone":"055-927-5214","openingHours":"","services":{"parking":null,"wifi":null,"outlet":null,"driveThrough":null,"terrace":null,"pet":null},"petPolicyType":"정보 없음","lastCheckedAt":""},{"id":"하삼동커피_MA010120220805460862","brand":"하삼동커피","name":"하삼동커피가음정라포레점","lat":35.2087951023349,"lng":128.684887028053,"address":"경상남도 창원시 성산구 창원대로 888","phone":"055-266-6766","openingHours":"","services":{"parking":null,"wifi":null,"outlet":null,"driveThrough":null,"terrace":null,"pet":null},"petPolicyType":"정보 없음","lastCheckedAt":""},{"id":"투썸플레이스_MA010120220805494415","brand":"투썸플레이스","name":"투썸플레이스천주산점","lat":35.2711459600782,"lng":128.613824746862,"address":"경상남도 창원시 의창구 천주로121번길 3","phone":"055-253-0036","openingHours":"","services":{"parking":null,"wifi":true,"outlet":true,"driveThrough":null,"terrace":null,"pet":null},"petPolicyType":"정보 없음","lastCheckedAt":""},{"id":"하삼동커피_MA010120220805481375","brand":"하삼동커피","name":"하삼동커피내죽도점","lat":34.8802306991507,"lng":128.422445156407,"address":"경상남도 통영시 광도면 죽림해안로 118-7","phone":"","openingHours":"","services":{"parking":null,"wifi":null,"outlet":null,"driveThrough":null,"terrace":null,"pet":null},"petPolicyType":"정보 없음","lastCheckedAt":""},{"id":"이디야커피_MA010120220805420976","brand":"이디야커피","name":"이디야 시청점","lat":35.5039262870175,"lng":128.744679092377,"address":"경상남도 밀양시 시청로1길 4","phone":"055-354-5413","openingHours":"","services":{"parking":null,"wifi":null,"outlet":null,"driveThrough":null,"terrace":null,"pet":null},"petPolicyType":"정보 없음","lastCheckedAt":""},{"id":"빽다방_MA010120220805388183","brand":"빽다방","name":"빽다방진주 로데오점","lat":35.1947808856944,"lng":128.082360704114,"address":"경상남도 진주시 촉석로186번길 6","phone":"055-790-9388","openingHours":"","services":{"parking":null,"wifi":true,"outlet":true,"driveThrough":null,"terrace":null,"pet":null},"petPolicyType":"정보 없음","lastCheckedAt":""},{"id":"하삼동커피_MA010120220805487757","brand":"하삼동커피","name":"하삼동커피 삼방점","lat":35.2487451587021,"lng":128.910560820439,"address":"경상남도 김해시 삼안로 233","phone":"055-314-2662","openingHours":"","services":{"parking":null,"wifi":null,"outlet":null,"driveThrough":null,"terrace":null,"pet":null},"petPolicyType":"정보 없음","lastCheckedAt":""},{"id":"이디야커피_MA010120220805459992","brand":"이디야커피","name":"이디야커피김해 홈플러스점","lat":35.2419040480837,"lng":128.870262058531,"address":"경상남도 김해시 김해대로 2078","phone":"055-326-4460","openingHours":"","services":{"parking":null,"wifi":null,"outlet":null,"driveThrough":null,"terrace":null,"pet":null},"petPolicyType":"정보 없음","lastCheckedAt":""},{"id":"하삼동커피_MA010120220805451290","brand":"하삼동커피","name":"하삼동커피장승포수변점","lat":34.8681639755916,"lng":128.726426278709,"address":"경상남도 거제시 장승포로 21","phone":"055-736-3663","openingHours":"","services":{"parking":null,"wifi":null,"outlet":null,"driveThrough":null,"terrace":null,"pet":null},"petPolicyType":"정보 없음","lastCheckedAt":""},{"id":"컴포즈커피_MA010120220805487901","brand":"컴포즈커피","name":"컴포즈커피양산북정점","lat":35.3590736723393,"lng":129.042852082284,"address":"경상남도 양산시 북정로 21","phone":"0507-0289-3533","openingHours":"","services":{"parking":null,"wifi":true,"outlet":true,"driveThrough":null,"terrace":null,"pet":null},"petPolicyType":"정보 없음","lastCheckedAt":""},{"id":"이디야커피_MA010120220805652137","brand":"이디야커피","name":"이티엔커머스이디야밀양가곡점","lat":35.4727030947342,"lng":128.769264653808,"address":"경상남도 밀양시 가곡4길 15","phone":"","openingHours":"","services":{"parking":null,"wifi":null,"outlet":null,"driveThrough":null,"terrace":null,"pet":null},"petPolicyType":"정보 없음","lastCheckedAt":""},{"id":"엔제리너스_MA010120220805830371","brand":"엔제리너스","name":"엔제리너스&나뚜루경남의령점","lat":35.3174175132333,"lng":128.260261320763,"address":"경상남도 의령군 의령읍 의병로16길 24-1","phone":"","openingHours":"","services":{"parking":null,"wifi":null,"outlet":null,"driveThrough":null,"terrace":null,"pet":null},"petPolicyType":"정보 없음","lastCheckedAt":""},{"id":"하삼동커피_MA010120220805525458","brand":"하삼동커피","name":"하삼동커피진해여좌점","lat":35.1550231031288,"lng":128.658472522333,"address":"경상남도 창원시 진해구 여좌남로24번길 1","phone":"055-546-2123","openingHours":"","services":{"parking":null,"wifi":null,"outlet":null,"driveThrough":null,"terrace":null,"pet":null},"petPolicyType":"정보 없음","lastCheckedAt":""},{"id":"더벤티_MA010120220805805214","brand":"더벤티","name":"더벤티창원유보라아이비파크점","lat":35.2191242010016,"lng":128.707954185049,"address":"경상남도 창원시 성산구 비음로 167","phone":"","openingHours":"","services":{"parking":null,"wifi":null,"outlet":null,"driveThrough":null,"terrace":null,"pet":null},"petPolicyType":"정보 없음","lastCheckedAt":""},{"id":"텐퍼센트커피_MA010120220805687772","brand":"텐퍼센트커피","name":"텐퍼센트커피양산신 범어점","lat":35.3329124853134,"lng":129.016625851419,"address":"경상남도 양산시 물금읍 신주로 47","phone":"055-383-2393","openingHours":"","services":{"parking":null,"wifi":null,"outlet":null,"driveThrough":null,"terrace":null,"pet":null},"petPolicyType":"정보 없음","lastCheckedAt":""},{"id":"하삼동커피_MA010120220805643484","brand":"하삼동커피","name":"하삼동커피","lat":35.1515171316018,"lng":128.663086840685,"address":"경상남도 창원시 진해구 중원로86번길 28","phone":"055-547-9725","openingHours":"","services":{"parking":null,"wifi":null,"outlet":null,"driveThrough":null,"terrace":null,"pet":null},"petPolicyType":"정보 없음","lastCheckedAt":""},{"id":"메가MGC커피_MA010120220805992473","brand":"메가MGC커피","name":"메가엠지씨거제 상동점","lat":34.8604385151579,"lng":128.63326990086,"address":"경상남도 거제시 상동5길 117-40","phone":"055-635-9555","openingHours":"","services":{"parking":null,"wifi":null,"outlet":null,"driveThrough":null,"terrace":null,"pet":null},"petPolicyType":"정보 없음","lastCheckedAt":""},{"id":"하삼동커피_MA010120220805956230","brand":"하삼동커피","name":"하삼동커피","lat":34.9687759077779,"lng":128.063995317412,"address":"경상남도 사천시 진삼로 132","phone":"055-832-0830","openingHours":"","services":{"parking":null,"wifi":null,"outlet":null,"driveThrough":null,"terrace":null,"pet":null},"petPolicyType":"정보 없음","lastCheckedAt":""},{"id":"이디야커피_MA010120220805950240","brand":"이디야커피","name":"이디야도남점","lat":34.8244878958784,"lng":128.435224740201,"address":"경상남도 통영시 도남로 316","phone":"","openingHours":"","services":{"parking":null,"wifi":null,"outlet":null,"driveThrough":null,"terrace":null,"pet":null},"petPolicyType":"정보 없음","lastCheckedAt":""},{"id":"공차_MA010120220805950913","brand":"공차","name":"공차 거제고현점","lat":34.8896963916645,"lng":128.623665429235,"address":"경상남도 거제시 서문로 72","phone":"055-638-1254","openingHours":"","services":{"parking":null,"wifi":false,"outlet":false,"driveThrough":null,"terrace":null,"pet":null},"petPolicyType":"정보 없음","lastCheckedAt":""},{"id":"메가MGC커피_MA010120220805901254","brand":"메가MGC커피","name":"메가커피 중곡점","lat":34.8965178095325,"lng":128.629816147678,"address":"경상남도 거제시 중곡로 43","phone":"055-633-5795","openingHours":"","services":{"parking":null,"wifi":null,"outlet":null,"driveThrough":null,"terrace":null,"pet":null},"petPolicyType":"정보 없음","lastCheckedAt":""},{"id":"하삼동커피_MA010120220806378079","brand":"하삼동커피","name":"하삼동커피함안군북점","lat":35.2618713596507,"lng":128.34571521584,"address":"경상남도 함안군 군북면 함마대로 808","phone":"055-585-3300","openingHours":"","services":{"parking":null,"wifi":null,"outlet":null,"driveThrough":null,"terrace":null,"pet":null},"petPolicyType":"정보 없음","lastCheckedAt":""},{"id":"이디야커피_MA010120220806395348","brand":"이디야커피","name":"이디야커피삼정점","lat":35.2324002315413,"lng":128.89665678308,"address":"경상남도 김해시 활천로36번길 34-4","phone":"055-311-7485","openingHours":"","services":{"parking":null,"wifi":null,"outlet":null,"driveThrough":null,"terrace":null,"pet":null},"petPolicyType":"정보 없음","lastCheckedAt":""},{"id":"이디야커피_MA010120220806404660","brand":"이디야커피","name":"이디야커피 남지점","lat":35.392215695131,"lng":128.48229355596,"address":"경상남도 창녕군 남지읍 동포옛길 21-44","phone":"055-521-5531","openingHours":"","services":{"parking":null,"wifi":null,"outlet":null,"driveThrough":null,"terrace":null,"pet":null},"petPolicyType":"정보 없음","lastCheckedAt":""},{"id":"더벤티_MA010120220806118141","brand":"더벤티","name":"더벤티롯데마트진주 혁신점","lat":35.1801481513326,"lng":128.139843699447,"address":"경상남도 진주시 동진로 440","phone":"","openingHours":"","services":{"parking":null,"wifi":null,"outlet":null,"driveThrough":null,"terrace":null,"pet":null},"petPolicyType":"정보 없음","lastCheckedAt":""},{"id":"봄봄_MA010120220806241180","brand":"봄봄","name":"카페봄봄마산역점","lat":35.2336697818023,"lng":128.579920668597,"address":"경상남도 창원시 마산회원구 양덕옛2길 129","phone":"055-292-0504","openingHours":"","services":{"parking":null,"wifi":null,"outlet":null,"driveThrough":null,"terrace":null,"pet":null},"petPolicyType":"정보 없음","lastCheckedAt":""},{"id":"텐퍼센트커피_MA010120220806283555","brand":"텐퍼센트커피","name":"텐퍼센트커피김해 외동점","lat":35.2343056772182,"lng":128.866265228173,"address":"경상남도 김해시 내외중앙로 47","phone":"055-322-1030","openingHours":"","services":{"parking":null,"wifi":null,"outlet":null,"driveThrough":null,"terrace":null,"pet":null},"petPolicyType":"정보 없음","lastCheckedAt":""},{"id":"감성커피_MA010120220806391798","brand":"감성커피","name":"감성커피김해 진영점","lat":35.3062391280335,"lng":128.729858283652,"address":"경상남도 김해시 진영읍 김해대로 364-1","phone":"055-343-5479","openingHours":"","services":{"parking":null,"wifi":null,"outlet":null,"driveThrough":null,"terrace":null,"pet":null},"petPolicyType":"정보 없음","lastCheckedAt":""},{"id":"더리터_MA010120220806159209","brand":"더리터","name":"더리터삼천포점","lat":34.9326121012779,"lng":128.080579932306,"address":"경상남도 사천시 남일로 36","phone":"055-835-1124","openingHours":"","services":{"parking":null,"wifi":null,"outlet":null,"driveThrough":null,"terrace":null,"pet":null},"petPolicyType":"정보 없음","lastCheckedAt":""},{"id":"이디야커피_MA010120220806381220","brand":"이디야커피","name":"이디야창원반지동점","lat":35.2393740409168,"lng":128.662692909617,"address":"경상남도 창원시 성산구 원이대로393번길 21","phone":"055-288-2213","openingHours":"","services":{"parking":null,"wifi":null,"outlet":null,"driveThrough":null,"terrace":null,"pet":null},"petPolicyType":"정보 없음","lastCheckedAt":""},{"id":"컴포즈커피_MA010120220806381274","brand":"컴포즈커피","name":"컴포즈커피김해 진영점","lat":35.3074835063253,"lng":128.729807823285,"address":"경상남도 김해시 진영읍 김해대로361번길 8","phone":"055-342-7793","openingHours":"","services":{"parking":null,"wifi":true,"outlet":true,"driveThrough":null,"terrace":null,"pet":null},"petPolicyType":"정보 없음","lastCheckedAt":""},{"id":"하삼동커피_MA010120220806419849","brand":"하삼동커피","name":"하삼동커피 율하점","lat":35.1726443796876,"lng":128.815398969164,"address":"경상남도 김해시 율하3로 56","phone":"055-724-0530","openingHours":"","services":{"parking":null,"wifi":null,"outlet":null,"driveThrough":null,"terrace":null,"pet":null},"petPolicyType":"정보 없음","lastCheckedAt":""},{"id":"텐퍼센트커피_MA010120220806515851","brand":"텐퍼센트커피","name":"텐퍼센트커피창원아티움시티점","lat":35.2359717250599,"lng":128.641917837328,"address":"경상남도 창원시 의창구 창원대로397번길 11","phone":"055-288-0369","openingHours":"","services":{"parking":null,"wifi":null,"outlet":null,"driveThrough":null,"terrace":null,"pet":null},"petPolicyType":"정보 없음","lastCheckedAt":""},{"id":"이디야커피_MA010120220806417512","brand":"이디야커피","name":"이디야커피이 현동점","lat":35.1940486547859,"lng":128.060194042787,"address":"경상남도 진주시 진주대로 1317-15","phone":"055-745-5223","openingHours":"","services":{"parking":null,"wifi":null,"outlet":null,"driveThrough":null,"terrace":null,"pet":null},"petPolicyType":"정보 없음","lastCheckedAt":""},{"id":"이디야커피_MA010120220806476930","brand":"이디야커피","name":"이디야마산고속 터미널점","lat":35.2232948699644,"lng":128.587627146401,"address":"경상남도 창원시 마산회원구 합포로 292","phone":"055-293-0408","openingHours":"","services":{"parking":null,"wifi":null,"outlet":null,"driveThrough":null,"terrace":null,"pet":null},"petPolicyType":"정보 없음","lastCheckedAt":""},{"id":"감성커피_MA010120220806437172","brand":"감성커피","name":"감성커피 봉곡점","lat":35.2442869079205,"lng":128.649434813869,"address":"경상남도 창원시 의창구 원이대로261번길 9","phone":"055-238-4228","openingHours":"","services":{"parking":null,"wifi":null,"outlet":null,"driveThrough":null,"terrace":null,"pet":null},"petPolicyType":"정보 없음","lastCheckedAt":""},{"id":"공차_MA010120220806500634","brand":"공차","name":"공차 경남대점","lat":35.1800855439264,"lng":128.558103307194,"address":"경상남도 창원시 마산합포구 315대로 1","phone":"055-244-0040","openingHours":"","services":{"parking":null,"wifi":false,"outlet":false,"driveThrough":null,"terrace":null,"pet":null},"petPolicyType":"정보 없음","lastCheckedAt":""},{"id":"하삼동커피_MA010120220806528437","brand":"하삼동커피","name":"하삼동커피 창녕점","lat":35.54220283742,"lng":128.491951366713,"address":"경상남도 창녕군 창녕읍 군청길 26","phone":"055-532-7579","openingHours":"","services":{"parking":null,"wifi":null,"outlet":null,"driveThrough":null,"terrace":null,"pet":null},"petPolicyType":"정보 없음","lastCheckedAt":""},{"id":"컴포즈커피_MA010120220806526663","brand":"컴포즈커피","name":"컴포즈커피장유무계점","lat":35.2002752472067,"lng":128.81539894517,"address":"경상남도 김해시 장유로301번길 8","phone":"070-7585-8480","openingHours":"","services":{"parking":null,"wifi":true,"outlet":true,"driveThrough":null,"terrace":null,"pet":null},"petPolicyType":"정보 없음","lastCheckedAt":""},{"id":"토프레소_MA010120220806462700","brand":"토프레소","name":"토프레소","lat":35.5566902667114,"lng":128.16613817256,"address":"경상남도 합천군 대양면 동부로 39-3","phone":"055-931-6659","openingHours":"","services":{"parking":null,"wifi":true,"outlet":null,"driveThrough":null,"terrace":null,"pet":null},"petPolicyType":"정보 없음","lastCheckedAt":""},{"id":"메가MGC커피_MA010120220806546094","brand":"메가MGC커피","name":"메가커피수월점","lat":34.8936387534078,"lng":128.642830932531,"address":"경상남도 거제시 수양로 448-28","phone":"055-633-3176","openingHours":"","services":{"parking":null,"wifi":null,"outlet":null,"driveThrough":null,"terrace":null,"pet":null},"petPolicyType":"정보 없음","lastCheckedAt":""},{"id":"컴포즈커피_MA010120220806517279","brand":"컴포즈커피","name":"컴포즈커피갑을점","lat":35.2066246452855,"lng":128.806031490492,"address":"경상남도 김해시 장유로 186","phone":"070-4647-0166","openingHours":"","services":{"parking":null,"wifi":true,"outlet":true,"driveThrough":null,"terrace":null,"pet":null},"petPolicyType":"정보 없음","lastCheckedAt":""},{"id":"컴포즈커피_MA010120220806542081","brand":"컴포즈커피","name":"컴포즈커피진해자은점","lat":35.15539347005,"lng":128.713446283786,"address":"경상남도 창원시 진해구 냉천로 156","phone":"055-547-8091","openingHours":"","services":{"parking":null,"wifi":true,"outlet":true,"driveThrough":null,"terrace":null,"pet":null},"petPolicyType":"정보 없음","lastCheckedAt":""},{"id":"컴포즈커피_MA010120220806434976","brand":"컴포즈커피","name":"컴포즈커피진주경상대 정문점","lat":35.1529348596806,"lng":128.106146733533,"address":"경상남도 진주시 진주대로 518","phone":"","openingHours":"","services":{"parking":null,"wifi":true,"outlet":true,"driveThrough":null,"terrace":null,"pet":null},"petPolicyType":"정보 없음","lastCheckedAt":""},{"id":"컴포즈커피_MA010120220806461795","brand":"컴포즈커피","name":"컴포즈커피마산 호원점","lat":35.2488634864425,"lng":128.523075512557,"address":"경상남도 창원시 마산회원구 내서읍 옥정1길 5","phone":"055-231-8131","openingHours":"","services":{"parking":null,"wifi":true,"outlet":true,"driveThrough":null,"terrace":null,"pet":null},"petPolicyType":"정보 없음","lastCheckedAt":""},{"id":"컴포즈커피_MA010120220806523230","brand":"컴포즈커피","name":"컴포즈양산범어경민점","lat":35.3329432544102,"lng":129.009368731966,"address":"경상남도 양산시 물금읍 황산로 709","phone":"055-364-4500","openingHours":"","services":{"parking":null,"wifi":true,"outlet":true,"driveThrough":null,"terrace":null,"pet":null},"petPolicyType":"정보 없음","lastCheckedAt":""},{"id":"빽다방_MA010120220806704228","brand":"빽다방","name":"빽다방","lat":35.6868058090981,"lng":127.911830857418,"address":"경상남도 거창군 거창읍 중앙로 123","phone":"055-945-3622","openingHours":"","services":{"parking":null,"wifi":true,"outlet":true,"driveThrough":null,"terrace":null,"pet":null},"petPolicyType":"정보 없음","lastCheckedAt":""},{"id":"더리터_MA010120220806643995","brand":"더리터","name":"더리터창원무동점","lat":35.3172684340108,"lng":128.584679058293,"address":"경상남도 창원시 의창구 북면 무동로226번길 6-25","phone":"","openingHours":"","services":{"parking":null,"wifi":null,"outlet":null,"driveThrough":null,"terrace":null,"pet":null},"petPolicyType":"정보 없음","lastCheckedAt":""},{"id":"메가MGC커피_MA010120220806681188","brand":"메가MGC커피","name":"메가커피정동점","lat":35.0771003240911,"lng":128.087031689866,"address":"경상남도 사천시 정동면 정동중앙로 16-13","phone":"055-853-8846","openingHours":"","services":{"parking":null,"wifi":null,"outlet":null,"driveThrough":null,"terrace":null,"pet":null},"petPolicyType":"정보 없음","lastCheckedAt":""},{"id":"더벤티_MA010120220806709818","brand":"더벤티","name":"더벤티 증산점","lat":35.3152912660421,"lng":129.004391156915,"address":"경상남도 양산시 물금읍 새실로 159","phone":"055-385-6333","openingHours":"","services":{"parking":null,"wifi":null,"outlet":null,"driveThrough":null,"terrace":null,"pet":null},"petPolicyType":"정보 없음","lastCheckedAt":""},{"id":"메가MGC커피_MA010120220806570933","brand":"메가MGC커피","name":"메가엠지씨커피 합포구청점","lat":35.1960675776965,"lng":128.569036352557,"address":"경상남도 창원시 마산합포구 중앙동로 18","phone":"055-221-6711","openingHours":"","services":{"parking":null,"wifi":null,"outlet":null,"driveThrough":null,"terrace":null,"pet":null},"petPolicyType":"정보 없음","lastCheckedAt":""},{"id":"투썸플레이스_MA010120220806599121","brand":"투썸플레이스","name":"투썸플레이스장유코아점","lat":35.2041245350151,"lng":128.808699113307,"address":"경상남도 김해시 장유로 224","phone":"055-723-2223","openingHours":"","services":{"parking":null,"wifi":true,"outlet":true,"driveThrough":null,"terrace":null,"pet":null},"petPolicyType":"정보 없음","lastCheckedAt":""},{"id":"이디야커피_MA010120220806581271","brand":"이디야커피","name":"이디야하대점","lat":35.1918805425327,"lng":128.121770956559,"address":"경상남도 진주시 도동로 241","phone":"055-762-7002","openingHours":"","services":{"parking":null,"wifi":null,"outlet":null,"driveThrough":null,"terrace":null,"pet":null},"petPolicyType":"정보 없음","lastCheckedAt":""},{"id":"메가MGC커피_MA010120220806641650","brand":"메가MGC커피","name":"메가엠지씨커피밀양삼문점","lat":35.4851023799594,"lng":128.756369889013,"address":"경상남도 밀양시 삼문중앙로 40","phone":"055-353-6369","openingHours":"","services":{"parking":null,"wifi":null,"outlet":null,"driveThrough":null,"terrace":null,"pet":null},"petPolicyType":"정보 없음","lastCheckedAt":""},{"id":"텐퍼센트커피_MA010120220806693407","brand":"텐퍼센트커피","name":"텐퍼센트커피","lat":35.1699053527404,"lng":128.59860673735,"address":"경상남도 창원시 성산구 삼귀로 181-1","phone":"070-4179-7774","openingHours":"","services":{"parking":null,"wifi":null,"outlet":null,"driveThrough":null,"terrace":null,"pet":null},"petPolicyType":"정보 없음","lastCheckedAt":""},{"id":"컴포즈커피_MA010120220806582500","brand":"컴포즈커피","name":"컴포즈커피무전점","lat":34.8578186354117,"lng":128.427537233128,"address":"경상남도 통영시 중앙로 303-18","phone":"","openingHours":"","services":{"parking":null,"wifi":true,"outlet":true,"driveThrough":null,"terrace":null,"pet":null},"petPolicyType":"정보 없음","lastCheckedAt":""},{"id":"투썸플레이스_MA010120220806648622","brand":"투썸플레이스","name":"투썸플레이스양산통도사점","lat":35.4931310017774,"lng":129.08520266293,"address":"경상남도 양산시 하북면 통도사로 45","phone":"","openingHours":"","services":{"parking":null,"wifi":true,"outlet":true,"driveThrough":null,"terrace":null,"pet":null},"petPolicyType":"정보 없음","lastCheckedAt":""},{"id":"빽다방_MA010120220806636232","brand":"빽다방","name":"빽다방창원 메트로시티점","lat":35.2236683881631,"lng":128.584570200923,"address":"경상남도 창원시 마산회원구 삼호로 80","phone":"055-251-0266","openingHours":"","services":{"parking":null,"wifi":true,"outlet":true,"driveThrough":null,"terrace":null,"pet":null},"petPolicyType":"정보 없음","lastCheckedAt":""},{"id":"하삼동커피_MA010120220806841812","brand":"하삼동커피","name":"하삼동커피양산시립박물관점","lat":35.3636837342399,"lng":129.049458786146,"address":"경상남도 양산시 북정중앙로 62","phone":"055-367-3050","openingHours":"","services":{"parking":null,"wifi":null,"outlet":null,"driveThrough":null,"terrace":null,"pet":null},"petPolicyType":"정보 없음","lastCheckedAt":""},{"id":"이디야커피_MA010120220806758695","brand":"이디야커피","name":"이디야커피","lat":35.2314337743315,"lng":128.575846201056,"address":"경상남도 창원시 마산회원구 석전동로 7","phone":"","openingHours":"","services":{"parking":null,"wifi":null,"outlet":null,"driveThrough":null,"terrace":null,"pet":null},"petPolicyType":"정보 없음","lastCheckedAt":""},{"id":"하삼동커피_MA010120220806722814","brand":"하삼동커피","name":"하삼동커피충무공동점","lat":35.1696538357846,"lng":128.13634944288,"address":"경상남도 진주시 소호로 6","phone":"055-795-6076","openingHours":"","services":{"parking":null,"wifi":null,"outlet":null,"driveThrough":null,"terrace":null,"pet":null},"petPolicyType":"정보 없음","lastCheckedAt":""},{"id":"컴포즈커피_MA010120220806817811","brand":"컴포즈커피","name":"컴포즈커피진동점","lat":35.1144172436493,"lng":128.485887003691,"address":"경상남도 창원시 마산합포구 진동면 삼진의거대로 618","phone":"070-4191-4696","openingHours":"","services":{"parking":null,"wifi":true,"outlet":true,"driveThrough":null,"terrace":null,"pet":null},"petPolicyType":"정보 없음","lastCheckedAt":""},{"id":"하삼동커피_MA010120220806728320","brand":"하삼동커피","name":"하삼동커피북정점","lat":35.3590059708041,"lng":129.043125382966,"address":"경상남도 양산시 북정로 25","phone":"055-366-9856","openingHours":"","services":{"parking":null,"wifi":null,"outlet":null,"driveThrough":null,"terrace":null,"pet":null},"petPolicyType":"정보 없음","lastCheckedAt":""},{"id":"이디야커피_MA010120220806780944","brand":"이디야커피","name":"이디야커피진주신 안동점","lat":35.178231277108,"lng":128.064247890349,"address":"경상남도 진주시 진양호로 278","phone":"055-743-4040","openingHours":"","services":{"parking":null,"wifi":null,"outlet":null,"driveThrough":null,"terrace":null,"pet":null},"petPolicyType":"정보 없음","lastCheckedAt":""},{"id":"빽다방_MA010120220806843956","brand":"빽다방","name":"빽다방하동점","lat":35.0673270183632,"lng":127.749301993056,"address":"경상남도 하동군 하동읍 경서대로 136","phone":"055-882-8870","openingHours":"","services":{"parking":null,"wifi":true,"outlet":true,"driveThrough":null,"terrace":null,"pet":null},"petPolicyType":"정보 없음","lastCheckedAt":""},{"id":"이디야커피_MA010120220806779247","brand":"이디야커피","name":"이디야커피창원대 중앙점","lat":35.2395046766506,"lng":128.699989095139,"address":"경상남도 창원시 의창구 용동로83번안길 36","phone":"055-274-3111","openingHours":"","services":{"parking":null,"wifi":null,"outlet":null,"driveThrough":null,"terrace":null,"pet":null},"petPolicyType":"정보 없음","lastCheckedAt":""},{"id":"이디야커피_MA010120220806758552","brand":"이디야커피","name":"이디야커피통영무전점","lat":34.8588784367181,"lng":128.426319959382,"address":"경상남도 통영시 무전6길 25","phone":"055-648-8977","openingHours":"","services":{"parking":null,"wifi":null,"outlet":null,"driveThrough":null,"terrace":null,"pet":null},"petPolicyType":"정보 없음","lastCheckedAt":""},{"id":"이디야커피_MA010120220806780079","brand":"이디야커피","name":"정진영부동산이디야","lat":35.2398039189562,"lng":128.653023970437,"address":"경상남도 창원시 성산구 창원천로94번길 19","phone":"","openingHours":"","services":{"parking":null,"wifi":null,"outlet":null,"driveThrough":null,"terrace":null,"pet":null},"petPolicyType":"정보 없음","lastCheckedAt":""},{"id":"컴포즈커피_MA010120220806743406","brand":"컴포즈커피","name":"컴포즈커피함안칠원점","lat":35.3078855332633,"lng":128.5180463548,"address":"경상남도 함안군 칠원읍 원서로 16","phone":"","openingHours":"","services":{"parking":null,"wifi":true,"outlet":true,"driveThrough":null,"terrace":null,"pet":null},"petPolicyType":"정보 없음","lastCheckedAt":""},{"id":"컴포즈커피_MA010120220806873167","brand":"컴포즈커피","name":"컴포즈커피거창점","lat":35.6853064642923,"lng":127.91107366142,"address":"경상남도 거창군 거창읍 아림로 24","phone":"055-944-2944","openingHours":"","services":{"parking":null,"wifi":true,"outlet":true,"driveThrough":null,"terrace":null,"pet":null},"petPolicyType":"정보 없음","lastCheckedAt":""},{"id":"커피빈_MA010120220806849106","brand":"커피빈","name":"커피빈준스","lat":35.3148328637286,"lng":128.967570596484,"address":"경상남도 김해시 상동면 동북로473번길 8","phone":"055-323-4242","openingHours":"","services":{"parking":null,"wifi":true,"outlet":true,"driveThrough":null,"terrace":null,"pet":null},"petPolicyType":"정보 없음","lastCheckedAt":""},{"id":"메가MGC커피_MA010120220807001440","brand":"메가MGC커피","name":"메가커피","lat":35.172240173869,"lng":128.1488109811,"address":"경상남도 진주시 사들로 52","phone":"055-762-1257","openingHours":"","services":{"parking":null,"wifi":null,"outlet":null,"driveThrough":null,"terrace":null,"pet":null},"petPolicyType":"정보 없음","lastCheckedAt":""},{"id":"텐퍼센트커피_MA010120220806965069","brand":"텐퍼센트커피","name":"텐퍼센트커피양산사송1지구점","lat":35.3207678712982,"lng":129.065549117666,"address":"경상남도 양산시 동면 내송큰들로 141","phone":"055-785-3006","openingHours":"","services":{"parking":null,"wifi":null,"outlet":null,"driveThrough":null,"terrace":null,"pet":null},"petPolicyType":"정보 없음","lastCheckedAt":""},{"id":"텐퍼센트커피_MA010120220806947679","brand":"텐퍼센트커피","name":"텐퍼센트커피거제상동벽산점","lat":34.8604385151579,"lng":128.63326990086,"address":"경상남도 거제시 상동5길 117-40","phone":"055-632-9018","openingHours":"","services":{"parking":null,"wifi":null,"outlet":null,"driveThrough":null,"terrace":null,"pet":null},"petPolicyType":"정보 없음","lastCheckedAt":""},{"id":"메가MGC커피_MA010120220807018546","brand":"메가MGC커피","name":"메가커피진주 문산점","lat":35.1669870349239,"lng":128.162830157554,"address":"경상남도 진주시 문산읍 월아산로 1075","phone":"055-758-6171","openingHours":"","services":{"parking":null,"wifi":null,"outlet":null,"driveThrough":null,"terrace":null,"pet":null},"petPolicyType":"정보 없음","lastCheckedAt":""},{"id":"컴포즈커피_MA010120220806973401","brand":"컴포즈커피","name":"컴포즈커피","lat":35.1563435692915,"lng":128.104963728094,"address":"경상남도 진주시 가좌길 25","phone":"","openingHours":"","services":{"parking":null,"wifi":true,"outlet":true,"driveThrough":null,"terrace":null,"pet":null},"petPolicyType":"정보 없음","lastCheckedAt":""},{"id":"이디야커피_MA010120220806909246","brand":"이디야커피","name":"이디야커피거제 상동점","lat":34.8675014504017,"lng":128.635509129128,"address":"경상남도 거제시 상동5길 25","phone":"055-634-0717","openingHours":"","services":{"parking":null,"wifi":null,"outlet":null,"driveThrough":null,"terrace":null,"pet":null},"petPolicyType":"정보 없음","lastCheckedAt":""},{"id":"투썸플레이스_MA010120220806938217","brand":"투썸플레이스","name":"투썸플레이스거제아주점","lat":34.8672807564267,"lng":128.685970188205,"address":"경상남도 거제시 아주1로2길 58","phone":"055-682-2477","openingHours":"","services":{"parking":null,"wifi":true,"outlet":true,"driveThrough":null,"terrace":null,"pet":null},"petPolicyType":"정보 없음","lastCheckedAt":""},{"id":"텐퍼센트커피_MA010120220806928084","brand":"텐퍼센트커피","name":"텐퍼센트커피양산명동사랑채점","lat":35.4030294935039,"lng":129.169507513774,"address":"경상남도 양산시 대운로 145","phone":"055-781-0353","openingHours":"","services":{"parking":null,"wifi":null,"outlet":null,"driveThrough":null,"terrace":null,"pet":null},"petPolicyType":"정보 없음","lastCheckedAt":""},{"id":"엔제리너스_MA010120220806953679","brand":"엔제리너스","name":"엔제리너스진해자은점","lat":35.1525219435646,"lng":128.704903884083,"address":"경상남도 창원시 진해구 냉천로 71","phone":"055-551-3235","openingHours":"","services":{"parking":null,"wifi":null,"outlet":null,"driveThrough":null,"terrace":null,"pet":null},"petPolicyType":"정보 없음","lastCheckedAt":""},{"id":"컴포즈커피_MA010120220806922946","brand":"컴포즈커피","name":"컴포즈커피진해 이동점","lat":35.1561370182903,"lng":128.698406156846,"address":"경상남도 창원시 진해구 진해대로776번길 27","phone":"070-7807-1519","openingHours":"","services":{"parking":null,"wifi":true,"outlet":true,"driveThrough":null,"terrace":null,"pet":null},"petPolicyType":"정보 없음","lastCheckedAt":""},{"id":"이디야커피_MA010120220806978495","brand":"이디야커피","name":"이디야커피창원경남도청점","lat":35.2333514649262,"lng":128.691479902013,"address":"경상남도 창원시 성산구 상남로 250","phone":"055-266-1332","openingHours":"","services":{"parking":null,"wifi":null,"outlet":null,"driveThrough":null,"terrace":null,"pet":null},"petPolicyType":"정보 없음","lastCheckedAt":""},{"id":"컴포즈커피_MA010120220807074734","brand":"컴포즈커피","name":"컴포즈커피산청 중앙점","lat":35.4149716763527,"lng":127.875827763331,"address":"경상남도 산청군 산청읍 웅석봉로 25-1","phone":"055-822-8024","openingHours":"","services":{"parking":null,"wifi":true,"outlet":true,"driveThrough":null,"terrace":null,"pet":null},"petPolicyType":"정보 없음","lastCheckedAt":""},{"id":"하삼동커피_MA010120220807104953","brand":"하삼동커피","name":"하삼동커피가곡점","lat":35.4739873183058,"lng":128.765877678014,"address":"경상남도 밀양시 가곡7길 20","phone":"055-802-7400","openingHours":"","services":{"parking":null,"wifi":null,"outlet":null,"driveThrough":null,"terrace":null,"pet":null},"petPolicyType":"정보 없음","lastCheckedAt":""},{"id":"탐앤탐스_MA010120220807053767","brand":"탐앤탐스","name":"탐앤탐스양산 증산역점","lat":35.3094958302374,"lng":129.00771112242,"address":"경상남도 양산시 물금읍 증산역로 163","phone":"","openingHours":"","services":{"parking":null,"wifi":true,"outlet":true,"driveThrough":null,"terrace":null,"pet":null},"petPolicyType":"정보 없음","lastCheckedAt":""},{"id":"이디야커피_MA010120220807114773","brand":"이디야커피","name":"이디야커피밀양삼문동점","lat":35.4825257594902,"lng":128.747631864477,"address":"경상남도 밀양시 미리벌로2길 20","phone":"055-355-0207","openingHours":"","services":{"parking":null,"wifi":null,"outlet":null,"driveThrough":null,"terrace":null,"pet":null},"petPolicyType":"정보 없음","lastCheckedAt":""},{"id":"하삼동커피_MA010120220807127902","brand":"하삼동커피","name":"하삼동커피거제수월점","lat":34.8928725914549,"lng":128.641503054207,"address":"경상남도 거제시 수양로 454-4","phone":"055-638-0318","openingHours":"","services":{"parking":null,"wifi":null,"outlet":null,"driveThrough":null,"terrace":null,"pet":null},"petPolicyType":"정보 없음","lastCheckedAt":""},{"id":"할리스_MA010120220807210316","brand":"할리스","name":"할리스김해 인제대점","lat":35.2436101001864,"lng":128.904167926189,"address":"경상남도 김해시 인제로 168","phone":"055-314-8589","openingHours":"","services":{"parking":null,"wifi":true,"outlet":true,"driveThrough":null,"terrace":null,"pet":null},"petPolicyType":"정보 없음","lastCheckedAt":""},{"id":"하삼동커피_MA010120220807373375","brand":"하삼동커피","name":"하삼동커피오봉점","lat":35.3341284036995,"lng":129.00746261189,"address":"경상남도 양산시 물금읍 오봉로 184","phone":"055-386-3050","openingHours":"","services":{"parking":null,"wifi":null,"outlet":null,"driveThrough":null,"terrace":null,"pet":null},"petPolicyType":"정보 없음","lastCheckedAt":""},{"id":"메가MGC커피_MA010120220807399688","brand":"메가MGC커피","name":"메가엠지씨커피함안점","lat":35.2779375449711,"lng":128.410858193969,"address":"경상남도 함안군 가야읍 가야로 86-1","phone":"055-584-3600","openingHours":"","services":{"parking":null,"wifi":null,"outlet":null,"driveThrough":null,"terrace":null,"pet":null},"petPolicyType":"정보 없음","lastCheckedAt":""},{"id":"텐퍼센트커피_MA010120220807370882","brand":"텐퍼센트커피","name":"텐퍼센트커피김해진례점","lat":35.2670331760981,"lng":128.76565970291,"address":"경상남도 김해시 진례면 테크노밸리로 25-8","phone":"010-2892-2010","openingHours":"","services":{"parking":null,"wifi":null,"outlet":null,"driveThrough":null,"terrace":null,"pet":null},"petPolicyType":"정보 없음","lastCheckedAt":""},{"id":"텐퍼센트커피_MA010120220807391352","brand":"텐퍼센트커피","name":"텐퍼센트커피거제 중곡점","lat":34.8938437937464,"lng":128.629610178661,"address":"경상남도 거제시 중곡로3길 7","phone":"055-633-0617","openingHours":"","services":{"parking":null,"wifi":null,"outlet":null,"driveThrough":null,"terrace":null,"pet":null},"petPolicyType":"정보 없음","lastCheckedAt":""},{"id":"봄봄_MA010120220807437666","brand":"봄봄","name":"봄봄","lat":35.119910337686,"lng":128.488465777527,"address":"경상남도 창원시 마산합포구 진동면 진북산업로 42","phone":"055-272-0919","openingHours":"","services":{"parking":null,"wifi":null,"outlet":null,"driveThrough":null,"terrace":null,"pet":null},"petPolicyType":"정보 없음","lastCheckedAt":""},{"id":"하삼동커피_MA010120220807414674","brand":"하삼동커피","name":"하삼동커피진해 남문점","lat":35.1061007765386,"lng":128.750347858139,"address":"경상남도 창원시 진해구 남영로 41","phone":"055-541-2244","openingHours":"","services":{"parking":null,"wifi":null,"outlet":null,"driveThrough":null,"terrace":null,"pet":null},"petPolicyType":"정보 없음","lastCheckedAt":""},{"id":"더벤티_MA010120220807723726","brand":"더벤티","name":"더벤티경남 고성점","lat":34.9749569284259,"lng":128.326112572273,"address":"경상남도 고성군 고성읍 동외로 154","phone":"055-672-0035","openingHours":"","services":{"parking":null,"wifi":null,"outlet":null,"driveThrough":null,"terrace":null,"pet":null},"petPolicyType":"정보 없음","lastCheckedAt":""},{"id":"이디야커피_MA010120220807825294","brand":"이디야커피","name":"이디야커피거제 계룡점","lat":34.8762620072988,"lng":128.626091501745,"address":"경상남도 거제시 계룡로 62","phone":"055-634-5633","openingHours":"","services":{"parking":null,"wifi":null,"outlet":null,"driveThrough":null,"terrace":null,"pet":null},"petPolicyType":"정보 없음","lastCheckedAt":""},{"id":"하삼동커피_MA010120220807572724","brand":"하삼동커피","name":"하삼동커피거제 아이파크점","lat":34.8669083685135,"lng":128.650051965577,"address":"경상남도 거제시 수양로 110","phone":"055-635-7758","openingHours":"","services":{"parking":null,"wifi":null,"outlet":null,"driveThrough":null,"terrace":null,"pet":null},"petPolicyType":"정보 없음","lastCheckedAt":""},{"id":"이디야커피_MA010120220807783608","brand":"이디야커피","name":"이디야커피진해 중앙점","lat":35.152220824656,"lng":128.662376937777,"address":"경상남도 창원시 진해구 충장로 94","phone":"055-546-2016","openingHours":"","services":{"parking":null,"wifi":null,"outlet":null,"driveThrough":null,"terrace":null,"pet":null},"petPolicyType":"정보 없음","lastCheckedAt":""},{"id":"탐앤탐스_MA010120220807824762","brand":"탐앤탐스","name":"탐앤탐스","lat":35.3404735353343,"lng":128.599826329655,"address":"경상남도 창원시 의창구 북면 단내로 771","phone":"","openingHours":"","services":{"parking":null,"wifi":true,"outlet":true,"driveThrough":null,"terrace":null,"pet":null},"petPolicyType":"정보 없음","lastCheckedAt":""},{"id":"봄봄_MA010120220807783267","brand":"봄봄","name":"봄봄사천대 포항점","lat":34.9903070958287,"lng":128.041317670069,"address":"경상남도 사천시 대포길 254","phone":"055-957-4850","openingHours":"","services":{"parking":null,"wifi":null,"outlet":null,"driveThrough":null,"terrace":null,"pet":null},"petPolicyType":"정보 없음","lastCheckedAt":""},{"id":"매머드커피_MA010120220807718429","brand":"매머드커피","name":"매머드익스프레스창원 유니시티점","lat":35.2592644354603,"lng":128.627532398043,"address":"경상남도 창원시 의창구 중동중앙로 83","phone":"055-298-6660","openingHours":"","services":{"parking":null,"wifi":null,"outlet":null,"driveThrough":null,"terrace":null,"pet":null},"petPolicyType":"정보 없음","lastCheckedAt":""},{"id":"이디야커피_MA010120220807718107","brand":"이디야커피","name":"이디야마산어 시장점","lat":35.2016484192684,"lng":128.576500259145,"address":"경상남도 창원시 마산합포구 해안대로 331","phone":"055-248-6779","openingHours":"","services":{"parking":null,"wifi":null,"outlet":null,"driveThrough":null,"terrace":null,"pet":null},"petPolicyType":"정보 없음","lastCheckedAt":""},{"id":"하삼동커피_MA010120220807798676","brand":"하삼동커피","name":"하삼동커피양산남 양산점","lat":35.3272306369544,"lng":129.016902525719,"address":"경상남도 양산시 물금읍 청운로 354","phone":"055-381-2277","openingHours":"","services":{"parking":null,"wifi":null,"outlet":null,"driveThrough":null,"terrace":null,"pet":null},"petPolicyType":"정보 없음","lastCheckedAt":""},{"id":"투썸플레이스_MA010120220808044569","brand":"투썸플레이스","name":"투썸플레이스 밀양점","lat":35.4913218568961,"lng":128.751315361685,"address":"경상남도 밀양시 남천강변로 41","phone":"055-356-2223","openingHours":"","services":{"parking":null,"wifi":true,"outlet":true,"driveThrough":null,"terrace":null,"pet":null},"petPolicyType":"정보 없음","lastCheckedAt":""},{"id":"텐퍼센트커피_MA010120220808015935","brand":"텐퍼센트커피","name":"텐퍼센트창녕 남지점","lat":35.392545052373,"lng":128.477478987531,"address":"경상남도 창녕군 남지읍 남지중앙1길 71-6","phone":"055-526-0219","openingHours":"","services":{"parking":null,"wifi":null,"outlet":null,"driveThrough":null,"terrace":null,"pet":null},"petPolicyType":"정보 없음","lastCheckedAt":""},{"id":"감성커피_MA010120220807931605","brand":"감성커피","name":"감성커피양산물금점","lat":35.328679412505,"lng":129.008911288932,"address":"경상남도 양산시 물금읍 화합2길 4-1","phone":"055-381-0111","openingHours":"","services":{"parking":null,"wifi":null,"outlet":null,"driveThrough":null,"terrace":null,"pet":null},"petPolicyType":"정보 없음","lastCheckedAt":""},{"id":"투썸플레이스_MA010120220808024806","brand":"투썸플레이스","name":"투썸플레이스진주세란 병원점","lat":35.1745272583871,"lng":128.092553260017,"address":"경상남도 진주시 진주대로829번길 5-4","phone":"1877-0112","openingHours":"","services":{"parking":null,"wifi":true,"outlet":true,"driveThrough":null,"terrace":null,"pet":null},"petPolicyType":"정보 없음","lastCheckedAt":""},{"id":"하삼동커피_MA010120220808041241","brand":"하삼동커피","name":"하삼동커피창원 도계점","lat":35.2597867437776,"lng":128.638244829658,"address":"경상남도 창원시 의창구 하남천서길5번길 2","phone":"055-277-0070","openingHours":"","services":{"parking":null,"wifi":null,"outlet":null,"driveThrough":null,"terrace":null,"pet":null},"petPolicyType":"정보 없음","lastCheckedAt":""},{"id":"하삼동커피_MA010120220808003026","brand":"하삼동커피","name":"하삼동커피 혁신점","lat":35.1799719876978,"lng":128.144188398819,"address":"경상남도 진주시 사들로123번길 40","phone":"0507-1466-0449","openingHours":"","services":{"parking":null,"wifi":null,"outlet":null,"driveThrough":null,"terrace":null,"pet":null},"petPolicyType":"정보 없음","lastCheckedAt":""},{"id":"하삼동커피_MA010120220808054130","brand":"하삼동커피","name":"하삼동커피김해여래점","lat":35.3023996193981,"lng":128.737427832151,"address":"경상남도 김해시 진영읍 진영로 224","phone":"055-345-3950","openingHours":"","services":{"parking":null,"wifi":null,"outlet":null,"driveThrough":null,"terrace":null,"pet":null},"petPolicyType":"정보 없음","lastCheckedAt":""},{"id":"빽다방_MA010120220808140443","brand":"빽다방","name":"빽다방진주초장점","lat":35.2130312695829,"lng":128.111310333981,"address":"경상남도 진주시 초북로 50","phone":"055-753-0818","openingHours":"","services":{"parking":null,"wifi":true,"outlet":true,"driveThrough":null,"terrace":null,"pet":null},"petPolicyType":"정보 없음","lastCheckedAt":""},{"id":"이디야커피_MA010120220808145083","brand":"이디야커피","name":"이디야커피김해삼계해반천점","lat":35.2693307972761,"lng":128.86301365443,"address":"경상남도 김해시 가야로22번길 3-4","phone":"055-324-4568","openingHours":"","services":{"parking":null,"wifi":null,"outlet":null,"driveThrough":null,"terrace":null,"pet":null},"petPolicyType":"정보 없음","lastCheckedAt":""},{"id":"메가MGC커피_MA010120220808190953","brand":"메가MGC커피","name":"메가커피양산 증산역점","lat":35.3098736106236,"lng":129.009380505746,"address":"경상남도 양산시 물금읍 증산역로 177","phone":"055-911-5555","openingHours":"","services":{"parking":null,"wifi":null,"outlet":null,"driveThrough":null,"terrace":null,"pet":null},"petPolicyType":"정보 없음","lastCheckedAt":""},{"id":"투썸플레이스_MA010120220808091771","brand":"투썸플레이스","name":"투썸플레이스창원천주산점","lat":35.2711459600782,"lng":128.613824746862,"address":"경상남도 창원시 의창구 천주로121번길 3","phone":"055-253-0036","openingHours":"","services":{"parking":null,"wifi":true,"outlet":true,"driveThrough":null,"terrace":null,"pet":null},"petPolicyType":"정보 없음","lastCheckedAt":""},{"id":"컴포즈커피_MA010120220808096083","brand":"컴포즈커피","name":"컴포즈커피서상동메트로점","lat":35.2601695528774,"lng":128.625902339396,"address":"경상남도 창원시 의창구 평산로207번길 4","phone":"055-253-8332","openingHours":"","services":{"parking":null,"wifi":true,"outlet":true,"driveThrough":null,"terrace":null,"pet":null},"petPolicyType":"정보 없음","lastCheckedAt":""},{"id":"봄봄_MA010120220808077351","brand":"봄봄","name":"카페봄봄창원대 중앙역점","lat":35.2384393532618,"lng":128.698198328998,"address":"경상남도 창원시 의창구 용동로57번안길 9-3","phone":"055-275-1727","openingHours":"","services":{"parking":null,"wifi":null,"outlet":null,"driveThrough":null,"terrace":null,"pet":null},"petPolicyType":"정보 없음","lastCheckedAt":""},{"id":"빽다방_MA010120220808139157","brand":"빽다방","name":"빽다방밀양미리벌점","lat":35.482327035452,"lng":128.750150611435,"address":"경상남도 밀양시 미리벌중앙로 46","phone":"055-354-1261","openingHours":"","services":{"parking":null,"wifi":true,"outlet":true,"driveThrough":null,"terrace":null,"pet":null},"petPolicyType":"정보 없음","lastCheckedAt":""},{"id":"봄봄_MA010120220808208937","brand":"봄봄","name":"카페봄봄창원상곡점","lat":35.243932076492,"lng":128.50084701146,"address":"경상남도 창원시 마산회원구 내서읍 상곡로 46","phone":"055-232-3332","openingHours":"","services":{"parking":null,"wifi":null,"outlet":null,"driveThrough":null,"terrace":null,"pet":null},"petPolicyType":"정보 없음","lastCheckedAt":""},{"id":"더벤티_MA010120220808124653","brand":"더벤티","name":"더벤티창원 중앙점","lat":35.2221917285609,"lng":128.676125349816,"address":"경상남도 창원시 성산구 용지로 70","phone":"055-274-2211","openingHours":"","services":{"parking":null,"wifi":null,"outlet":null,"driveThrough":null,"terrace":null,"pet":null},"petPolicyType":"정보 없음","lastCheckedAt":""},{"id":"공차_MA010120220808164343","brand":"공차","name":"아이스퀘어몰공차","lat":35.2248480334138,"lng":128.883982960525,"address":"경상남도 김해시 김해대로 2326","phone":"","openingHours":"","services":{"parking":null,"wifi":false,"outlet":false,"driveThrough":null,"terrace":null,"pet":null},"petPolicyType":"정보 없음","lastCheckedAt":""},{"id":"컴포즈커피_MA010120220808093437","brand":"컴포즈커피","name":"컴포즈커피남양점","lat":35.2114186023678,"lng":128.702851292954,"address":"경상남도 창원시 성산구 대정로 99","phone":"070-4647-3660","openingHours":"","services":{"parking":null,"wifi":true,"outlet":true,"driveThrough":null,"terrace":null,"pet":null},"petPolicyType":"정보 없음","lastCheckedAt":""},{"id":"감성커피_MA010120220808073739","brand":"감성커피","name":"감성커피김해 율하점","lat":35.1779254056526,"lng":128.806965891252,"address":"경상남도 김해시 관동로27번길 7","phone":"070-7622-8228","openingHours":"","services":{"parking":null,"wifi":null,"outlet":null,"driveThrough":null,"terrace":null,"pet":null},"petPolicyType":"정보 없음","lastCheckedAt":""},{"id":"더벤티_MA010120220808101660","brand":"더벤티","name":"다인씨앤비더벤티창원 성주지점","lat":35.1982937193312,"lng":128.711382590428,"address":"경상남도 창원시 성산구 삼정자로51번길 3","phone":"","openingHours":"","services":{"parking":null,"wifi":null,"outlet":null,"driveThrough":null,"terrace":null,"pet":null},"petPolicyType":"정보 없음","lastCheckedAt":""},{"id":"공차_MA010120220808217197","brand":"공차","name":"공차마산 양덕점","lat":35.2299242311283,"lng":128.584472182845,"address":"경상남도 창원시 마산회원구 율림교로 13","phone":"055-295-1515","openingHours":"","services":{"parking":null,"wifi":false,"outlet":false,"driveThrough":null,"terrace":null,"pet":null},"petPolicyType":"정보 없음","lastCheckedAt":""},{"id":"더리터_MA010120220808126322","brand":"더리터","name":"더리터","lat":34.8822937357995,"lng":128.417897891905,"address":"경상남도 통영시 광도면 죽림3로 36","phone":"055-646-7902","openingHours":"","services":{"parking":null,"wifi":null,"outlet":null,"driveThrough":null,"terrace":null,"pet":null},"petPolicyType":"정보 없음","lastCheckedAt":""},{"id":"텐퍼센트커피_MA010120220808333144","brand":"텐퍼센트커피","name":"텐퍼센트커피양산 증산점","lat":35.3118322049475,"lng":129.008109689816,"address":"경상남도 양산시 물금읍 백호로 156","phone":"055-366-1406","openingHours":"","services":{"parking":null,"wifi":null,"outlet":null,"driveThrough":null,"terrace":null,"pet":null},"petPolicyType":"정보 없음","lastCheckedAt":""},{"id":"컴포즈커피_MA010120220808343918","brand":"컴포즈커피","name":"컴포즈커피양산 이지더원점","lat":35.3129936156394,"lng":128.989646296852,"address":"경상남도 양산시 물금읍 물금로 75","phone":"070-8861-7157","openingHours":"","services":{"parking":null,"wifi":true,"outlet":true,"driveThrough":null,"terrace":null,"pet":null},"petPolicyType":"정보 없음","lastCheckedAt":""},{"id":"메가MGC커피_MA010120220808279634","brand":"메가MGC커피","name":"메가커피창원 법원점","lat":35.2224585251121,"lng":128.699644419947,"address":"경상남도 창원시 성산구 창이대로692번길 5","phone":"055-261-7715","openingHours":"","services":{"parking":null,"wifi":null,"outlet":null,"driveThrough":null,"terrace":null,"pet":null},"petPolicyType":"정보 없음","lastCheckedAt":""},{"id":"더벤티_MA010120220808534537","brand":"더벤티","name":"더벤티","lat":35.4834070369548,"lng":128.747761125389,"address":"경상남도 밀양시 미리벌중앙로5길 9-1","phone":"","openingHours":"","services":{"parking":null,"wifi":null,"outlet":null,"driveThrough":null,"terrace":null,"pet":null},"petPolicyType":"정보 없음","lastCheckedAt":""},{"id":"커피빈_MA010120220808408199","brand":"커피빈","name":"커피빈스","lat":35.1004244577051,"lng":128.806755872875,"address":"경상남도 창원시 진해구 안청남로 40","phone":"","openingHours":"","services":{"parking":null,"wifi":true,"outlet":true,"driveThrough":null,"terrace":null,"pet":null},"petPolicyType":"정보 없음","lastCheckedAt":""},{"id":"컴포즈커피_MA010120220808415094","brand":"컴포즈커피","name":"컴포즈커피창동 거리점","lat":35.205843533444,"lng":128.574780554197,"address":"경상남도 창원시 마산합포구 창동거리길 40","phone":"010-8963-0959","openingHours":"","services":{"parking":null,"wifi":true,"outlet":true,"driveThrough":null,"terrace":null,"pet":null},"petPolicyType":"정보 없음","lastCheckedAt":""},{"id":"컴포즈커피_MA010120220808508722","brand":"컴포즈커피","name":"컴포즈커피마산 롯데점","lat":35.201949148308,"lng":128.574167339127,"address":"경상남도 창원시 마산합포구 동서동2길 60","phone":"055-715-1238","openingHours":"","services":{"parking":null,"wifi":true,"outlet":true,"driveThrough":null,"terrace":null,"pet":null},"petPolicyType":"정보 없음","lastCheckedAt":""},{"id":"하삼동커피_MA010120220808451301","brand":"하삼동커피","name":"하삼동커피장평점","lat":34.8926682557735,"lng":128.60961319824,"address":"경상남도 거제시 장평로8길 27","phone":"055-634-3079","openingHours":"","services":{"parking":null,"wifi":null,"outlet":null,"driveThrough":null,"terrace":null,"pet":null},"petPolicyType":"정보 없음","lastCheckedAt":""},{"id":"메가MGC커피_MA010120220808519370","brand":"메가MGC커피","name":"메가엠지씨커피김해 삼계점","lat":35.2608333964213,"lng":128.869389525547,"address":"경상남도 김해시 삼계중앙로 39","phone":"055-312-4669","openingHours":"","services":{"parking":null,"wifi":null,"outlet":null,"driveThrough":null,"terrace":null,"pet":null},"petPolicyType":"정보 없음","lastCheckedAt":""},{"id":"커피스미스_MA010120220808384800","brand":"커피스미스","name":"커피스미스창원 용강점","lat":35.2687527871763,"lng":128.639656107347,"address":"경상남도 창원시 의창구 동읍 의창대로421번길 10","phone":"055-297-4000","openingHours":"","services":{"parking":null,"wifi":true,"outlet":true,"driveThrough":null,"terrace":null,"pet":null},"petPolicyType":"정보 없음","lastCheckedAt":""},{"id":"이디야커피_MA010120220808408880","brand":"이디야커피","name":"이디야감계점","lat":35.2978541053437,"lng":128.593061747524,"address":"경상남도 창원시 의창구 북면 감계로110번길 11-4","phone":"055-297-4778","openingHours":"","services":{"parking":null,"wifi":null,"outlet":null,"driveThrough":null,"terrace":null,"pet":null},"petPolicyType":"정보 없음","lastCheckedAt":""},{"id":"메가MGC커피_MA010120220808476090","brand":"메가MGC커피","name":"메가엠지씨커피통영동피랑점","lat":34.8445196978221,"lng":128.427165393104,"address":"경상남도 통영시 통영해안로 363","phone":"055-649-2733","openingHours":"","services":{"parking":null,"wifi":null,"outlet":null,"driveThrough":null,"terrace":null,"pet":null},"petPolicyType":"정보 없음","lastCheckedAt":""},{"id":"하삼동커피_MA010120220808419734","brand":"하삼동커피","name":"하삼동커피남부점","lat":35.3337580218789,"lng":129.030173027191,"address":"경상남도 양산시 양주로 97","phone":"055-385-7676","openingHours":"","services":{"parking":null,"wifi":null,"outlet":null,"driveThrough":null,"terrace":null,"pet":null},"petPolicyType":"정보 없음","lastCheckedAt":""},{"id":"엔제리너스_MA010120220808505022","brand":"엔제리너스","name":"엔제리너스금산못점","lat":35.2084041942251,"lng":128.154064198872,"address":"경상남도 진주시 금산면 금산순환로587번길 117","phone":"055-758-3200","openingHours":"","services":{"parking":null,"wifi":null,"outlet":null,"driveThrough":null,"terrace":null,"pet":null},"petPolicyType":"정보 없음","lastCheckedAt":""},{"id":"컴포즈커피_MA010120220808467599","brand":"컴포즈커피","name":"컴포즈커피마산 자산점","lat":35.2006366169997,"lng":128.567663926922,"address":"경상남도 창원시 마산합포구 315대로 252","phone":"055-603-8438","openingHours":"","services":{"parking":null,"wifi":true,"outlet":true,"driveThrough":null,"terrace":null,"pet":null},"petPolicyType":"정보 없음","lastCheckedAt":""},{"id":"하삼동커피_MA010120220808383833","brand":"하삼동커피","name":"하삼동커피양산남부 시장점","lat":35.3437568115278,"lng":129.03629628449,"address":"경상남도 양산시 삼일로 82","phone":"055-913-1120","openingHours":"","services":{"parking":null,"wifi":null,"outlet":null,"driveThrough":null,"terrace":null,"pet":null},"petPolicyType":"정보 없음","lastCheckedAt":""},{"id":"메가MGC커피_MA010120220808676856","brand":"메가MGC커피","name":"메가엠지씨커피장유코아점","lat":35.2035109242187,"lng":128.809355267337,"address":"경상남도 김해시 장유로 232","phone":"055-312-9727","openingHours":"","services":{"parking":null,"wifi":null,"outlet":null,"driveThrough":null,"terrace":null,"pet":null},"petPolicyType":"정보 없음","lastCheckedAt":""},{"id":"컴포즈커피_MA010120220808605610","brand":"컴포즈커피","name":"컴포즈커피 인제대점","lat":35.246097304195,"lng":128.904171167928,"address":"경상남도 김해시 인제로 196","phone":"055-324-5568","openingHours":"","services":{"parking":null,"wifi":true,"outlet":true,"driveThrough":null,"terrace":null,"pet":null},"petPolicyType":"정보 없음","lastCheckedAt":""},{"id":"텐퍼센트커피_MA010120220808539281","brand":"텐퍼센트커피","name":"텐퍼센트커피김해 율하점","lat":35.1720932198983,"lng":128.81489281695,"address":"경상남도 김해시 율하3로 48","phone":"055-724-2111","openingHours":"","services":{"parking":null,"wifi":null,"outlet":null,"driveThrough":null,"terrace":null,"pet":null},"petPolicyType":"정보 없음","lastCheckedAt":""},{"id":"커피나무_MA010120220808638255","brand":"커피나무","name":"커피나무","lat":35.2990218271503,"lng":128.710126441621,"address":"경상남도 김해시 진영읍 김해대로 132-1","phone":"","openingHours":"","services":{"parking":null,"wifi":true,"outlet":null,"driveThrough":null,"terrace":null,"pet":null},"petPolicyType":"정보 없음","lastCheckedAt":""},{"id":"봄봄_MA010120220808675191","brand":"봄봄","name":"카페봄봄","lat":35.2007902160109,"lng":128.567633939607,"address":"경상남도 창원시 마산합포구 315대로 254","phone":"055-222-0791","openingHours":"","services":{"parking":null,"wifi":null,"outlet":null,"driveThrough":null,"terrace":null,"pet":null},"petPolicyType":"정보 없음","lastCheckedAt":""},{"id":"하삼동커피_MA010120220808645946","brand":"하삼동커피","name":"하삼동커피삼천포점","lat":34.9400744813415,"lng":128.086719827029,"address":"경상남도 사천시 주공로 22","phone":"055-786-8333","openingHours":"","services":{"parking":null,"wifi":null,"outlet":null,"driveThrough":null,"terrace":null,"pet":null},"petPolicyType":"정보 없음","lastCheckedAt":""},{"id":"공차_MA010120220808540933","brand":"공차","name":"공차진주경 상대점","lat":35.1542247584791,"lng":128.107020186039,"address":"경상남도 진주시 진주대로 536","phone":"","openingHours":"","services":{"parking":null,"wifi":false,"outlet":false,"driveThrough":null,"terrace":null,"pet":null},"petPolicyType":"정보 없음","lastCheckedAt":""},{"id":"더벤티_MA010120220808566531","brand":"더벤티","name":"더벤티","lat":35.2557820625945,"lng":128.598061120366,"address":"경상남도 창원시 마산회원구 구암북2길 122","phone":"055-261-1475","openingHours":"","services":{"parking":null,"wifi":null,"outlet":null,"driveThrough":null,"terrace":null,"pet":null},"petPolicyType":"정보 없음","lastCheckedAt":""},{"id":"이디야커피_MA010120220808546704","brand":"이디야커피","name":"이디야커피 밀양삼랑진점","lat":35.3968515026154,"lng":128.838021529097,"address":"경상남도 밀양시 삼랑진읍 천태로 12","phone":"055-354-5455","openingHours":"","services":{"parking":null,"wifi":null,"outlet":null,"driveThrough":null,"terrace":null,"pet":null},"petPolicyType":"정보 없음","lastCheckedAt":""},{"id":"더벤티_MA010120220808567009","brand":"더벤티","name":"더벤티하대점","lat":35.1904556584273,"lng":128.121861160574,"address":"경상남도 진주시 도동로 225","phone":"055-753-3440","openingHours":"","services":{"parking":null,"wifi":null,"outlet":null,"driveThrough":null,"terrace":null,"pet":null},"petPolicyType":"정보 없음","lastCheckedAt":""},{"id":"컴포즈커피_MA010120220808566382","brand":"컴포즈커피","name":"컴포즈커피진해 남문점","lat":35.1056010991386,"lng":128.751872508046,"address":"경상남도 창원시 진해구 남영로 56","phone":"055-541-5993","openingHours":"","services":{"parking":null,"wifi":true,"outlet":true,"driveThrough":null,"terrace":null,"pet":null},"petPolicyType":"정보 없음","lastCheckedAt":""},{"id":"컴포즈커피_MA010120220808568599","brand":"컴포즈커피","name":"컴포즈커피창원덕산점","lat":35.2122660880409,"lng":128.707305365323,"address":"경상남도 창원시 성산구 대정로 135","phone":"055-604-2002","openingHours":"","services":{"parking":null,"wifi":true,"outlet":true,"driveThrough":null,"terrace":null,"pet":null},"petPolicyType":"정보 없음","lastCheckedAt":""},{"id":"빽다방_MA010120220808647279","brand":"빽다방","name":"빽다방통영시립도서관점","lat":34.8608675379224,"lng":128.425020274365,"address":"경상남도 통영시 무전3길 14","phone":"055-643-7913","openingHours":"","services":{"parking":null,"wifi":true,"outlet":true,"driveThrough":null,"terrace":null,"pet":null},"petPolicyType":"정보 없음","lastCheckedAt":""},{"id":"더벤티_MA010120220808603609","brand":"더벤티","name":"더벤티","lat":35.1726531297606,"lng":128.064142257623,"address":"경상남도 진주시 평거로 26","phone":"055-747-7746","openingHours":"","services":{"parking":null,"wifi":null,"outlet":null,"driveThrough":null,"terrace":null,"pet":null},"petPolicyType":"정보 없음","lastCheckedAt":""},{"id":"컴포즈커피_MA010120220808630254","brand":"컴포즈커피","name":"컴포즈커피봉림점","lat":35.251315049536,"lng":128.667287394719,"address":"경상남도 창원시 의창구 대봉로 24","phone":"055-277-6628","openingHours":"","services":{"parking":null,"wifi":true,"outlet":true,"driveThrough":null,"terrace":null,"pet":null},"petPolicyType":"정보 없음","lastCheckedAt":""},{"id":"공차_MA010120220808744704","brand":"공차","name":"공차김해 인제대점","lat":35.2462589382362,"lng":128.904207904088,"address":"경상남도 김해시 인제로200번길 2","phone":"055-322-3350","openingHours":"","services":{"parking":null,"wifi":false,"outlet":false,"driveThrough":null,"terrace":null,"pet":null},"petPolicyType":"정보 없음","lastCheckedAt":""},{"id":"더벤티_MA010120220808789814","brand":"더벤티","name":"더벤티","lat":35.0273786469686,"lng":127.905378606884,"address":"경상남도 하동군 진교면 경충로 1051","phone":"055-989-9808","openingHours":"","services":{"parking":null,"wifi":null,"outlet":null,"driveThrough":null,"terrace":null,"pet":null},"petPolicyType":"정보 없음","lastCheckedAt":""},{"id":"이디야커피_MA010120220808811191","brand":"이디야커피","name":"이디야커피마산 현동점","lat":35.1468068630067,"lng":128.558467111959,"address":"경상남도 창원시 마산합포구 현동1길 4-14","phone":"055-224-0120","openingHours":"","services":{"parking":null,"wifi":null,"outlet":null,"driveThrough":null,"terrace":null,"pet":null},"petPolicyType":"정보 없음","lastCheckedAt":""},{"id":"컴포즈커피_MA010120220808759197","brand":"컴포즈커피","name":"컴포즈커피","lat":35.2651674832354,"lng":128.626189004998,"address":"경상남도 창원시 의창구 읍성로 75","phone":"055-715-6257","openingHours":"","services":{"parking":null,"wifi":true,"outlet":true,"driveThrough":null,"terrace":null,"pet":null},"petPolicyType":"정보 없음","lastCheckedAt":""},{"id":"감성커피_MA010120220808707102","brand":"감성커피","name":"감성커피신항점","lat":35.0872092808784,"lng":128.816628017811,"address":"경상남도 창원시 진해구 신항4로 41-16","phone":"055-545-1227","openingHours":"","services":{"parking":null,"wifi":null,"outlet":null,"driveThrough":null,"terrace":null,"pet":null},"petPolicyType":"정보 없음","lastCheckedAt":""},{"id":"빽다방_MA010120220808811704","brand":"빽다방","name":"빽다방거제고현 터미널점","lat":34.8902641415439,"lng":128.624343831896,"address":"경상남도 거제시 서문로 79","phone":"055-633-3989","openingHours":"","services":{"parking":null,"wifi":true,"outlet":true,"driveThrough":null,"terrace":null,"pet":null},"petPolicyType":"정보 없음","lastCheckedAt":""},{"id":"빽다방_MA010120220808710401","brand":"빽다방","name":"빽다방경남함양점","lat":35.5211186720508,"lng":127.727511769102,"address":"경상남도 함양군 함양읍 함양초등길 60","phone":"055-963-0316","openingHours":"","services":{"parking":null,"wifi":true,"outlet":true,"driveThrough":null,"terrace":null,"pet":null},"petPolicyType":"정보 없음","lastCheckedAt":""},{"id":"하삼동커피_MA010120220808697586","brand":"하삼동커피","name":"하삼동커피장승포점","lat":34.8753735174828,"lng":128.73216534396,"address":"경상남도 거제시 능포로2길 49","phone":"055-681-0274","openingHours":"","services":{"parking":null,"wifi":null,"outlet":null,"driveThrough":null,"terrace":null,"pet":null},"petPolicyType":"정보 없음","lastCheckedAt":""},{"id":"감성커피_MA010120220808784492","brand":"감성커피","name":"감성커피양산소토점","lat":35.3793490135501,"lng":129.054025157536,"address":"경상남도 양산시 상북면 소토로 31","phone":"055-374-6888","openingHours":"","services":{"parking":null,"wifi":null,"outlet":null,"driveThrough":null,"terrace":null,"pet":null},"petPolicyType":"정보 없음","lastCheckedAt":""},{"id":"투썸플레이스_MA010120220809138590","brand":"투썸플레이스","name":"투썸플레이스 현동점","lat":35.1520539890968,"lng":128.552707445855,"address":"경상남도 창원시 마산합포구 현동로 36","phone":"","openingHours":"","services":{"parking":null,"wifi":true,"outlet":true,"driveThrough":null,"terrace":null,"pet":null},"petPolicyType":"정보 없음","lastCheckedAt":""},{"id":"투썸플레이스_MA010120220809303723","brand":"투썸플레이스","name":"투썸플레이스창원대산점","lat":35.3326148833951,"lng":128.708480528131,"address":"경상남도 창원시 의창구 대산면 진산대로355번길 14-16","phone":"055-253-2227","openingHours":"","services":{"parking":null,"wifi":true,"outlet":true,"driveThrough":null,"terrace":null,"pet":null},"petPolicyType":"정보 없음","lastCheckedAt":""},{"id":"텐퍼센트커피_MA010120220809272020","brand":"텐퍼센트커피","name":"텐퍼센트커피창원감계점","lat":35.3019873578186,"lng":128.594000264569,"address":"경상남도 창원시 의창구 북면 감계로 304","phone":"055-299-2111","openingHours":"","services":{"parking":null,"wifi":null,"outlet":null,"driveThrough":null,"terrace":null,"pet":null},"petPolicyType":"정보 없음","lastCheckedAt":""},{"id":"컴포즈커피_MA010120220809370797","brand":"컴포즈커피","name":"컴포즈김해 분성점","lat":35.2296322897402,"lng":128.864851171867,"address":"경상남도 김해시 분성로 164","phone":"055-338-4858","openingHours":"","services":{"parking":null,"wifi":true,"outlet":true,"driveThrough":null,"terrace":null,"pet":null},"petPolicyType":"정보 없음","lastCheckedAt":""},{"id":"카페베네_MA010120220809394976","brand":"카페베네","name":"카페베네 율하점","lat":35.17629251405,"lng":128.813109268417,"address":"경상남도 김해시 율하카페길 79","phone":"","openingHours":"","services":{"parking":null,"wifi":true,"outlet":true,"driveThrough":null,"terrace":null,"pet":null},"petPolicyType":"정보 없음","lastCheckedAt":""},{"id":"컴포즈커피_MA010120220809327656","brand":"컴포즈커피","name":"컴포즈커피양산 중부점","lat":35.3374210002054,"lng":129.027768273415,"address":"경상남도 양산시 양산역6길 17","phone":"070-4155-8554","openingHours":"","services":{"parking":null,"wifi":true,"outlet":true,"driveThrough":null,"terrace":null,"pet":null},"petPolicyType":"정보 없음","lastCheckedAt":""},