[{"id":"27557389","brand":"스타벅스","name":"스타벅스 한국프레스센터점","lat":37.567409708254644,"lng":126.97788238985001,"address":"서울 중구 세종대로 124","phone":"1522-3232"},{"id":"321010429","brand":"스타벅스","name":"스타벅스 무교로점","lat":37.5672801553634,"lng":126.978923787718,"address":"서울 중구 무교로 15","phone":"1522-3232"},{"id":"1146325598","brand":"스타벅스","name":"스타벅스 시청점","lat":37.566351383923966,"lng":126.97981258973314,"address":"서울 중구 을지로 19","phone":"1522-3232"},{"id":"8403570","brand":"스타벅스","name":"스타벅스 무교동점","lat":37.5679865311548,"lng":126.978896422532,"address":"서울 중구 무교로 21","phone":"1522-3232"},{"id":"22894118","brand":"스타벅스","name":"스타벅스 환구단점","lat":37.564473589052284,"lng":126.97912831504493,"address":"서울 중구 소공로 112","phone":"1522-3232"},{"id":"660525167","brand":"스타벅스","name":"스타벅스 세종대로점","lat":37.5685951382056,"lng":126.97643316578,"address":"서울 중구 세종대로 135-5","phone":"1522-3232"},{"id":"27389694","brand":"스타벅스","name":"스타벅스 소공로점","lat":37.5638855205458,"lng":126.980790051363,"address":"서울 중구 남대문로7길 19","phone":"1522-3232"},{"id":"261003114","brand":"스타벅스","name":"스타벅스 을지로국제빌딩점","lat":37.5670482592095,"lng":126.98234221842628,"address":"서울 중구 남대문로 109","phone":"1522-3232"},{"id":"312821024","brand":"스타벅스","name":"스타벅스 광화문우체국점","lat":37.5699721725557,"lng":126.978058216854,"address":"서울 종로구 종로 6","phone":"1522-3232"},{"id":"823111500","brand":"스타벅스","name":"스타벅스 시청역11번출구점","lat":37.5637763811175,"lng":126.975305087991,"address":"서울 중구 서소문로 129","phone":"1522-3232"},{"id":"25115115","brand":"스타벅스","name":"스타벅스 새문안로점","lat":37.56978599622706,"lng":126.97517406163408,"address":"서울 종로구 새문안로 92","phone":"1522-3232"},{"id":"8438581","brand":"스타벅스","name":"스타벅스 태평로점","lat":37.5625008559003,"lng":126.976711254608,"address":"서울 중구 세종대로 72","phone":"1522-3232"},{"id":"27392952","brand":"스타벅스","name":"스타벅스 을지로경기빌딩점","lat":37.56711145251433,"lng":126.98318887220633,"address":"서울 중구 남대문로10길 9","phone":"1522-3232"},{"id":"7961649","brand":"스타벅스","name":"스타벅스 광화문점","lat":37.57122962143047,"lng":126.97629649901215,"address":"서울 종로구 세종대로 167","phone":"1522-3232"},{"id":"99236336","brand":"스타벅스","name":"스타벅스 광화문교보문고점","lat":37.57097405292378,"lng":126.97791642688188,"address":"서울 종로구 종로 1","phone":"1522-3232"},{"id":"27090421","brand":"스타벅스","name":"스타벅스 을지로한국빌딩점","lat":37.5656626881538,"lng":126.983451795824,"address":"서울 중구 을지로 50","phone":"1522-3232"},{"id":"26410045","brand":"스타벅스","name":"스타벅스 서소문로점","lat":37.56294278280919,"lng":126.9744745874965,"address":"서울 중구 서소문로 120","phone":"1522-3232"},{"id":"1153338423","brand":"스타벅스","name":"스타벅스 한국은행교차로점","lat":37.562498027047,"lng":126.981043939832,"address":"서울 중구 남대문로 55","phone":"1522-3232"},{"id":"724341363","brand":"스타벅스","name":"스타벅스 숭례문북창점","lat":37.56172960195989,"lng":126.97670696736371,"address":"서울 중구 세종대로12길 12","phone":"1522-3232"},{"id":"1784996243","brand":"스타벅스","name":"스타벅스 종로R점","lat":37.57078754872737,"lng":126.98343141859559,"address":"서울 종로구 종로 51","phone":"1522-3232"},{"id":"1377457371","brand":"스타벅스","name":"스타벅스 그랑서울점","lat":37.570787215955804,"lng":126.98120937010292,"address":"서울 종로구 종로 33","phone":"1522-3232"},{"id":"1227426807","brand":"스타벅스","name":"스타벅스 리저브 광화문점","lat":37.57242641251093,"lng":126.97767941203776,"address":"서울 종로구 세종대로 178","phone":"1522-3232"},{"id":"8405079","brand":"스타벅스","name":"스타벅스 종각점","lat":37.5700056389639,"lng":126.984569205394,"address":"서울 종로구 종로 64","phone":"1522-3232"},{"id":"17884783","brand":"스타벅스","name":"스타벅스 을지로삼화타워점","lat":37.56692064528361,"lng":126.98468756013723,"address":"서울 중구 을지로5길 16","phone":"1522-3232"},{"id":"26785711","brand":"스타벅스","name":"스타벅스 명동중앙로점","lat":37.5637096294539,"lng":126.985761219289,"address":"서울 중구 명동길 60","phone":"1522-3232"},{"id":"1479060397","brand":"스타벅스","name":"스타벅스 광화문고려빌딩점","lat":37.5704364470397,"lng":126.974853500966,"address":"서울 종로구 새문안로 91","phone":"1522-3232"},{"id":"1358426450","brand":"스타벅스","name":"스타벅스 대한상공회의소R점","lat":37.5609378958064,"lng":126.973702240748,"address":"서울 중구 세종대로 39","phone":"1522-3232"},{"id":"936923792","brand":"스타벅스","name":"스타벅스 KT광화문웨스트 B1F점","lat":37.5721417497781,"lng":126.977954569626,"address":"서울 종로구 세종대로 178","phone":"1522-3232"},{"id":"12700362","brand":"스타벅스","name":"스타벅스 종로관철점","lat":37.5690868019367,"lng":126.986000167007,"address":"서울 종로구 종로12길 21","phone":"1522-3232"},{"id":"589092573","brand":"스타벅스","name":"스타벅스 별다방점","lat":37.5600439705648,"lng":126.982729816384,"address":"서울 중구 퇴계로 100","phone":"1522-3232"},{"id":"1989843441","brand":"스타벅스","name":"스타벅스 서울중앙우체국점","lat":37.5613223842554,"lng":126.982053823305,"address":"서울 중구 소공로 70","phone":"1522-3232"},{"id":"13582632","brand":"스타벅스","name":"스타벅스 이마빌딩점","lat":37.573946626388214,"lng":126.9789615295702,"address":"서울 종로구 종로1길 42","phone":"1522-3232"},{"id":"19700434","brand":"스타벅스","name":"스타벅스 명동역점","lat":37.56086212989949,"lng":126.98310425846024,"address":"서울 중구 퇴계로 101","phone":"1522-3232"},{"id":"506743578","brand":"스타벅스","name":"스타벅스 경희궁로점","lat":37.57168104918171,"lng":126.97229254565359,"address":"서울 종로구 새문안로3길 15","phone":"1522-3232"},{"id":"26395444","brand":"스타벅스","name":"스타벅스 명동길점","lat":37.5621058731093,"lng":126.985906399301,"address":"서울 중구 명동10길 41","phone":"1522-3232"},{"id":"10538288","brand":"스타벅스","name":"스타벅스 퍼시픽타워점","lat":37.56135405071565,"lng":126.97323238797523,"address":"서울 중구 세종대로9길 41","phone":"1522-3232"},{"id":"27233253","brand":"스타벅스","name":"스타벅스 회현역점","lat":37.559319256962745,"lng":126.98071426186301,"address":"서울 중구 퇴계로 72","phone":"1522-3232"},{"id":"914760655","brand":"스타벅스","name":"스타벅스 정동점","lat":37.56866486265349,"lng":126.9700207404752,"address":"서울 종로구 새문안로 42","phone":"1522-3232"},{"id":"1359796599","brand":"스타벅스","name":"스타벅스 신세계본점 6F점","lat":37.5605518995878,"lng":126.981202886403,"address":"서울 중구 퇴계로 77","phone":"1522-3232"},{"id":"205260182","brand":"스타벅스","name":"스타벅스 을지로2가점","lat":37.5663732231061,"lng":126.988001872047,"address":"서울 중구 삼일대로 358","phone":"1522-3232"},{"id":"10537603","brand":"스타벅스","name":"스타벅스 문화일보점","lat":37.5672670528218,"lng":126.96861433364,"address":"서울 중구 새문안로 22","phone":""},{"id":"1073495846","brand":"스타벅스","name":"스타벅스 이마트타워점","lat":37.5607511132677,"lng":126.972490133844,"address":"서울 중구 세종대로7길 37","phone":"1522-3232"},{"id":"10536363","brand":"스타벅스","name":"스타벅스 순화동더샵점","lat":37.56007430693169,"lng":126.97182148679465,"address":"서울 중구 칠패로 27","phone":"1522-3232"},{"id":"12108441","brand":"스타벅스","name":"스타벅스 남산단암점","lat":37.5584028495816,"lng":126.975367977524,"address":"서울 중구 소월로 10","phone":"1522-3232"},{"id":"476551453","brand":"스타벅스","name":"스타벅스 연합뉴스점","lat":37.57418565488308,"lng":126.98050440160851,"address":"서울 종로구 율곡로2길 25","phone":"1522-3232"},{"id":"7961654","brand":"스타벅스","name":"스타벅스 몬테소리점","lat":37.4983415831768,"lng":127.026874023027,"address":"서울 서초구 강남대로 399","phone":"1522-3232"},{"id":"35026031","brand":"스타벅스","name":"스타벅스 강남R점","lat":37.4976744709989,"lng":127.028443419181,"address":"서울 강남구 강남대로 390","phone":"1522-3232"},{"id":"17884758","brand":"스타벅스","name":"스타벅스 강남GT타워점","lat":37.49788583490465,"lng":127.02615689173884,"address":"서울 서초구 서초대로 411","phone":"1522-3232"},{"id":"1676397089","brand":"스타벅스","name":"스타벅스 강남역신분당역사점","lat":37.49701321401818,"lng":127.02810165133745,"address":"서울 강남구 역삼동 858","phone":"1522-3232"},{"id":"432783661","brand":"스타벅스","name":"스타벅스 케이스퀘어강남점","lat":37.4991963226349,"lng":127.028226866678,"address":"서울 강남구 강남대로94길 10","phone":"1522-3232"},{"id":"17884744","brand":"스타벅스","name":"스타벅스 강남비젼타워점","lat":37.49649026006633,"lng":127.0296167853337,"address":"서울 강남구 테헤란로2길 27","phone":"1522-3232"},{"id":"1416698743","brand":"스타벅스","name":"스타벅스 강남역우송빌딩점","lat":37.4981419049692,"lng":127.02531109167,"address":"서울 서초구 서초대로73길 7","phone":"1522-3232"},{"id":"11306012","brand":"스타벅스","name":"스타벅스 강남서초초교점","lat":37.50015830491417,"lng":127.0255526536779,"address":"서울 서초구 서초대로77길 27","phone":"1522-3232"},{"id":"23326017","brand":"스타벅스","name":"스타벅스 서초파라곤점","lat":37.4951194999284,"lng":127.027239254954,"address":"서울 서초구 서초대로74길 29","phone":"1522-3232"},{"id":"1114343523","brand":"스타벅스","name":"스타벅스 국기원사거리점","lat":37.4996054052968,"lng":127.031678497624,"address":"서울 강남구 테헤란로 125","phone":"1522-3232"},{"id":"799842956","brand":"스타벅스","name":"스타벅스 강남역5번출구호정빌딩점","lat":37.4945426065049,"lng":127.028298618043,"address":"서울 서초구 서초대로78길 38","phone":"1522-3232"},{"id":"113668696","brand":"스타벅스","name":"스타벅스 강남오거리점","lat":37.5021150424068,"lng":127.026671808376,"address":"서울 강남구 봉은사로2길 39","phone":"1522-3232"},{"id":"1662040802","brand":"스타벅스","name":"스타벅스 서초우성사거리점","lat":37.4935368360249,"lng":127.029310303418,"address":"서울 서초구 강남대로 343","phone":""},{"id":"20494135","brand":"스타벅스","name":"스타벅스 강남대로점","lat":37.5032649716005,"lng":127.025559367137,"address":"서울 강남구 강남대로 456","phone":"1522-3232"},{"id":"20494145","brand":"스타벅스","name":"스타벅스 역삼포스코점","lat":37.499466146164735,"lng":127.03350595398784,"address":"서울 강남구 테헤란로 134","phone":"1522-3232"},{"id":"19469881","brand":"스타벅스","name":"스타벅스 강남에비뉴점","lat":37.5025516822801,"lng":127.024097956389,"address":"서울 서초구 서초대로77길 62","phone":"1522-3232"},{"id":"1052083352","brand":"스타벅스","name":"스타벅스 강남교보타워R점","lat":37.50368598864027,"lng":127.02438897556831,"address":"서울 서초구 강남대로 465","phone":"1522-3232"},{"id":"24167977","brand":"스타벅스","name":"스타벅스 역삼초교사거리점","lat":37.49408637124967,"lng":127.03302521915718,"address":"서울 강남구 역삼로 123","phone":"1522-3232"},{"id":"1807668316","brand":"스타벅스","name":"스타벅스 강남우성점","lat":37.492329129164,"lng":127.03071652243,"address":"서울 강남구 강남대로 328","phone":"1522-3232"},{"id":"1507421877","brand":"스타벅스","name":"스타벅스 아크플레이스점","lat":37.49970996873063,"lng":127.03471837892963,"address":"서울 강남구 테헤란로 142","phone":"1522-3232"},{"id":"24529846","brand":"스타벅스","name":"스타벅스 신논현역점","lat":37.5043791200798,"lng":127.02310442793737,"address":"서울 서초구 사평대로 367","phone":"1522-3232"},{"id":"490544045","brand":"스타벅스","name":"스타벅스 서이초교사거리점","lat":37.4918510914366,"lng":127.025234337679,"address":"서울 서초구 사임당로 143","phone":"1522-3232"},{"id":"2102468643","brand":"스타벅스","name":"스타벅스 대륭서초타워점","lat":37.49207972921531,"lng":127.03001986182085,"address":"서울 서초구 강남대로 327","phone":"1522-3232"},{"id":"2018390336","brand":"스타벅스","name":"스타벅스 강남파이낸스센터점","lat":37.49993547619417,"lng":127.03684795896827,"address":"서울 강남구 테헤란로 152","phone":"1522-3232"},{"id":"7977520","brand":"스타벅스","name":"스타벅스 GS타워점","lat":37.5017950824802,"lng":127.03707166469,"address":"서울 강남구 논현로 508","phone":"1522-3232"},{"id":"8429830","brand":"스타벅스","name":"스타벅스 구역삼사거리점","lat":37.4958730842435,"lng":127.038891641479,"address":"서울 강남구 논현로 401","phone":"1522-3232"},{"id":"1376061897","brand":"스타벅스","name":"스타벅스 강남차여성병원점","lat":37.506387183650155,"lng":127.03201613686862,"address":"서울 강남구 봉은사로 156","phone":"1522-3232"},{"id":"15376650","brand":"스타벅스","name":"스타벅스 본사","lat":37.50365239823713,"lng":127.04146067379646,"address":"서울 강남구 테헤란로 231","phone":"1522-3232"},{"id":"20494146","brand":"스타벅스","name":"스타벅스 역삼대로점","lat":37.5018952591279,"lng":127.039347134781,"address":"서울 강남구 테헤란로 211","phone":""},{"id":"98927402","brand":"스타벅스","name":"스타벅스 서초태우빌딩점","lat":37.48875910932128,"lng":127.03158119722254,"address":"서울 서초구 강남대로 285","phone":"1522-3232"},{"id":"8429829","brand":"스타벅스","name":"스타벅스 교대점","lat":37.49231244941736,"lng":127.01417772332432,"address":"서울 서초구 서초중앙로 118","phone":"1522-3232"},{"id":"13557037","brand":"스타벅스","name":"스타벅스 교대법원점","lat":37.4963652713493,"lng":127.013384638803,"address":"서울 서초구 서초중앙로 164","phone":"1522-3232"},{"id":"2014774297","brand":"스타벅스","name":"스타벅스 강남논현점","lat":37.5078965980245,"lng":127.023339632165,"address":"서울 강남구 강남대로 512","phone":"1522-3232"},{"id":"17127066","brand":"스타벅스","name":"스타벅스 역삼럭키점","lat":37.4922328473087,"lng":127.039400866037,"address":"서울 강남구 도곡로 183","phone":"1522-3232"},{"id":"1959735400","brand":"스타벅스","name":"스타벅스 도곡공원점","lat":37.4928052373632,"lng":127.041305413122,"address":"서울 강남구 도곡로 205","phone":"1522-3232"},{"id":"1713883250","brand":"스타벅스","name":"스타벅스 서초법원점","lat":37.4928190664977,"lng":127.01190380456472,"address":"서울 서초구 서초대로 274","phone":"1522-3232"},{"id":"49095933","brand":"스타벅스","name":"스타벅스 논현역사거리점","lat":37.51012410390254,"lng":127.0221866558262,"address":"서울 강남구 강남대로 538","phone":"1522-3232"},{"id":"486472408","brand":"스타벅스","name":"스타벅스 센터필드R","lat":37.503593760076306,"lng":127.04166760528298,"address":"서울 강남구 테헤란로 231","phone":"1522-3232"},{"id":"17127097","brand":"스타벅스","name":"스타벅스 서초동점","lat":37.4859448111295,"lng":127.021564411134,"address":"서울 서초구 남부순환로339길 64","phone":"1522-3232"},{"id":"829336865","brand":"스타벅스","name":"스타벅스 교대역3번출구점","lat":37.49434232909094,"lng":127.01490408762076,"address":"서울 서초구 서초중앙로24길 10","phone":"1522-3232"},{"id":"1513986311","brand":"스타벅스","name":"스타벅스 언주역점","lat":37.507770715347,"lng":127.036540781248,"address":"서울 강남구 봉은사로 222","phone":"1522-3232"},{"id":"2140766203","brand":"스타벅스","name":"스타벅스 역삼아레나빌딩점","lat":37.501139803827904,"lng":127.04311041790872,"address":"서울 강남구 언주로 425","phone":"1522-3232"},{"id":"1729329393","brand":"스타벅스","name":"스타벅스 양재강남빌딩R점","lat":37.48516628428305,"lng":127.03646645149259,"address":"서울 강남구 남부순환로 2621","phone":"1522-3232"},{"id":"1008945486","brand":"스타벅스","name":"스타벅스 서초구청점","lat":37.48444545821113,"lng":127.03014231042431,"address":"서울 서초구 남부순환로 2557","phone":"1522-3232"},{"id":"8440476","brand":"스타벅스","name":"스타벅스 큰길타워","lat":37.50233444005635,"lng":127.04084924208225,"address":"서울 강남구 테헤란로 223","phone":"1522-3232"},{"id":"27020659","brand":"스타벅스","name":"스타벅스 강북구청사거리점","lat":37.6400139982618,"lng":127.027396306598,"address":"서울 강북구 도봉로 365","phone":"1522-3232"},{"id":"10534106","brand":"스타벅스","name":"스타벅스 수유역점","lat":37.6381798439037,"lng":127.026294369466,"address":"서울 강북구 도봉로 342","phone":""},{"id":"1926458975","brand":"스타벅스","name":"스타벅스 수유역5번출구점","lat":37.636722675023,"lng":127.023322088325,"address":"서울 강북구 도봉로 315","phone":"1522-3232"},{"id":"519080844","brand":"스타벅스","name":"스타벅스 쌍문도봉로점","lat":37.645389604873,"lng":127.033118153379,"address":"서울 도봉구 도봉로 444","phone":"1522-3232"},{"id":"17884745","brand":"스타벅스","name":"스타벅스 미아역점","lat":37.62618135859377,"lng":127.02654615622092,"address":"서울 강북구 도봉로 196","phone":"1522-3232"},{"id":"961725902","brand":"스타벅스","name":"스타벅스 쌍문점","lat":37.6494243943231,"lng":127.035576631648,"address":"서울 도봉구 도봉로 494","phone":"1522-3232"},{"id":"1959003088","brand":"스타벅스","name":"스타벅스 덕성여대점","lat":37.650942669852064,"lng":127.01321855850139,"address":"서울 도봉구 삼양로 536","phone":"1522-3232"},{"id":"1583585647","brand":"스타벅스","name":"스타벅스 미아뉴타운점","lat":37.61834476046741,"lng":127.02114611983023,"address":"서울 강북구 삼양로 161","phone":""},{"id":"697641350","brand":"스타벅스","name":"스타벅스 창동이마트점","lat":37.6516449755707,"lng":127.046868813877,"address":"서울 도봉구 노해로65길 4","phone":"1522-3232"},{"id":"19469879","brand":"스타벅스","name":"스타벅스 노원역점","lat":37.65472035675518,"lng":127.06006164256367,"address":"서울 노원구 동일로 1413","phone":"1522-3232"},{"id":"1457974114","brand":"스타벅스","name":"스타벅스 서울안토점","lat":37.6641954957084,"lng":127.010407852634,"address":"서울 강북구 삼양로 689","phone":"1522-3232"},{"id":"26572250","brand":"스타벅스","name":"스타벅스 미아사거리역점","lat":37.6118231378487,"lng":127.03058891879,"address":"서울 강북구 도봉로 32","phone":"1522-3232"},{"id":"474419088","brand":"스타벅스","name":"스타벅스 도봉로DT점","lat":37.6611802326364,"lng":127.041629725755,"address":"서울 도봉구 도봉로 635","phone":"1522-3232"},{"id":"924817836","brand":"스타벅스","name":"스타벅스 장위뉴타운점","lat":37.61806331358951,"lng":127.05151211017781,"address":"서울 성북구 장월로38길 4","phone":"1522-3232"},{"id":"908841696","brand":"스타벅스","name":"스타벅스 창동역점","lat":37.65408556407402,"lng":127.04949943873704,"address":"서울 도봉구 마들로13길 61","phone":"1522-3232"},{"id":"20046343","brand":"스타벅스","name":"스타벅스 중계역점","lat":37.6481817147963,"lng":127.062204808397,"address":"서울 노원구 동일로 1339","phone":"1522-3232"},{"id":"1340630386","brand":"스타벅스","name":"스타벅스 방학역점","lat":37.6653465622203,"lng":127.043589434428,"address":"서울 도봉구 도봉로 684","phone":"1522-3232"},{"id":"1516356548","brand":"스타벅스","name":"스타벅스 월계역점","lat":37.62943828633148,"lng":127.0573484962675,"address":"서울 노원구 초안산로2라길 26","phone":"1522-3232"},{"id":"182417110","brand":"스타벅스","name":"스타벅스 미아점","lat":37.6075816059343,"lng":127.029305165679,"address":"서울 성북구 동소문로 314","phone":"1522-3232"},{"id":"2080972721","brand":"스타벅스","name":"스타벅스 노원마들역점","lat":37.66092103259188,"lng":127.05802437230538,"address":"서울 노원구 노원로 547","phone":"1522-3232"},{"id":"18691127","brand":"스타벅스","name":"스타벅스 노원KT점","lat":37.6546284737532,"lng":127.063470345532,"address":"서울 노원구 노해로 502","phone":"1522-3232"},{"id":"1800821127","brand":"스타벅스","name":"스타벅스 상계초교사거리점","lat":37.6566702654055,"lng":127.066441245826,"address":"서울 노원구 노원로 449","phone":"1522-3232"},{"id":"1699822267","brand":"스타벅스","name":"스타벅스 노원구청점","lat":37.6539700937755,"lng":127.057745855422,"address":"서울 노원구 노해로 447","phone":"1522-3232"},{"id":"119957965","brand":"스타벅스","name":"스타벅스 미아이마트","lat":37.61086285147552,"lng":127.02993389843303,"address":"서울 성북구 도봉로 17","phone":"1522-3232"},{"id":"17884753","brand":"스타벅스","name":"스타벅스 광운대점","lat":37.6231891063632,"lng":127.060820134493,"address":"서울 노원구 석계로 104","phone":"1522-3232"},{"id":"1226436866","brand":"스타벅스","name":"스타벅스 길음뉴타운점","lat":37.6037852444956,"lng":127.023437505361,"address":"서울 성북구 길음로 11","phone":"1522-3232"},{"id":"86525499","brand":"스타벅스","name":"스타벅스 길음역점","lat":37.60201621103844,"lng":127.02532246070425,"address":"서울 성북구 정릉로 376","phone":"1522-3232"},{"id":"542443945","brand":"스타벅스","name":"스타벅스 도봉구청점","lat":37.66946671518605,"lng":127.0460412569929,"address":"서울 도봉구 마들로 665","phone":"1522-3232"},{"id":"10537183","brand":"스타벅스","name":"스타벅스 현대미아점","lat":37.60821503046236,"lng":127.02918876333977,"address":"서울 성북구 길음동 20-5","phone":"1522-3232"},{"id":"799469641","brand":"스타벅스","name":"스타벅스 공릉역점","lat":37.626422618227,"lng":127.07223694894179,"address":"서울 노원구 동일로 1081","phone":"1522-3232"},{"id":"780657144","brand":"스타벅스","name":"스타벅스 월계트레이더스점","lat":37.62759082697573,"lng":127.06178435781577,"address":"서울 노원구 마들로3길 17","phone":"1522-3232"},{"id":"27198954","brand":"스타벅스","name":"스타벅스 종암점","lat":37.60116535924222,"lng":127.0337836573406,"address":"서울 성북구 종암로 122","phone":"1522-3232"},{"id":"19469878","brand":"스타벅스","name":"스타벅스 월계이마트점","lat":37.6271527835984,"lng":127.062096653474,"address":"서울 노원구 마들로3길 15","phone":"1522-3232"},{"id":"1826125340","brand":"스타벅스","name":"스타벅스 공릉DT점","lat":37.620790371073866,"lng":127.07426417069411,"address":"서울 노원구 동일로 1015","phone":"1522-3232"},{"id":"19964144","brand":"스타벅스","name":"스타벅스 월곡역점","lat":37.60196239252755,"lng":127.04059223371526,"address":"서울 성북구 화랑로 76","phone":"1522-3232"},{"id":"10538293","brand":"스타벅스","name":"스타벅스 은행사거리점","lat":37.6504801657301,"lng":127.075977055248,"address":"서울 노원구 중계로 217","phone":"1522-3232"},{"id":"17884760","brand":"스타벅스","name":"스타벅스 성신여대점","lat":37.5931679490386,"lng":127.018456564409,"address":"서울 성북구 동소문로24길 12","phone":"1522-3232"},{"id":"944088477","brand":"스타벅스","name":"스타벅스 태릉입구역DT","lat":37.61922817503568,"lng":127.07934560540714,"address":"서울 노원구 화랑로 469","phone":"1522-3232"},{"id":"1879177739","brand":"스타벅스","name":"스타벅스 성신여대정문점","lat":37.590903697121114,"lng":127.0188296544303,"address":"서울 성북구 보문로34길 62","phone":"1522-3232"},{"id":"1925239650","brand":"스타벅스","name":"스타벅스 종암DT점","lat":37.5918231921731,"lng":127.036110806959,"address":"서울 성북구 종암로 17","phone":"1522-3232"},{"id":"749250219","brand":"스타벅스","name":"스타벅스 성신여대입구역점","lat":37.59301684379367,"lng":127.01670145857759,"address":"서울 성북구 동소문로 105","phone":"1522-3232"},{"id":"1937762094","brand":"스타벅스","name":"스타벅스 묵동점","lat":37.61533393573,"lng":127.076879107253,"address":"서울 중랑구 동일로 952","phone":"1522-3232"},{"id":"76206032","brand":"스타벅스","name":"스타벅스 더북한산점","lat":37.6554573891378,"lng":126.947556601185,"address":"서울 은평구 대서문길 24-11","phone":"1522-3232"},{"id":"609996995","brand":"스타벅스","name":"스타벅스 경동1960점","lat":37.579612121447056,"lng":127.03868043435175,"address":"서울 동대문구 고산자로36길 3","phone":"1522-3232"},{"id":"13049478","brand":"스타벅스","name":"스타벅스 경희대점","lat":37.59294766175779,"lng":127.05277655851455,"address":"서울 동대문구 경희대로 16-1","phone":"1522-3232"},{"id":"952507234","brand":"스타벅스","name":"스타벅스 마포구청역점","lat":37.56495949820152,"lng":126.90243217387201,"address":"서울 마포구 월드컵로 200","phone":"1522-3232"},{"id":"12776689","brand":"스타벅스","name":"스타벅스 망원역점","lat":37.5558452570744,"lng":126.91070575438697,"address":"서울 마포구 월드컵로 74","phone":"1522-3232"},{"id":"1436512690","brand":"스타벅스","name":"스타벅스 홍대입구역사거리R점","lat":37.5546231745866,"lng":126.920317785646,"address":"서울 마포구 양화로 125","phone":"1522-3232"},{"id":"1752574662","brand":"스타벅스","name":"스타벅스 망원한강공원점","lat":37.55392483489065,"lng":126.89591772587283,"address":"서울 마포구 망원동 205-8","phone":"1522-3232"},{"id":"20705154","brand":"스타벅스","name":"스타벅스 동교점","lat":37.5568646370831,"lng":126.919993980608,"address":"서울 마포구 월드컵북로 22","phone":"1522-3232"},{"id":"27416913","brand":"스타벅스","name":"스타벅스 서교동사거리점","lat":37.553373200654896,"lng":126.91857176870901,"address":"서울 마포구 양화로 105","phone":"1522-3232"},{"id":"22105109","brand":"스타벅스","name":"스타벅스 홍대역점","lat":37.5572887166274,"lng":126.923637798148,"address":"서울 마포구 양화로 165","phone":"1522-3232"},{"id":"288597324","brand":"스타벅스","name":"스타벅스 합정폴리스R점","lat":37.5508989849269,"lng":126.91340049045,"address":"서울 마포구 양화로 45","phone":"1522-3232"},{"id":"2060053572","brand":"스타벅스","name":"스타벅스 가재울뉴타운점","lat":37.57489101111376,"lng":126.91631259025394,"address":"서울 서대문구 가재울미래로 2","phone":"1522-3232"},{"id":"27076117","brand":"스타벅스","name":"스타벅스 합정메세나몰점","lat":37.5500016943689,"lng":126.913541853312,"address":"서울 마포구 양화로 45","phone":"1522-3232"},{"id":"231272664","brand":"스타벅스","name":"스타벅스 홍대공항철도역점","lat":37.557509550972256,"lng":126.92518582665798,"address":"서울 마포구 양화로 178","phone":"1522-3232"},{"id":"2057327896","brand":"스타벅스","name":"스타벅스 합정점","lat":37.54994959743763,"lng":126.91253700818196,"address":"서울 마포구 월드컵로1길 14","phone":"1522-3232"},{"id":"1485627824","brand":"스타벅스","name":"스타벅스 홍대역8번출구점","lat":37.5567448560452,"lng":126.924168013515,"address":"서울 마포구 양화로 166","phone":"1522-3232"},{"id":"256271963","brand":"스타벅스","name":"스타벅스 홍대동교점","lat":37.5583283237088,"lng":126.926246614786,"address":"서울 마포구 양화로 192","phone":"1522-3232"},{"id":"1145283113","brand":"스타벅스","name":"스타벅스 디지털미디어시티역","lat":37.576124395186376,"lng":126.89894222717868,"address":"서울 마포구 성암로 179","phone":"1522-3232"},{"id":"2132676511","brand":"스타벅스","name":"스타벅스 합정푸르지오점","lat":37.55101982113818,"lng":126.91231847765927,"address":"서울 마포구 월드컵로3길 14","phone":"1522-3232"},{"id":"1432966034","brand":"스타벅스","name":"스타벅스 연희동점","lat":37.565525767187886,"lng":126.92966460587255,"address":"서울 서대문구 연희로 79","phone":"1522-3232"},{"id":"17127074","brand":"스타벅스","name":"스타벅스 홍대삼거리점","lat":37.55025439607592,"lng":126.92328058235611,"address":"서울 마포구 와우산로 64","phone":"1522-3232"},{"id":"458225000","brand":"스타벅스","name":"스타벅스 북가좌DT점","lat":37.58057276673104,"lng":126.9114913524861,"address":"서울 서대문구 응암로 85","phone":"1522-3232"},{"id":"1907850913","brand":"스타벅스","name":"스타벅스 남가좌사거리점","lat":37.5772552002689,"lng":126.920187261092,"address":"서울 서대문구 거북골로 84","phone":"1522-3232"},{"id":"1359139681","brand":"스타벅스","name":"스타벅스 수색점","lat":37.58002802733563,"lng":126.89955960905561,"address":"서울 은평구 수색로 216","phone":"1522-3232"},{"id":"7961821","brand":"스타벅스","name":"스타벅스 상암DMC점","lat":37.5776651695006,"lng":126.89092735851,"address":"서울 마포구 월드컵북로 375","phone":"1522-3232"},{"id":"26848996","brand":"스타벅스","name":"스타벅스 상수역점","lat":37.5475649101839,"lng":126.923272022704,"address":"서울 마포구 독막로 88","phone":"1522-3232"},{"id":"1357852441","brand":"스타벅스","name":"스타벅스 명지대점","lat":37.579054400341306,"lng":126.92276877121924,"address":"서울 서대문구 거북골로 34","phone":"1522-3232"},{"id":"26571462","brand":"스타벅스","name":"스타벅스 연희DT점","lat":37.5701683129101,"lng":126.933848477923,"address":"서울 서대문구 연희로 144","phone":"1522-3232"},{"id":"26576374","brand":"스타벅스","name":"스타벅스 상암디지털큐브점","lat":37.5760847257114,"lng":126.888887454039,"address":"서울 마포구 상암산로 34","phone":"1522-3232"},{"id":"10538396","brand":"스타벅스","name":"스타벅스 신촌점","lat":37.5564857641334,"lng":126.937110958522,"address":"서울 서대문구 연세로 10-1","phone":"1522-3232"},{"id":"1132693025","brand":"스타벅스","name":"스타벅스 신촌오거리점","lat":37.5551906225976,"lng":126.934699199575,"address":"서울 마포구 신촌로16길 10","phone":"1522-3232"},{"id":"725420477","brand":"스타벅스","name":"스타벅스 이대점","lat":37.55845341147771,"lng":126.94594397093421,"address":"서울 서대문구 이화여대길 34","phone":"1522-3232"},{"id":"1161931660","brand":"스타벅스","name":"스타벅스 상암YTN점","lat":37.579273719337785,"lng":126.89220880621265,"address":"서울 마포구 상암산로 76","phone":"1522-3232"},{"id":"25115118","brand":"스타벅스","name":"스타벅스 상암MBC점","lat":37.580909346919,"lng":126.891579254585,"address":"서울 마포구 성암로 267","phone":"1522-3232"},{"id":"1907611374","brand":"스타벅스","name":"스타벅스 신촌역점","lat":37.55626370127929,"lng":126.93468241875944,"address":"서울 서대문구 신촌로 73","phone":"1522-3232"},{"id":"12695523","brand":"스타벅스","name":"스타벅스 신촌명물거리점","lat":37.5577765440044,"lng":126.938155627947,"address":"서울 서대문구 명물길 24","phone":"1522-3232"},{"id":"1572099327","brand":"스타벅스","name":"스타벅스 서강광흥창역점","lat":37.5493756625598,"lng":126.931657893743,"address":"서울 마포구 서강로 69","phone":""},{"id":"27126790","brand":"스타벅스","name":"스타벅스 연세백양로점","lat":37.56288121015615,"lng":126.9374315545726,"address":"서울 서대문구 연세로 50","phone":"1522-3232"},{"id":"10538286","brand":"스타벅스","name":"스타벅스 연대점","lat":37.558712817702,"lng":126.936715226399,"address":"서울 서대문구 연세로 35","phone":"1522-3232"},{"id":"2133759729","brand":"스타벅스","name":"스타벅스 새절역점","lat":37.5894269432406,"lng":126.912863342984,"address":"서울 은평구 증산로 371","phone":"1522-3232"},{"id":"7961931","brand":"스타벅스","name":"스타벅스 연세종합관점","lat":37.561468542290605,"lng":126.94111908833692,"address":"서울 서대문구 연세로 50-1","phone":"1522-3232"},{"id":"25115119","brand":"스타벅스","name":"스타벅스 서강대점","lat":37.55233065760533,"lng":126.93766671300212,"address":"서울 마포구 백범로 23","phone":"1522-3232"},{"id":"705098136","brand":"스타벅스","name":"스타벅스 상암사보이시티","lat":37.581435628828046,"lng":126.88878327150573,"address":"서울 마포구 월드컵북로54길 17","phone":"1522-3232"},{"id":"27535207","brand":"스타벅스","name":"스타벅스 선유동이레빌딩점","lat":37.5341518253866,"lng":126.8973062991907,"address":"서울 영등포구 선유동2로 57","phone":"1522-3232"},{"id":"23326001","brand":"스타벅스","name":"스타벅스 당산점","lat":37.53509110955789,"lng":126.89991973539829,"address":"서울 영등포구 양평로 64","phone":"1522-3232"},{"id":"207762326","brand":"스타벅스","name":"스타벅스 당산역사거리점","lat":37.5339568500424,"lng":126.901108098452,"address":"서울 영등포구 양평로 47","phone":"1522-3232"},{"id":"11116783","brand":"스타벅스","name":"스타벅스 이대ECC점","lat":37.56160407256397,"lng":126.9476665984025,"address":"서울 서대문구 이화여대길 52","phone":"1522-3232"},{"id":"184349526","brand":"스타벅스","name":"스타벅스 서강대흥역점","lat":37.54824481409055,"lng":126.94154932438668,"address":"서울 마포구 백범로 89","phone":""},{"id":"465235237","brand":"스타벅스","name":"스타벅스 영등포구청역점","lat":37.5277473760383,"lng":126.89612267411299,"address":"서울 영등포구 국회대로 558","phone":"1522-3232"},{"id":"2034797842","brand":"스타벅스","name":"스타벅스 영등포KT점","lat":37.52675673805749,"lng":126.90524571619976,"address":"서울 영등포구 영중로 119","phone":"1522-3232"},{"id":"1342896021","brand":"스타벅스","name":"스타벅스 영등포시장역점","lat":37.523475017666,"lng":126.904908229239,"address":"서울 영등포구 영중로 79","phone":"1522-3232"},{"id":"12300206","brand":"스타벅스","name":"스타벅스 문래동점","lat":37.5195639939151,"lng":126.889631934317,"address":"서울 영등포구 선유로 64","phone":"1522-3232"},{"id":"26410044","brand":"스타벅스","name":"스타벅스 문래역점","lat":37.51746334288879,"lng":126.89511096977851,"address":"서울 영등포구 당산로 34","phone":"1522-3232"},{"id":"1581405164","brand":"스타벅스","name":"스타벅스 서울양평역점","lat":37.52316541317884,"lng":126.88595686985332,"address":"서울 영등포구 선유서로24길 6","phone":"1522-3232"},{"id":"458228521","brand":"스타벅스","name":"스타벅스 영등포시장교차로점","lat":37.5204599005082,"lng":126.904458442745,"address":"서울 영등포구 영중로 45","phone":"1522-3232"},{"id":"1302559707","brand":"스타벅스","name":"스타벅스 당산대로점","lat":37.53312309287262,"lng":126.90398181313441,"address":"서울 영등포구 양평로 22","phone":"1522-3232"},{"id":"1163785247","brand":"스타벅스","name":"스타벅스 SSG.COM점","lat":37.5194531054031,"lng":126.903995938826,"address":"서울 영등포구 영신로34길 30","phone":"1522-3232"},{"id":"12402461","brand":"스타벅스","name":"스타벅스 영등포본동점","lat":37.5186799384229,"lng":126.909569110606,"address":"서울 영등포구 영등포로 254","phone":"1522-3232"},{"id":"337672656","brand":"스타벅스","name":"스타벅스 영등포역점","lat":37.51699377584985,"lng":126.90906665146082,"address":"서울 영등포구 경인로 870","phone":"1522-3232"},{"id":"948537095","brand":"스타벅스","name":"스타벅스 타임스퀘어R점","lat":37.51780963619845,"lng":126.905061338993,"address":"서울 영등포구 영중로 15","phone":"1522-3232"},{"id":"17127090","brand":"스타벅스","name":"스타벅스 타임스퀘어B2점","lat":37.51681265738188,"lng":126.90337153358554,"address":"서울 영등포구 영중로 15","phone":"1522-3232"},{"id":"11440788","brand":"스타벅스","name":"스타벅스 타임스퀘어2F점","lat":37.516930634987375,"lng":126.90330577469219,"address":"서울 영등포구 영중로 15","phone":"1522-3232"},{"id":"472535356","brand":"스타벅스","name":"스타벅스 선유도역1번출구점","lat":37.5382904998421,"lng":126.893664067025,"address":"서울 영등포구 양평로 128","phone":"1522-3232"},{"id":"8440477","brand":"스타벅스","name":"스타벅스 하이테크시티점","lat":37.514467139148095,"lng":126.89987828423082,"address":"서울 영등포구 경인로 775","phone":"1522-3232"},{"id":"26909836","brand":"스타벅스","name":"스타벅스 오목교역점","lat":37.52386584381144,"lng":126.87645325560366,"address":"서울 양천구 오목로 354","phone":"1522-3232"},{"id":"20494132","brand":"스타벅스","name":"스타벅스 목동5단지점","lat":37.5364090617693,"lng":126.882116945559,"address":"서울 양천구 목동동로 411","phone":""},{"id":"1964855917","brand":"스타벅스","name":"스타벅스 국회의사당역","lat":37.5280160192324,"lng":126.916780179853,"address":"서울 영등포구 의사당대로 8","phone":"1522-3232"},{"id":"559404149","brand":"스타벅스","name":"스타벅스 목동행복한점","lat":37.52934243177625,"lng":126.87588081683808,"address":"서울 양천구 목동동로 309","phone":"1522-3232"},{"id":"1047495010","brand":"스타벅스","name":"스타벅스 목동파리공원점","lat":37.5353389770394,"lng":126.878855588739,"address":"서울 양천구 목동동로 377","phone":"1522-3232"},{"id":"1066439025","brand":"스타벅스","name":"스타벅스 여의도KBS R점","lat":37.52657177493214,"lng":126.91815744129866,"address":"서울 영등포구 의사당대로 26","phone":""},{"id":"7961580","brand":"스타벅스","name":"스타벅스 목동점","lat":37.5365065039884,"lng":126.878690771741,"address":"서울 양천구 목동서로 67","phone":"1522-3232"},{"id":"7968573","brand":"스타벅스","name":"스타벅스 현대목동점","lat":37.526801205262586,"lng":126.87464625388755,"address":"서울 양천구 목동동로 257","phone":"1522-3232"},{"id":"118233082","brand":"스타벅스","name":"스타벅스 목동SBS점","lat":37.52890750393828,"lng":126.87357362065502,"address":"서울 양천구 목동서로 161","phone":"1522-3232"},{"id":"1775461798","brand":"스타벅스","name":"스타벅스 국회대로점","lat":37.5302596281825,"lng":126.919547238416,"address":"서울 영등포구 국회대로 786","phone":"1522-3232"},{"id":"1228082341","brand":"스타벅스","name":"스타벅스 신도림센터포인트점","lat":37.5077416939087,"lng":126.890350569925,"address":"서울 구로구 새말로 97","phone":"1522-3232"},{"id":"22547052","brand":"스타벅스","name":"스타벅스 여의도일신점","lat":37.5278020207247,"lng":126.920025030438,"address":"서울 영등포구 은행로 11","phone":""},{"id":"27465313","brand":"스타벅스","name":"스타벅스 여의도역R점","lat":37.523227285602,"lng":126.923582027731,"address":"서울 영등포구 의사당대로 83","phone":"1522-3232"},{"id":"12562041","brand":"스타벅스","name":"스타벅스 여의도의사당점","lat":37.5301957610022,"lng":126.921036165805,"address":"서울 영등포구 국회대로74길 12","phone":"1522-3232"},{"id":"158853388","brand":"스타벅스","name":"스타벅스 신도림힐스테이트점","lat":37.506934458328,"lng":126.88473972741421,"address":"서울 구로구 경인로 625","phone":"1522-3232"},{"id":"26316695","brand":"스타벅스","name":"스타벅스 영등포신길점","lat":37.50458141638527,"lng":126.91007921929604,"address":"서울 영등포구 신길로 137","phone":"1522-3232"},{"id":"26410047","brand":"스타벅스","name":"스타벅스 목동7단지점","lat":37.52790227069982,"lng":126.8705094492931,"address":"서울 양천구 목동서로 213","phone":"1522-3232"},{"id":"1826762505","brand":"스타벅스","name":"스타벅스 여의도한강공원","lat":37.52897496334257,"lng":126.93438039739449,"address":"서울 영등포구 여의도동 85-1","phone":"1522-3232"},{"id":"1935154986","brand":"스타벅스","name":"스타벅스 여의도공원R점","lat":37.5289836462614,"lng":126.924766318386,"address":"서울 영등포구 여의공원로 101","phone":"1522-3232"},{"id":"18691075","brand":"스타벅스","name":"스타벅스 여의도IFC(1F)점","lat":37.525332777893,"lng":126.924751884379,"address":"서울 영등포구 국제금융로 10","phone":"1522-3232"},{"id":"8438452","brand":"스타벅스","name":"스타벅스 여의도점","lat":37.524027184065396,"lng":126.92468645144437,"address":"서울 영등포구 국제금융로2길 28","phone":"1522-3232"},{"id":"788522441","brand":"스타벅스","name":"스타벅스 목동트라팰리스점","lat":37.52550279549301,"lng":126.87041065029892,"address":"서울 양천구 오목로 299","phone":"1522-3232"},{"id":"389160790","brand":"스타벅스","name":"스타벅스 목동오목로점","lat":37.52592318438705,"lng":126.86843809046562,"address":"서울 양천구 오목로 279","phone":"1522-3232"},{"id":"470408699","brand":"스타벅스","name":"스타벅스 화곡DT점","lat":37.5349902242394,"lng":126.86312483878,"address":"서울 강서구 등촌로 57","phone":"1522-3232"},{"id":"26410048","brand":"스타벅스","name":"스타벅스 원당DT점","lat":37.65819629469093,"lng":126.83763112696639,"address":"경기 고양시 덕양구 호국로 811","phone":"1522-3232"},{"id":"1389133700","brand":"스타벅스","name":"스타벅스 화정호국로점","lat":37.64177535211692,"lng":126.82958149505166,"address":"경기 고양시 덕양구 화수로14번길 72","phone":"1522-3232"},{"id":"18691128","brand":"스타벅스","name":"스타벅스 화정역","lat":37.6334117518072,"lng":126.832895109647,"address":"경기 고양시 덕양구 화신로260번길 57","phone":"1522-3232"},{"id":"7962114","brand":"스타벅스","name":"스타벅스 화정점","lat":37.6334855139605,"lng":126.831544510036,"address":"경기 고양시 덕양구 화신로272번길 57","phone":"1522-3232"},{"id":"1189347946","brand":"스타벅스","name":"스타벅스 일산풍동DT점","lat":37.66216261407584,"lng":126.80073420387093,"address":"경기 고양시 일산동구 백마로 475","phone":"1522-3232"},{"id":"25779640","brand":"스타벅스","name":"스타벅스 일산식사점","lat":37.67813752262363,"lng":126.81205008756177,"address":"경기 고양시 일산동구 위시티2로11번길 31","phone":"1522-3232"},{"id":"883061835","brand":"스타벅스","name":"스타벅스 일산애니골DT점","lat":37.67487674949002,"lng":126.79364390099585,"address":"경기 고양시 일산동구 무궁화로 300","phone":"1522-3232"},{"id":"1346320116","brand":"스타벅스","name":"스타벅스 고양대로DT점","lat":37.6776875891211,"lng":126.79611300141268,"address":"경기 고양시 일산동구 고양대로 910","phone":"1522-3232"},{"id":"709944816","brand":"스타벅스","name":"스타벅스 고양원흥DT점","lat":37.636817441117984,"lng":126.86927607324719,"address":"경기 고양시 덕양구 서오릉로663번길 8","phone":"1522-3232"},{"id":"1604751683","brand":"스타벅스","name":"스타벅스 고양행신점","lat":37.6237696017826,"lng":126.834312265359,"address":"경기 고양시 덕양구 충장로 126","phone":"1522-3232"},{"id":"21906910","brand":"스타벅스","name":"스타벅스 백석역DT점","lat":37.64392139699436,"lng":126.78734469978414,"address":"경기 고양시 일산동구 중앙로 1054","phone":"1522-3232"},{"id":"11651393","brand":"스타벅스","name":"스타벅스 원흥역","lat":37.64937790239711,"lng":126.87666603871861,"address":"경기 고양시 덕양구 원흥5로 25","phone":"1522-3232"},{"id":"27102894","brand":"스타벅스","name":"스타벅스 일산백마점","lat":37.65712501784948,"lng":126.78820006621753,"address":"경기 고양시 일산동구 일산로 237","phone":"1522-3232"},{"id":"1546377884","brand":"스타벅스","name":"스타벅스 동국대일산병원점","lat":37.67666881362967,"lng":126.80640861029144,"address":"경기 고양시 일산동구 동국로 27","phone":"1522-3232"},{"id":"1992271682","brand":"스타벅스","name":"스타벅스 백석중앙로점","lat":37.6412232203009,"lng":126.791023413429,"address":"경기 고양시 일산동구 강송로 33","phone":"1522-3232"},{"id":"24765612","brand":"스타벅스","name":"스타벅스 백석점","lat":37.644054475319045,"lng":126.78619991513628,"address":"경기 고양시 일산동구 중앙로 1059","phone":"1522-3232"},{"id":"17884706","brand":"스타벅스","name":"스타벅스 마두역점","lat":37.65292079134839,"lng":126.77682438898722,"address":"경기 고양시 일산동구 중앙로 1191","phone":"1522-3232"},{"id":"1981782677","brand":"스타벅스","name":"스타벅스 행신역점","lat":37.6140822328742,"lng":126.83434282244,"address":"경기 고양시 덕양구 충장로 14","phone":"1522-3232"},{"id":"25540407","brand":"스타벅스","name":"스타벅스 풍산이마트점","lat":37.67362580548259,"lng":126.7868405530484,"address":"경기 고양시 일산동구 무궁화로 237","phone":"1522-3232"},{"id":"803615593","brand":"스타벅스","name":"스타벅스 일산하늘마을점","lat":37.67752791305583,"lng":126.78238574281254,"address":"경기 고양시 일산동구 중산로 61","phone":"1522-3232"},{"id":"17884705","brand":"스타벅스","name":"스타벅스 일산동구청점","lat":37.65673276923175,"lng":126.77254169644213,"address":"경기 고양시 일산동구 정발산로 38","phone":"1522-3232"},{"id":"1365831809","brand":"스타벅스","name":"스타벅스 고양삼송점","lat":37.663821441452804,"lng":126.8912184982191,"address":"경기 고양시 덕양구 권율대로 904","phone":"1522-3232"},{"id":"17127093","brand":"스타벅스","name":"스타벅스 웨스턴돔B점","lat":37.6543772621704,"lng":126.773299080786,"address":"경기 고양시 일산동구 정발산로 24","phone":"1522-3232"},{"id":"20494136","brand":"스타벅스","name":"스타벅스 라페스타광장점","lat":37.659687787414114,"lng":126.77011646039796,"address":"경기 고양시 일산동구 중앙로1275번길 38-9","phone":"1522-3232"},{"id":"31115819","brand":"스타벅스","name":"스타벅스 일산가로수길점","lat":37.66575068968048,"lng":126.7571826263613,"address":"경기 고양시 일산서구 주엽로 80","phone":"1522-3232"},{"id":"1503320023","brand":"스타벅스","name":"스타벅스 스타필드고양1FR점","lat":37.64699335990735,"lng":126.89571773919188,"address":"경기 고양시 덕양구 고양대로 1955","phone":"1522-3232"},{"id":"608992365","brand":"스타벅스","name":"스타벅스 삼송역점","lat":37.65222670656035,"lng":126.89621469551572,"address":"경기 고양시 덕양구 동송로 70","phone":"1522-3232"},{"id":"26850444","brand":"스타벅스","name":"스타벅스 일산후곡점","lat":37.67755392722043,"lng":126.7676830879144,"address":"경기 고양시 일산서구 일산로 541","phone":"1522-3232"},{"id":"92229853","brand":"스타벅스","name":"스타벅스 주엽강선점","lat":37.66638458095479,"lng":126.76680890822202,"address":"경기 고양시 일산서구 중앙로 1371","phone":"1522-3232"},{"id":"21580663","brand":"스타벅스","name":"스타벅스 일산주엽점","lat":37.669885463090985,"lng":126.7625837251591,"address":"경기 고양시 일산서구 중앙로 1420","phone":"1522-3232"},{"id":"1978989957","brand":"스타벅스","name":"스타벅스 스타필드고양3F점","lat":37.64730329374805,"lng":126.89571277336358,"address":"경기 고양시 덕양구 고양대로 1955","phone":"1522-3232"},{"id":"22547058","brand":"스타벅스","name":"스타벅스 대화역점","lat":37.67549597822204,"lng":126.74830576691276,"address":"경기 고양시 일산서구 중앙로 1559","phone":"1522-3232"},{"id":"1798765518","brand":"스타벅스","name":"스타벅스 소노캄고양점","lat":37.662855381336215,"lng":126.75048483574442,"address":"경기 고양시 일산동구 태극로 18","phone":"1522-3232"},{"id":"3555821","brand":"스타벅스","name":"스타벅스 일산덕이DT점","lat":37.691998708047656,"lng":126.75667982329745,"address":"경기 고양시 일산서구 탄중로 106","phone":"1522-3232"},{"id":"23162842","brand":"스타벅스","name":"스타벅스 일산탄현제니스점","lat":37.69410106461015,"lng":126.7635111131179,"address":"경기 고양시 일산서구 일현로 97-11","phone":"1522-3232"},{"id":"26900385","brand":"스타벅스","name":"스타벅스 구파발역점","lat":37.6343454066031,"lng":126.91871234420786,"address":"서울 은평구 진관2로 12","phone":"1522-3232"},{"id":"27323213","brand":"스타벅스","name":"스타벅스 고양DT점","lat":37.709574470933816,"lng":126.90538880527374,"address":"경기 고양시 덕양구 호국로 1775","phone":"1522-3232"},{"id":"937347854","brand":"스타벅스","name":"스타벅스 파주야당역점","lat":37.71232432546302,"lng":126.75959042099474,"address":"경기 파주시 경의로 1066","phone":"1522-3232"},{"id":"953994037","brand":"스타벅스","name":"스타벅스 지축역점","lat":37.649585153884324,"lng":126.91432740410036,"address":"경기 고양시 덕양구 지축로 56","phone":"1522-3232"},{"id":"601490805","brand":"스타벅스","name":"스타벅스 파주야당DT점","lat":37.703485984216,"lng":126.759687008546,"address":"경기 파주시 경의로 966","phone":"1522-3232"},{"id":"1912247150","brand":"스타벅스","name":"스타벅스 일산가구단지점","lat":37.69959124037346,"lng":126.75669129515086,"address":"경기 고양시 일산서구 하이파크2로 67","phone":"1522-3232"},{"id":"1575441001","brand":"스타벅스","name":"스타벅스 문촌사거리","lat":37.67260758554739,"lng":126.7565277875041,"address":"경기 고양시 일산서구 중앙로 1470","phone":"1522-3232"},{"id":"434226954","brand":"스타벅스","name":"스타벅스 일산탄현동점","lat":37.69510787690874,"lng":126.7646236243031,"address":"경기 고양시 일산서구 일현로 91","phone":"1522-3232"},{"id":"411618972","brand":"스타벅스","name":"스타벅스 고양향동점","lat":37.59880312251307,"lng":126.89264718303976,"address":"경기 고양시 덕양구 꽃마을로 4","phone":"1522-3232"},{"id":"2033127025","brand":"스타벅스","name":"스타벅스 김포현대아울렛3층점","lat":37.598570727137954,"lng":126.78560653686992,"address":"경기 김포시 고촌읍 아라육로152번길 100","phone":"1522-3232"},{"id":"138660504","brand":"스타벅스","name":"스타벅스 의정부예술의전당DT점","lat":37.7330376406441,"lng":127.038766914673,"address":"경기 의정부시 경의로 31","phone":"1522-3232"},{"id":"20056781","brand":"스타벅스","name":"스타벅스 신세계의정부2F점","lat":37.73784077437999,"lng":127.04610172080818,"address":"경기 의정부시 평화로 525","phone":"1522-3232"},{"id":"924518920","brand":"스타벅스","name":"스타벅스 의정부공원점","lat":37.7400880937556,"lng":127.047609781801,"address":"경기 의정부시 평화로 540","phone":"1522-3232"},{"id":"17646295","brand":"스타벅스","name":"스타벅스 신세계의정부6F점","lat":37.73750466968457,"lng":127.04621155880726,"address":"경기 의정부시 평화로 525","phone":"1522-3232"},{"id":"280831036","brand":"스타벅스","name":"스타벅스 의정부회룡역DT점","lat":37.722360588769,"lng":127.047625655486,"address":"경기 의정부시 평화로 341","phone":"1522-3232"},{"id":"27311408","brand":"스타벅스","name":"스타벅스 의정부녹양DT점","lat":37.7585606786562,"lng":127.040249822873,"address":"경기 의정부시 비우로 119","phone":"1522-3232"},{"id":"939788387","brand":"스타벅스","name":"스타벅스 의정부신곡DT점","lat":37.726853189848256,"lng":127.06400041332583,"address":"경기 의정부시 회룡로 269","phone":"1522-3232"},{"id":"20705170","brand":"스타벅스","name":"스타벅스 의정부금오점","lat":37.7530073467766,"lng":127.070458021137,"address":"경기 의정부시 청사로48번길 7","phone":"1522-3232"},{"id":"1119245395","brand":"스타벅스","name":"스타벅스 의정부용현DT점","lat":37.730373178125106,"lng":127.08423075525084,"address":"경기 의정부시 시민로 468","phone":"1522-3232"},{"id":"543072094","brand":"스타벅스","name":"스타벅스 의정부장암 DT점","lat":37.69920341713283,"lng":127.054650183272,"address":"경기 의정부시 동일로 114","phone":"1522-3232"},{"id":"795567753","brand":"스타벅스","name":"스타벅스 의정부민락점","lat":37.74542639500736,"lng":127.09400327394582,"address":"경기 의정부시 천보로 68","phone":"1522-3232"},{"id":"1755565714","brand":"스타벅스","name":"스타벅스 양주송추DT점","lat":37.717591992701706,"lng":126.97313090691685,"address":"경기 양주시 장흥면 호국로 528","phone":"1522-3232"},{"id":"1331975973","brand":"스타벅스","name":"스타벅스 가나아트파크점","lat":37.7263806764519,"lng":126.950080424776,"address":"경기 양주시 장흥면 권율로 117","phone":"1522-3232"},{"id":"1635366729","brand":"스타벅스","name":"스타벅스 의정부민락타운점","lat":37.74428738389668,"lng":127.0986423572564,"address":"경기 의���부시 오목로 196","phone":"1522-3232"},{"id":"653981072","brand":"스타벅스","name":"스타벅스 양주광사DT점","lat":37.7907525974491,"lng":127.072859838824,"address":"경기 양주시 부흥로 1872","phone":"1522-3232"},{"id":"2041081282","brand":"스타벅스","name":"스타벅스 의정부이마트점","lat":37.74318503055671,"lng":127.10236233491335,"address":"경기 의정부시 민락로 210","phone":"1522-3232"},{"id":"1634729029","brand":"스타벅스","name":"스타벅스 양주고읍DT점","lat":37.80349527612967,"lng":127.07936064632241,"address":"경기 양주시 고덕로 351","phone":"1522-3232"},{"id":"102571323","brand":"스타벅스","name":"스타벅스 양주덕계역점","lat":37.8189822642022,"lng":127.05295184563,"address":"경기 양주시 회천중앙로 236","phone":"1522-3232"},{"id":"343581361","brand":"스타벅스","name":"스타벅스 양주광적DT점","lat":37.81604375635278,"lng":126.9873914568564,"address":"경기 양주시 광적면 부흥로 850","phone":"1522-3232"},{"id":"1686440309","brand":"스타벅스","name":"스타벅스 양주옥정타운점","lat":37.81850516901663,"lng":127.09413902994132,"address":"경기 양주시 회천남로 76","phone":"1522-3232"},{"id":"577211188","brand":"스타벅스","name":"스타벅스 포천호국로DT점","lat":37.796095111280195,"lng":127.12728112599368,"address":"경기 포천시 소흘읍 호국로 246","phone":"1522-3232"},{"id":"1030632636","brand":"스타벅스","name":"스타벅스 별내별가람역점","lat":37.66799413052841,"lng":127.1169936960582,"address":"경기 남양주시 덕송2로 62","phone":"1522-3232"},{"id":"926917951","brand":"스타벅스","name":"스타벅스 양주옥정공원","lat":37.821183719346855,"lng":127.09745549779842,"address":"경기 양주시 옥정동로7길 30","phone":"1522-3232"},{"id":"1276632356","brand":"스타벅스","name":"스타벅스 양주덕정역DT점","lat":37.8382568785227,"lng":127.062982090272,"address":"경기 양주시 독바위로 35","phone":"1522-3232"},{"id":"1211916846","brand":"스타벅스","name":"스타벅스 야탑터미널점","lat":37.41357906314026,"lng":127.12816389440363,"address":"경기 성남시 분당구 성남대로925번길 16","phone":"1522-3232"},{"id":"14577391","brand":"스타벅스","name":"스타벅스 야탑글라스점","lat":37.41076525847893,"lng":127.12974499242067,"address":"경기 성남시 분당구 성남대로916번길 11","phone":"1522-3232"},{"id":"10537599","brand":"스타벅스","name":"스타벅스 뉴코아야탑점","lat":37.4106508027876,"lng":127.127282373996,"address":"경기 성남시 분당구 야탑로81번길 11","phone":"1522-3232"},{"id":"535478953","brand":"스타벅스","name":"스타벅스 성남모란DT점","lat":37.4292121881325,"lng":127.133438599909,"address":"경기 성남시 중원구 둔촌대로 131","phone":"1522-3232"},{"id":"290273528","brand":"스타벅스","name":"스타벅스 야탑역사거리","lat":37.40964831523931,"lng":127.13027281843688,"address":"경기 성남시 분당구 야탑로 102","phone":"1522-3232"},{"id":"763314180","brand":"스타벅스","name":"스타벅스 성남모란삼성점","lat":37.4336819084901,"lng":127.127932637411,"address":"경기 성남시 수정구 산성대로 81","phone":"1522-3232"},{"id":"27076123","brand":"스타벅스","name":"스타벅스 판교역로점","lat":37.3972849404131,"lng":127.111335926617,"address":"경기 성남시 분당구 판교역로192번길 14","phone":"1522-3232"},{"id":"1841364911","brand":"스타벅스","name":"스타벅��� 판교아비뉴프랑R점","lat":37.39717750723127,"lng":127.11345442618766,"address":"경기 성남시 분당구 동판교로177번길 25","phone":"1522-3232"},{"id":"17127061","brand":"스타벅스","name":"스타벅스 판교H스퀘어점","lat":37.401249861157744,"lng":127.10894179597794,"address":"경기 성남시 분당구 판교역로 231","phone":"1522-3232"},{"id":"382618195","brand":"스타벅스","name":"스타벅스 판교알파돔타워","lat":37.394187858912524,"lng":127.11066392696905,"address":"경기 성남시 분당구 판교역로 152","phone":"1522-3232"},{"id":"18691204","brand":"스타벅스","name":"스타벅스 ��교HIPEX점","lat":37.4011815312991,"lng":127.110722775033,"address":"경기 성남시 분당구 판교역로 230","phone":"1522-3232"},{"id":"2071896518","brand":"스타벅스","name":"스타벅스 분당이매점","lat":37.3949313590773,"lng":127.122390699039,"address":"경기 성남시 분당구 이매로 15","phone":"1522-3232"},{"id":"26226436","brand":"스타벅스","name":"스타벅스 단대오거리역점","lat":37.4434116680935,"lng":127.154571886062,"address":"경기 성남시 중원구 산성대로 340-1","phone":""},{"id":"27528340","brand":"스타벅스","name":"스타벅스 판교알파돔시티점","lat":37.39446839193246,"lng":127.10935660043998,"address":"경기 성남시 분당구 판교역로 145","phone":"1522-3232"},{"id":"473247983","brand":"스타벅스","name":"스타벅스 수진역점","lat":37.438770749138996,"lng":127.14220721335667,"address":"경기 성남시 수정구 산성대로 223","phone":"1522-3232"},{"id":"1618305207","brand":"스타벅스","name":"스타벅스 성남태평점","lat":37.4425616358207,"lng":127.136589096426,"address":"경기 성남시 수정구 수정로 149","phone":"1522-3232"},{"id":"26805900","brand":"스타벅스","name":"스타벅스 판교브릿지타워점","lat":37.4033506803468,"lng":127.099110789357,"address":"경기 성남시 분당구 판교로227번길 6","phone":"1522-3232"},{"id":"1645929273","brand":"스타벅스","name":"스타벅스 판교유스페이스점","lat":37.40123675049536,"lng":127.10751533238165,"address":"경기 성남시 분당구 대왕판교로 660","phone":"1522-3232"},{"id":"1568636195","brand":"스타벅스","name":"스타벅스 판교아이스퀘어","lat":37.41339770190698,"lng":127.09833105165549,"address":"경기 성남시 수정구 창업로 18","phone":"1522-3232"},{"id":"955667253","brand":"스타벅스","name":"스타벅스 신흥역점","lat":37.441117203386774,"lng":127.146460485751,"address":"경기 성남시 수정구 산성대로 267","phone":"1522-3232"},{"id":"1030880273","brand":"스타벅스","name":"스타벅스 판교역힐스테이트점","lat":37.392433352531754,"lng":127.1108951081938,"address":"경기 성남시 분당구 판교역로 136","phone":"1522-3232"},{"id":"1346447965","brand":"스타벅스","name":"스타벅스 가천대학교점","lat":37.44944690063611,"lng":127.12715143394578,"address":"경기 성남시 수정구 성남대로 1342","phone":"1522-3232"},{"id":"24868735","brand":"스타벅스","name":"스타벅스 서현점","lat":37.38596700414746,"lng":127.1259036866122,"address":"경기 성남시 분당구 황새울로360번길 19","phone":"1522-3232"},{"id":"7977696","brand":"스타벅스","name":"스타벅스 서현미래에셋","lat":37.38799607867603,"lng":127.12336635483034,"address":"경기 성남시 분당구 황새울로359번길 11","phone":"1522-3232"},{"id":"17127082","brand":"스타벅스","name":"스타벅스 서현역","lat":37.3860022990184,"lng":127.124051888619,"address":"경기 성남시 분당구 서현로210번길 20","phone":"1522-3232"},{"id":"24765607","brand":"스타벅스","name":"스타벅스 분당구청점","lat":37.38403221607528,"lng":127.12012032465516,"address":"경기 성남시 분당구 분당로 43","phone":"1522-3232"},{"id":"380246571","brand":"스타벅스","name":"스타벅스 판교제2테크노밸리점","lat":37.411085101090045,"lng":127.09463211571186,"address":"경기 성남시 수정구 창업로 54","phone":"1522-3232"},{"id":"27418236","brand":"스타벅스","name":"스타벅스 성남이마트","lat":37.4441483680874,"lng":127.141903235444,"address":"경기 성남시 수정구 수정로 201","phone":"1522-3232"},{"id":"1371981034","brand":"스타벅스","name":"스타벅스 판교위든타워점","lat":37.40726087701378,"lng":127.0904052330597,"address":"경기 성남시 수정구 금토로80번길 56","phone":"1522-3232"},{"id":"902317950","brand":"스타벅스","name":"스타벅스 분당서현역 AK R점","lat":37.384577768241236,"lng":127.12320267195688,"address":"경기 성남시 분당구 황새울로360번길 42","phone":"1522-3232"},{"id":"1192359332","brand":"스타벅스","name":"스타벅스 분당이매촌점","lat":37.3916123085327,"lng":127.125529177269,"address":"경기 성남시 분당구 양현로94번길 9","phone":"1522-3232"},{"id":"1388383367","brand":"스타벅스","name":"스타벅스 남한산성입구역점","lat":37.44968974401039,"lng":127.15945908497808,"address":"경기 성남시 중���구 산성대로426번길 2","phone":"1522-3232"},{"id":"701856701","brand":"스타벅스","name":"스타벅스 분당율동공원점","lat":37.3839539519233,"lng":127.149991870043,"address":"경기 성남시 분당구 새마을로175번길 4","phone":"1522-3232"},{"id":"23162833","brand":"스타벅스","name":"스타벅스 수내로점","lat":37.38043071963941,"lng":127.11662453934295,"address":"경기 성남시 분당구 수내로46번길 12","phone":"1522-3232"},{"id":"284597819","brand":"스타벅스","name":"스타벅스 판교놀유니버스점","lat":37.405432723950206,"lng":127.08677516925539,"address":"경기 성남시 수정구 금토로 70","phone":"1522-3232"},{"id":"7977697","brand":"스타벅스","name":"스타벅스 수내점","lat":37.3797013054835,"lng":127.114353945499,"address":"경기 성남시 분당구 황새울로 234","phone":"1522-3232"},{"id":"12108456","brand":"스타벅스","name":"스타벅스 수내역점","lat":37.37764574402336,"lng":127.11375694114643,"address":"경기 성남시 분당구 백현로101번길 30","phone":"1522-3232"},{"id":"1188651741","brand":"스타벅스","name":"스타벅스 판교도서관점","lat":37.3896346606842,"lng":127.090974653383,"address":"경기 성남시 분당구 운중로 251","phone":""},{"id":"1976041479","brand":"스타벅스","name":"스타벅스 수내역1번출구점","lat":37.3784573711446,"lng":127.11581532905,"address":"경기 성남시 분당구 황새울로258번길 41","phone":"1522-3232"},{"id":"26911884","brand":"스타벅스","name":"스타벅스 서판교점","lat":37.391328175683014,"lng":127.07764464012493,"address":"경기 성남시 분당구 운중로 132","phone":"1522-3232"},{"id":"870095187","brand":"스타벅스","name":"스타벅스 남위례역점","lat":37.4645202760771,"lng":127.141135781486,"address":"경기 성남시 수정구 위례광장로 9-9","phone":"1522-3232"},{"id":"916566284","brand":"스타벅스","name":"스타벅스 강남세곡DT점","lat":37.4669942593366,"lng":127.118331259676,"address":"서울 강남구 헌릉로 727","phone":"1522-3232"},{"id":"833211918","brand":"스타벅스","name":"스타벅스 HD현대R&D센터점","lat":37.376713300604266,"lng":127.10485642383809,"address":"경기 성남시 분당구 분당수서로 477","phone":"1522-3232"},{"id":"523837124","brand":"스타벅스","name":"스타벅스 강남세곡점","lat":37.4672752513511,"lng":127.099927618834,"address":"서울 강남구 헌릉로569길 18","phone":"1522-3232"},{"id":"1530967475","brand":"스타벅스","name":"스타벅스 분당궁내DT점","lat":37.3706040193733,"lng":127.10214634181054,"address":"경기 성남시 분당구 대왕판교로 302","phone":"1522-3232"},{"id":"18691196","brand":"스타벅스","name":"스타벅스 수원인계점","lat":37.26541537517898,"lng":127.03301979827165,"address":"경기 수원시 팔달구 권광로 199","phone":"1522-3232"},{"id":"1222115778","brand":"스타벅스","name":"스타벅스 수원인계DT점","lat":37.2679459077179,"lng":127.027937382119,"address":"경기 수원시 팔달구 인계로94번길 3","phone":"1522-3232"},{"id":"819457251","brand":"스타벅스","name":"스타벅스 수원나혜석거리점","lat":37.2642572116872,"lng":127.03416356456,"address":"경기 수원시 팔달구 권광로188번길 17","phone":"1522-3232"},{"id":"26571727","brand":"스타벅스","name":"스타벅스 수원이비스점","lat":37.2591004806763,"lng":127.031131094289,"address":"경기 수원시 팔달구 권광로 132","phone":"1522-3232"},{"id":"78127237","brand":"스타벅스","name":"스타벅스 수원경인일보점","lat":37.26133050685681,"lng":127.03457484096123,"address":"경기 수원시 팔달구 효원로 299","phone":"1522-3232"},{"id":"672798623","brand":"스타벅스","name":"스타벅스 수원경수인계DT점","lat":37.2704436850161,"lng":127.027550460867,"address":"경기 수원시 팔달구 경수대로 499","phone":"1522-3232"},{"id":"1750771671","brand":"스타벅스","name":"스타벅스 수원KBS DT점","lat":37.2711228409408,"lng":127.035212952891,"address":"경기 수원시 팔달구 권광로 265","phone":"1522-3232"},{"id":"934570533","brand":"스타벅스","name":"스타벅스 수원세류DT점","lat":37.262756867009266,"lng":127.01123618987968,"address":"경기 수원시 권선구 권선로544번길 1","phone":"1522-3232"},{"id":"27075991","brand":"스타벅스","name":"스타벅스 동수원DT점","lat":37.2780468184418,"lng":127.033903689854,"address":"경기 수원시 팔달구 중부대로 161","phone":"1522-3232"},{"id":"7977700","brand":"스타벅스","name":"스타벅스 수원이마트점","lat":37.2501751299812,"lng":127.021231029963,"address":"경기 수원시 권선구 경수대로 270","phone":"1522-3232"},{"id":"579573527","brand":"스타벅스","name":"스타벅스 수원매탄점","lat":37.25822264330194,"lng":127.04569959072913,"address":"경기 수원시 영통구 효원로 400","phone":"1522-3232"},{"id":"1964478086","brand":"스타벅스","name":"스타벅스 수원성빈센트병원점","lat":37.27791591509674,"lng":127.02797489333796,"address":"경기 수원시 팔달구 중부대로 93","phone":"1522-3232"},{"id":"1954959542","brand":"스타벅스","name":"스타벅스 수원권선점","lat":37.24669405708259,"lng":127.03094452698552,"address":"경기 수원시 권선구 동수원로177번길 40","phone":"1522-3232"},{"id":"11316780","brand":"스타벅스","name":"스타벅스 수원매산점","lat":37.267327455387054,"lng":127.0026606813271,"address":"경기 수원시 팔달구 매산로 11","phone":"1522-3232"},{"id":"17884713","brand":"스타벅스","name":"스타벅스 아주대점","lat":37.2797412822597,"lng":127.043385246771,"address":"경기 수원시 팔달구 월드컵로 205","phone":"1522-3232"},{"id":"1110332114","brand":"스타벅스","name":"스타벅스 수원화성행궁점","lat":37.2833487495723,"lng":127.015667517501,"address":"경기 수원시 팔달구 정조로841번길 10","phone":"1522-3232"},{"id":"722895269","brand":"스타벅스","name":"스타벅스 광교SK뷰레이크41F점","lat":37.28693673022635,"lng":127.0603995998129,"address":"경기 수원시 ��통구 법조로 25","phone":"1522-3232"},{"id":"27330903","brand":"스타벅스","name":"스타벅스 수원망포DT점","lat":37.24584900946288,"lng":127.05131628298685,"address":"경기 수원시 영통구 덕영대로 1467","phone":"1522-3232"},{"id":"1765849305","brand":"스타벅스","name":"스타벅스 수원역AK R점","lat":37.26681389144865,"lng":127.00012401396545,"address":"경기 수원시 팔달구 덕영대로 924","phone":"1522-3232"},{"id":"27122533","brand":"스타벅스","name":"스타벅스 수원광교점","lat":37.290239487654574,"lng":127.04974501198542,"address":"경기 수원시 영통구 센트럴타운로 85","phone":"1522-3232"},{"id":"50582480","brand":"스타벅스","name":"스타벅스 수원세류역DT점","lat":37.2437531315097,"lng":127.01723832282735,"address":"경기 수원시 권선구 경수대로 185","phone":"1522-3232"},{"id":"19616332","brand":"스타벅스","name":"스타벅스 수원망포역점","lat":37.24512588065808,"lng":127.05635945955078,"address":"경기 수원시 영통구 영통로 195","phone":"1522-3232"},{"id":"368339258","brand":"스타벅스","name":"스타벅스 타임빌라스수원점","lat":37.26484510456657,"lng":126.99843070049194,"address":"경기 수원시 권선구 세화로 134","phone":"1522-3232"},{"id":"1860071573","brand":"스타벅스","name":"스타벅스 수원연무DT점","lat":37.29219630320133,"lng":127.02871774700247,"address":"경기 수원시 장안구 창룡대로 171","phone":"1522-3232"},{"id":"612191651","brand":"스타벅스","name":"스타벅스 영통R점","lat":37.245532946333995,"lng":127.06217325386953,"address":"경기 수원시 영통구 덕영대로 1566","phone":"1522-3232"},{"id":"475924484","brand":"스타벅스","name":"스타벅스 광교엘포트R점","lat":37.286837089726056,"lng":127.05784528379459,"address":"경기 수원시 영통구 광교중앙로 145","phone":"1522-3232"},{"id":"25738846","brand":"스타벅스","name":"스타벅스 수원트레이더스점","lat":37.24624684957051,"lng":127.04802544086212,"address":"경기 수원시 영통구 삼성로 2","phone":"1522-3232"},{"id":"33785018","brand":"스타벅스","name":"스타벅스 광교더샵레이크시티점","lat":37.27092267477717,"lng":127.06015567580427,"address":"경기 수원시 영통구 광교호수공원로 20","phone":"1522-3232"},{"id":"1140931343","brand":"스타벅스","name":"스타벅스 수원정자사거리DT점","lat":37.2911752386571,"lng":127.004018219876,"address":"경기 수원시 장안구 수성로 291","phone":"1522-3232"},{"id":"1371862551","brand":"스타벅스","name":"스타벅스 수원역AK B1점","lat":37.266286779929594,"lng":127.00071025685139,"address":"경기 수원시 팔달구 덕영대로 924","phone":"1522-3232"},{"id":"812118501","brand":"스타벅스","name":"스타벅스 수원조원DT점","lat":37.295237035293,"lng":127.015770359013,"address":"경기 수원시 장안구 경수대로 831","phone":"1522-3232"},{"id":"17884712","brand":"스타벅스","name":"스타벅스 수원영통점","lat":37.25557236776529,"lng":127.07466785143063,"address":"경기 수원시 영통구 봉영로 1617","phone":"1522-3232"},{"id":"1331604292","brand":"스타벅스","name":"스타벅스 용인흥덕DT점","lat":37.27485103494691,"lng":127.07179141833862,"address":"경기 용인시 기흥구 흥덕1로 85","phone":"1522-3232"},{"id":"23066708","brand":"스타벅스","name":"스타벅스 수원IC DT점","lat":37.267130828859194,"lng":127.07484273607177,"address":"경기 용인시 기흥구 중부대로 56","phone":"1522-3232"},{"id":"1145732557","brand":"스타벅스","name":"스타벅스 광교역점","lat":37.300552298374264,"lng":127.04409198610877,"address":"경기 수원시 영통구 대학로 47","phone":"1522-3232"},{"id":"1745021441","brand":"스타벅스","name":"스타벅스 광교갤러리아9F점","lat":37.28537840272027,"lng":127.05765133458526,"address":"경기 수원시 영통구 광교중앙로 124","phone":"1522-3232"},{"id":"1626776480","brand":"스타벅스","name":"스타벅스 광교갤러리아6F점","lat":37.28520034694682,"lng":127.05692835986953,"address":"경기 수원시 영통구 광교중앙로 124","phone":"1522-3232"},{"id":"27332484","brand":"스타벅스","name":"스타벅스 신영통DT","lat":37.2343703797542,"lng":127.06295405453,"address":"경기 화성시 병점구 영통로 43","phone":"1522-3232"},{"id":"169268816","brand":"스타벅스","name":"스타벅스 흥덕IT밸리점","lat":37.27065355835529,"lng":127.06793829560044,"address":"경기 용인시 기흥구 흥덕1로 13","phone":"1522-3232"},{"id":"27075929","brand":"스타벅스","name":"스타벅스 광교이마트점","lat":37.2962002456093,"lng":127.046561666723,"address":"경기 수원시 영통구 광교로 191","phone":"1522-3232"},{"id":"92001912","brand":"스타벅스","name":"스타벅스 스타필드수원1F점","lat":37.287103213020174,"lng":126.99155012657687,"address":"경기 수원시 장안구 수성로 175","phone":"1522-3232"},{"id":"105675674","brand":"스타벅스","name":"스타벅스 수원청명점","lat":37.25460591496847,"lng":127.07828526568608,"address":"경기 수원시 영통구 청명로 88","phone":"1522-3232"},{"id":"1765846179","brand":"스타벅스","name":"스타벅스 수원종합운동장점","lat":37.301305334961356,"lng":127.00888796488879,"address":"경기 수원시 장안구 송원로 71","phone":"1522-3232"},{"id":"907398348","brand":"스타벅스","name":"스타벅스 수원고색동DT점","lat":37.23927745325089,"lng":126.98870756573262,"address":"경기 수원시 권선구 서부로1390번길 150","phone":"1522-3232"},{"id":"2024170806","brand":"스타벅스","name":"스타벅스 스타필드수원6F점","lat":37.28757446277371,"lng":126.99164254604777,"address":"경기 수원시 장안구 수성로 175","phone":"1522-3232"},{"id":"935742945","brand":"스타벅스","name":"스타벅스 용인시청DT점","lat":37.24036639052467,"lng":127.17103205661986,"address":"경기 용인시 처인구 중부대로 1130","phone":"1522-3232"},{"id":"810882833","brand":"스타벅스","name":"스타벅스 용인역북점","lat":37.23210664921862,"lng":127.18873585859438,"address":"경기 용인시 처인구 명지로 41","phone":"1522-3232"},{"id":"20494148","brand":"스타벅스","name":"스타벅스 용인처인구청점","lat":37.23477709435159,"lng":127.2030521541128,"address":"경기 용인시 처인구 금령로 60","phone":"1522-3232"},{"id":"309052056","brand":"스타벅스","name":"스타벅스 용인김량장DT점","lat":37.239581866060696,"lng":127.21056179249594,"address":"경기 용인시 처인구 백옥대로 1174","phone":"1522-3232"},{"id":"1427362570","brand":"스타벅스","name":"스타벅스 용인IC DT점","lat":37.251395378025926,"lng":127.21211408493942,"address":"경기 용인시 처인구 백옥대로 1305","phone":"1522-3232"},{"id":"228686155","brand":"스타벅스","name":"스타벅스 용인고림DT점","lat":37.2439527695533,"lng":127.218063245273,"address":"경기 용인시 처인구 고림로 124","phone":"1522-3232"},{"id":"904617539","brand":"스타벅스","name":"스타벅스 용인마평DT점","lat":37.233635419486035,"lng":127.21680520232138,"address":"경기 용인시 처인구 금령로 188","phone":"1522-3232"},{"id":"107110784","brand":"스타벅스","name":"스타벅스 용인남동DT점","lat":37.22106467195292,"lng":127.20892501857732,"address":"경기 용인시 처인구 백옥대로 953","phone":"1522-3232"},{"id":"711936960","brand":"스타벅스","name":"스타벅스 용인상하DT점","lat":37.25968490936397,"lng":127.14231850085628,"address":"경기 용인시 기흥구 중부대로 771","phone":"1522-3232"},{"id":"1418091758","brand":"스타벅스","name":"스타벅스 용인세브란스병원점","lat":37.27070002054361,"lng":127.14828769224337,"address":"경기 용인시 기흥구 동백죽전대로 363","phone":"1522-3232"},{"id":"1484170141","brand":"스타벅스","name":"스타벅스 용인동백DT점","lat":37.2745939484353,"lng":127.141219047156,"address":"경기 용인시 기흥구 어정로 102","phone":"1522-3232"},{"id":"251255295","brand":"스타벅스","name":"스타벅스 동백이마트점","lat":37.2781449439401,"lng":127.151425657885,"address":"경기 용인시 기흥구 동백죽전대로 444","phone":"1522-3232"},{"id":"1762719124","brand":"스타벅스","name":"스타벅스 한국민속촌DT점","lat":37.2558824611399,"lng":127.11684032312,"address":"경기 용인시 기흥구 사은로 110","phone":"1522-3232"},{"id":"12411718","brand":"스타벅스","name":"스타벅스 강남대점","lat":37.271053746546826,"lng":127.12606723683733,"address":"경기 용인시 기흥구 강남로 3","phone":"1522-3232"},{"id":"1178112723","brand":"스타벅스","name":"스타벅스 기흥역AK R점","lat":37.27478924661493,"lng":127.11660457007785,"address":"경기 용인시 기흥구 기흥역로 63","phone":"1522-3232"},{"id":"684910451","brand":"스타벅스","name":"스타벅스 용인에버랜드점","lat":37.29497808120678,"lng":127.20318791045796,"address":"경기 용인시 처인구 포곡읍 에버랜드로 199","phone":"1522-3232"},{"id":"228365075","brand":"스타벅스","name":"스타벅스 용인보라DT점","lat":37.255584149020684,"lng":127.10437256651484,"address":"경기 용인시 기흥구 용구대로 1877","phone":"1522-3232"},{"id":"1037634506","brand":"스타벅스","name":"스타벅스 용인고매동점","lat":37.22352679596078,"lng":127.11409519585628,"address":"경기 용인시 기흥구 신고매로 59","phone":"1522-3232"},{"id":"1805944757","brand":"스타벅스","name":"스타벅스 동탄영천점","lat":37.20670228002586,"lng":127.11138765593685,"address":"경기 화성시 동탄구 동탄순환대로 692","phone":"1522-3232"},{"id":"1051821915","brand":"스타벅스","name":"스타벅스 용인신갈DT점","lat":37.272756248313655,"lng":127.11028524856064,"address":"경기 용인시 기흥구 중부대로 395","phone":"1522-3232"},{"id":"863202327","brand":"스타벅스","name":"스타벅스 동탄카림점","lat":37.19920676351672,"lng":127.11294570700726,"address":"경기 화성시 동탄구 동탄대로시범길 134","phone":"1522-3232"},{"id":"1780125868","brand":"스타벅스","name":"스타벅스 용인언남점","lat":37.292589187787044,"lng":127.12204426932492,"address":"경기 용인시 기흥구 구성로 120","phone":"1522-3232"},{"id":"27094955","brand":"스타벅스","name":"스타벅스 용인마북DT","lat":37.2946586287409,"lng":127.110358943311,"address":"경기 용인시 기흥구 용구대로 2330","phone":"1522-3232"},{"id":"591479693","brand":"스타벅스","name":"스타벅스 동탄목동점","lat":37.1825003110811,"lng":127.124659759197,"address":"경기 화성시 동탄구 동탄순환대로20길 124","phone":"1522-3232"},{"id":"24765613","brand":"스타벅스","name":"스타벅스 용인기흥구청점","lat":37.2809407757832,"lng":127.110839569792,"address":"경기 용인시 기흥구 구갈로 71-18","phone":"1522-3232"},{"id":"2054138246","brand":"스타벅스","name":"스타벅스 동탄디엠시티점","lat":37.20966378505402,"lng":127.09951931551691,"address":"경기 화성시 동탄구 동탄대로 636-14","phone":"1522-3232"},{"id":"255871132","brand":"스타벅스","name":"스타벅스 동탄역점","lat":37.19777985375066,"lng":127.09840437454294,"address":"경기 화성시 동탄구 동탄대로 495","phone":"1522-3232"},{"id":"739050869","brand":"스타벅스","name":"스타벅스 용인하갈DT점","lat":37.2492975485482,"lng":127.087735337188,"address":"경기 용인시 기흥구 덕영대로 1800","phone":"1522-3232"},{"id":"1010065699","brand":"스타벅스","name":"스타벅스 동탄역롯데R점","lat":37.199756390798534,"lng":127.09666552392449,"address":"경기 화성시 동탄구 동탄역로 150","phone":"1522-3232"},{"id":"1808706453","brand":"스타벅스","name":"스타벅스 삼성디스플레이SDR점","lat":37.22541743709861,"lng":127.08731667271897,"address":"경기 용인시 기흥구 삼성로 1","phone":"1522-3232"},{"id":"92885198","brand":"스타벅스","name":"스타벅스 동탄여울공원점","lat":37.2012556462275,"lng":127.089920158889,"address":"경기 화성시 동탄구 동탄기흥로 447-30","phone":"1522-3232"},{"id":"24208247","brand":"스타벅스","name":"스타벅스 경희대국제캠퍼스점","lat":37.2479319825167,"lng":127.07675675167,"address":"경기 수원시 영통구 덕영대로 1695","phone":"1522-3232"},{"id":"870740958","brand":"스타벅스","name":"스타벅스 동탄IX타워점","lat":37.211111027368375,"lng":127.08913987370683,"address":"경기 화성시 동탄구 동탄첨단산업1로 27","phone":"1522-3232"},{"id":"430924943","brand":"스타벅스","name":"스타벅스 동탄신리천공원점","lat":37.1838157163755,"lng":127.10730660369283,"address":"경기 화성시 동탄구 동탄신리천로 264","phone":"1522-3232"},{"id":"35498836","brand":"스타벅스","name":"스타벅스 동탄트레이더스점","lat":37.19385889955374,"lng":127.0978913182743,"address":"경기 화성시 동탄구 동탄대로 451","phone":"1522-3232"},{"id":"1929998802","brand":"스타벅스","name":"스타벅스 스타필드마켓동탄점","lat":37.2141698131409,"lng":127.079398247641,"address":"경기 화성시 동탄구 동탄중앙로 376","phone":"1522-3232"},{"id":"2057033812","brand":"스타벅스","name":"스타벅스 기흥테라타워점","lat":37.23074181707339,"lng":127.07100359491382,"address":"경기 용인시 기흥구 서천로201번길 11","phone":"1522-3232"},{"id":"12707129","brand":"스타벅스","name":"스타벅스 구성트레이더스점","lat":37.3054322754154,"lng":127.105465736629,"address":"경기 용인시 기흥구 용구대로 2457","phone":"1522-3232"},{"id":"2061408071","brand":"스타벅스","name":"스타벅스 용인한숲시티점","lat":37.15249325964589,"lng":127.17344106034666,"address":"경기 용인시 처인구 남사읍 처인성로 729","phone":"1522-3232"},{"id":"2049392697","brand":"스타벅스","name":"스타벅스 동탄호수공원점","lat":37.172138138097736,"lng":127.10620350698554,"address":"경기 화성시 동탄구 동탄대로 181","phone":"1522-3232"},{"id":"604046109","brand":"스타벅스","name":"스타벅스 화성시청점","lat":37.2008881822183,"lng":126.826076556263,"address":"경기 화성시 만세구 남양읍 시청로 113","phone":"1522-3232"},{"id":"2081755159","brand":"스타벅스","name":"스타벅스 화성남양DT점","lat":37.20710762297728,"lng":126.8191184802561,"address":"경기 화성시 만세구 남양읍 시청로32번길 6","phone":"1522-3232"},{"id":"1137220769","brand":"스타벅스","name":"스타벅스 남양화성로DT점","lat":37.2110307557781,"lng":126.813288141009,"address":"경기 화성시 만세구 남양읍 화성로 1166","phone":"1522-3232"},{"id":"599926483","brand":"스타벅스","name":"스타벅스 송산마도IC DT점","lat":37.207190305596725,"lng":126.7776942489476,"address":"경기 화성시 만세구 마도면 화성로 811","phone":"1522-3232"},{"id":"650615777","brand":"스타벅스","name":"스타벅스 송산그린시티점","lat":37.28463225704907,"lng":126.81835573255157,"address":"경기 화성시 만세구 수노을중앙로 136","phone":"1522-3232"},{"id":"894438057","brand":"스타벅스","name":"스타벅스 화성향남DT점","lat":37.1319697292143,"lng":126.909998706496,"address":"경기 화성시 만세구 향남읍 삼천병마로 213","phone":"1522-3232"},{"id":"724107447","brand":"스타벅스","name":"스타벅스 화성봉담2지구점","lat":37.2234602139918,"lng":126.947560868092,"address":"경기 화성시 효행구 봉담읍 상리2길 41","phone":"1522-3232"},{"id":"1966065233","brand":"스타벅스","name":"스타벅스 화성향남점","lat":37.131617429848475,"lng":126.9227981906852,"address":"경기 화성시 만세구 향남읍 발안로 111","phone":"1522-3232"},{"id":"689732355","brand":"스타벅스","name":"스타벅스 화성봉담점","lat":37.218688770761766,"lng":126.95540588465285,"address":"경기 화성시 효행구 봉담읍 동화길 51","phone":"1522-3232"},{"id":"1808491861","brand":"스타벅스","name":"스타벅스 화성보통저수지점","lat":37.192495349931086,"lng":126.97848666273516,"address":"경기 화성시 효행구 정남면 세자로 293","phone":"1522-3232"},{"id":"997566612","brand":"스타벅스","name":"스타벅스 화성향남2지구점","lat":37.1163585032065,"lng":126.910785675289,"address":"경기 화성시 만세구 향남읍 발안양감로 187","phone":"1522-3232"},{"id":"21058558","brand":"스타벅스","name":"스타벅스 안산한양대점","lat":37.3008273979054,"lng":126.838163422477,"address":"경기 안산시 상록구 성안길 82-3","phone":"1522-3232"},{"id":"21660984","brand":"스타벅스","name":"스타벅스 안산한대앞역점","lat":37.3085250777226,"lng":126.851317699423,"address":"경기 안산시 상록구 광덕1로 379","phone":"1522-3232"},{"id":"663519557","brand":"스타벅스","name":"스타벅스 수원권선DT점","lat":37.2463736847256,"lng":126.96408736897169,"address":"경기 수원시 권선구 매송고색로 543","phone":"1522-3232"},{"id":"22297905","brand":"스타벅스","name":"스타벅스 안산문화광장점","lat":37.3099279351612,"lng":126.830500306851,"address":"경기 안산시 단원구 광덕대로 154","phone":"1522-3232"},{"id":"1489778480","brand":"스타벅스","name":"스타벅스 수원호매실점","lat":37.27449332568898,"lng":126.94129372126379,"address":"경기 수원시 권선구 서수원로577번길 305","phone":"1522-3232"},{"id":"21580662","brand":"스타벅스","name":"스타벅스 안산중앙점","lat":37.31866081897091,"lng":126.83761638839182,"address":"경기 안산시 단원구 고잔로 102","phone":"1522-3232"},{"id":"10534790","brand":"스타벅스","name":"스타벅스 안산중앙역점","lat":37.317136343785826,"lng":126.83766930648794,"address":"경기 안산시 단원구 중앙대로 907","phone":"1522-3232"},{"id":"1540312352","brand":"스타벅스","name":"스타벅스 수원금곡점","lat":37.274851285174314,"lng":126.95408627846622,"address":"경기 수원시 권선구 금곡로 219","phone":"1522-3232"},{"id":"68491009","brand":"스타벅스","name":"스타벅스 안산상공회의소점","lat":37.3185463540086,"lng":126.826175856509,"address":"경기 안산시 단원��� 적금로 120","phone":"1522-3232"},{"id":"135139726","brand":"스타벅스","name":"스타벅스 안산삼성점","lat":37.30653287999561,"lng":126.84776619324933,"address":"경기 안산시 상록구 광덕1로 342","phone":"1522-3232"},{"id":"1630202498","brand":"스타벅스","name":"스타벅스 수원탑동DT점","lat":37.26724290099532,"lng":126.97125114524631,"address":"경기 수원시 권선구 서부로 1775","phone":"1522-3232"},{"id":"498189819","brand":"스타벅스","name":"스타벅스 화성봉담DT","lat":37.228339476297585,"lng":126.97157241754212,"address":"경기 화성시 효행구 효행로 219","phone":"1522-3232"},{"id":"1159810747","brand":"스타벅스","name":"스타벅스 화성향남발안DT점","lat":37.1334904871648,"lng":126.941212634839,"address":"경기 화성시 만세구 향남읍 발안로 308","phone":"1522-3232"},{"id":"1220479981","brand":"스타벅스","name":"스타벅스 안산고잔센트럴타워점","lat":37.31899791662818,"lng":126.83444548462701,"address":"경기 안산시 단원구 고잔로 72","phone":"1522-3232"},{"id":"1063386378","brand":"스타벅스","name":"스타벅스 한양대에리카점","lat":37.29808404838443,"lng":126.83447441450747,"address":"경기 안산시 상록구 한양대학로 55","phone":"1522-3232"},{"id":"26410056","brand":"스타벅스","name":"스타벅스 고잔이마트점","lat":37.3031925899198,"lng":126.811935979635,"address":"경기 안산시 단원구 원포공원1로 46","phone":""},{"id":"986206888","brand":"스타벅스","name":"스타벅스 안산물의광장점","lat":37.31321893792346,"lng":126.82954306572573,"address":"경기 안산시 단원구 광덕대로 187","phone":"1522-3232"},{"id":"494487343","brand":"스타벅스","name":"스타벅스 안산사동DT점","lat":37.30548378439659,"lng":126.85543854302134,"address":"경기 안산시 상록구 용하공원로 44","phone":"1522-3232"},{"id":"1039845782","brand":"스타벅스","name":"스타벅스 화성남양DT점 주차장","lat":37.20688276188,"lng":126.819381492834,"address":"경기 화성시 만세구 남양읍 남양리 2283","phone":""},{"id":"773477239","brand":"스타벅스","name":"스타벅스 수원권선DT점 주차장","lat":37.2464269087358,"lng":126.964293602255,"address":"경기 수원시 권선구 매송고색로 543","phone":""},{"id":"1875917150","brand":"스타벅스","name":"스타벅스 화성봉담DT 주차장","lat":37.2282773452757,"lng":126.971744845196,"address":"경기 화성시 효행구 기안동 333-5","phone":""},{"id":"401912678","brand":"스타벅스","name":"한강 라면 스타벅스캡슐 무인카페 화성향남점","lat":37.1147620118934,"lng":126.91104520565,"address":"경기 화성시 만세구 향남읍 상신하길로298번길 11","phone":"010-4052-4350"},{"id":"1178129761","brand":"스타벅스","name":"화성스타벅스 전기차충전소","lat":37.192495349931086,"lng":126.97848666273516,"address":"경기 화성시 효행구 정남면 세자로 293","phone":""},{"id":"1303778883","brand":"스타벅스","name":"스타벅스화성향남발안DT 전기차충전소","lat":37.133474410581584,"lng":126.94150075434553,"address":"경기 화성시 만세구 향남읍 관리 295-9","phone":"1899-7495"},{"id":"1136643810","brand":"스타벅스","name":"경기 화성시 스타벅스화성향남발안DT 전기차충전소","lat":37.1334905484796,"lng":126.941336430825,"address":"경기 화성시 만세구 향남읍 발안로 308","phone":""},{"id":"17884716","brand":"스타벅스","name":"스타벅스 안산트레이더스점","lat":37.3309091323707,"lng":126.784890205557,"address":"경기 안산시 단원구 중앙대로 397","phone":"1522-3232"},{"id":"1359455878","brand":"스타벅스","name":"스타벅스 시흥능곡역점","lat":37.37064104023829,"lng":126.80749692444236,"address":"경기 시흥시 장현능곡로 155","phone":"1522-3232"},{"id":"81350071","brand":"스타벅스","name":"스타벅스 물왕호수점","lat":37.3826469823282,"lng":126.84067959947019,"address":"경기 시흥시 동서로857번길 6","phone":"1522-3232"},{"id":"1319484378","brand":"스타벅스","name":"스타벅스 시흥목감DT점","lat":37.37794328085513,"lng":126.85005284336664,"address":"경기 시흥시 동서로 950","phone":"1522-3232"},{"id":"1409012500","brand":"스타벅스","name":"스타벅스 시흥장현점","lat":37.378183022422014,"lng":126.78924102869412,"address":"경기 시흥시 황고개로 530","phone":"1522-3232"},{"id":"18691210","brand":"스타벅스","name":"스타벅스 시화로데오점","lat":37.3446565562671,"lng":126.737352172122,"address":"경기 시흥시 중심상가2길 20-5","phone":"1522-3232"},{"id":"11374438","brand":"스타벅스","name":"스타벅스 산본점","lat":37.3606639727607,"lng":126.931730055073,"address":"경기 군포시 산본로343번길 9","phone":"1522-3232"},{"id":"17791050","brand":"스타벅스","name":"스타벅스 산본동점","lat":37.365456079541424,"lng":126.92941942481708,"address":"경기 군포시 산본로 398","phone":"1522-3232"},{"id":"219201833","brand":"스타벅스","name":"스타벅스 산본역서부사거리점","lat":37.35800624296688,"lng":126.93069851636962,"address":"경기 군포시 번영로 485","phone":"1522-3232"},{"id":"1841006326","brand":"스타벅스","name":"스타벅스 배곧신도시점","lat":37.369267657267656,"lng":126.73036300723687,"address":"경기 시흥시 서울대학로278번길 43-13","phone":""},{"id":"817328997","brand":"스타벅스","name":"스타벅스 배곧아브뉴프랑","lat":37.3682155689049,"lng":126.728920636313,"address":"경기 시흥시 서울대학로278번길 34","phone":"1522-3232"},{"id":"1402324982","brand":"스타벅스","name":"스타벅스 산본사거리점","lat":37.372390382125225,"lng":126.93575439544855,"address":"경기 군포시 고산로 701","phone":"1522-3232"},{"id":"484869211","brand":"스타벅스","name":"스타벅스 광명역점","lat":37.416729753652454,"lng":126.88205964780319,"address":"경기 광명시 양지로 16","phone":"1522-3232"},{"id":"1122000384","brand":"스타벅스","name":"스타벅스 시흥P.아울렛3F점","lat":37.3799151551952,"lng":126.73640841381007,"address":"경기 시흥시 서해안로 699","phone":"1522-3232"},{"id":"1112481389","brand":"스타벅스","name":"스타벅스 산본이마트점","lat":37.3610791632368,"lng":126.93141361271,"address":"경기 군포시 산본로 347","phone":"1522-3232"},{"id":"153614414","brand":"스타벅스","name":"스타벅스 시흥프리미엄아울렛 1층점","lat":37.3792722367682,"lng":126.73578515489838,"address":"경기 시흥시 서해안로 699","phone":"1522-3232"},{"id":"208616274","brand":"스타벅스","name":"스타벅스 의왕삼동DT점","lat":37.316507455179966,"lng":126.95733933268595,"address":"경기 의왕시 덕영대로 182","phone":"1522-3232"},{"id":"11130091","brand":"스타벅스","name":"스타벅스 안양일번가점","lat":37.3992337243681,"lng":126.923712625101,"address":"경기 안양시 만안구 안양로292번길 36","phone":"1522-3232"},{"id":"1699463111","brand":"스타벅스","name":"스타벅스 안양호계DT점","lat":37.36652590484457,"lng":126.95612569591628,"address":"경기 안양시 동안구 엘에스로 27","phone":"1522-3232"},{"id":"27094954","brand":"스타벅스","name":"스타벅스 안양역점","lat":37.4003355726629,"lng":126.922175528853,"address":"경기 안양시 만안구 장내로149번길 53","phone":"1522-3232"},{"id":"1755230985","brand":"스타벅스","name":"스타벅스 시흥월곶점","lat":37.389536949801084,"lng":126.7387495041629,"address":"경기 시흥시 월곶중앙로58번길 5-6","phone":"1522-3232"},{"id":"1976392244","brand":"스타벅스","name":"스타벅스 안양역R점","lat":37.4020612995522,"lng":126.92258937165542,"address":"경기 안양시 만안구 만안로 244","phone":"1522-3232"},{"id":"1887081788","brand":"스타벅스","name":"스타벅스 의왕현대모비스점","lat":37.32414626680695,"lng":126.9522296586281,"address":"경기 의왕시 철도박물관로 37","phone":"1522-3232"},{"id":"751516897","brand":"스타벅스","name":"스타벅스 금정AK점","lat":37.37273795199624,"lng":126.94418534257696,"address":"경기 군포시 엘에스로 143","phone":"1522-3232"},{"id":"289476703","brand":"스타벅스","name":"스타벅스 명학역점","lat":37.38372378274516,"lng":126.93468107057832,"address":"경기 안양시 만안구 안양로 96","phone":"1522-3232"},{"id":"14581818","brand":"스타벅스","name":"스타벅스 범계로데오점","lat":37.3914613795297,"lng":126.955114027907,"address":"경기 안양시 동안구 평촌대로 223","phone":"1522-3232"},{"id":"26900391","brand":"스타벅스","name":"스타벅스 안양비산DT점","lat":37.392623872148,"lng":126.942971305306,"address":"경기 안양시 동안구 경수대로 821","phone":""},{"id":"1089595359","brand":"스타벅스","name":"스타벅스 범계역점","lat":37.3899419009133,"lng":126.949753298533,"address":"경기 안양시 동안구 시민대로 180","phone":"1522-3232"},{"id":"19749732","brand":"스타벅스","name":"스타벅스 수원성균관대점","lat":37.29887846594542,"lng":126.97157183311786,"address":"경기 수원시 장안구 서부로 2131","phone":"1522-3232"},{"id":"398942696","brand":"스타벅스","name":"스타벅스 인천서창점","lat":37.4239196687386,"lng":126.749941128607,"address":"인천 남동구 서창남로 51","phone":"1522-3232"},{"id":"11116786","brand":"스타벅스","name":"스타벅스 평촌아크로점","lat":37.3925610667748,"lng":126.956287823517,"address":"경기 안양시 동안구 시민대로 230","phone":"1522-3232"},{"id":"430232986","brand":"스타벅스","name":"스타벅스 안양범계점","lat":37.3917203536101,"lng":126.953763269584,"address":"경기 안양시 동안구 시민대로 206","phone":"1522-3232"},{"id":"269027118","brand":"스타벅스","name":"스타벅스 평촌한림대병원점","lat":37.392790159415426,"lng":126.96219158489463,"address":"경기 안양시 동안구 관평로170번길 33","phone":"1522-3232"},{"id":"26805340","brand":"스타벅스","name":"스타벅스 평촌역사거리점","lat":37.3959517911724,"lng":126.964936529833,"address":"경기 안양시 동안구 시민대로 311","phone":"1522-3232"},{"id":"1136303661","brand":"스타벅스","name":"스타벅스 안양운동장사거리DT점","lat":37.40114317108694,"lng":126.94920257494901,"address":"경기 안양시 동안구 관악대로 234","phone":"1522-3232"},{"id":"2051389845","brand":"스타벅스","name":"스타벅스 평촌역DT점","lat":37.3965229288959,"lng":126.97120183977562,"address":"경기 안양시 동안구 시민대로 373","phone":"1522-3232"},{"id":"332069305","brand":"스타벅스","name":"스타벅스 평촌호계","lat":37.3830222877067,"lng":126.959825301786,"address":"경기 안양시 동안구 평촌대로 123","phone":"1522-3232"},{"id":"626937202","brand":"스타벅스","name":"스타벅스 평촌트리지아점","lat":37.38238250339442,"lng":126.9523880805954,"address":"경기 안양시 동안구 귀인로 110","phone":"1522-3232"},{"id":"20046333","brand":"스타벅스","name":"스타벅스 인덕원역","lat":37.400276822429994,"lng":126.97633350786107,"address":"경기 안양시 동안구 흥안대로 519","phone":"1522-3232"},{"id":"219671229","brand":"스타벅스","name":"스타벅스 의왕내손점","lat":37.389018645724335,"lng":126.97681696874768,"address":"경기 의왕시 내손중앙로 4","phone":"1522-3232"},{"id":"1578763366","brand":"스타벅스","name":"스타벅스 안양이마트점","lat":37.3983756770212,"lng":126.935345977025,"address":"경기 안양시 동안구 관악대로 104","phone":"1522-3232"},{"id":"1327440279","brand":"스타벅스","name":"스타벅스 의왕포일점","lat":37.3961541852306,"lng":126.984397120173,"address":"경기 의왕시 안양판교로 89","phone":"1522-3232"},{"id":"1564198496","brand":"스타벅스","name":"스타벅스 안양덕현DT점","lat":37.37128386984938,"lng":126.96022105391926,"address":"경기 안양시 동안구 흥안대로 139","phone":"1522-3232"},{"id":"906639684","brand":"스타벅스","name":"스타벅스 호계지식산업센터점","lat":37.3726364625877,"lng":126.94889439882415,"address":"경기 안양시 동안구 엘에스로 122","phone":"1522-3232"},{"id":"761726834","brand":"스타벅스","name":"스타벅스 과천지식정보타운점","lat":37.41351805309044,"lng":126.9803563476478,"address":"경기 과천시 과천대로7길 12","phone":"1522-3232"},{"id":"1392413715","brand":"스타벅스","name":"스타벅스 의왕청계DT점","lat":37.388325317191374,"lng":126.99837957409977,"address":"경기 의��시 안양판교로 246","phone":"1522-3232"},{"id":"1372214914","brand":"스타벅스","name":"스타벅스 과천메가존점","lat":37.4175036382831,"lng":126.977427242082,"address":"경기 과천시 과천대로7길 74","phone":"1522-3232"},{"id":"10219173","brand":"스타벅스","name":"스타벅스 과천점","lat":37.428178907940556,"lng":126.99098746594454,"address":"경기 과천시 중앙로 129","phone":"1522-3232"},{"id":"7961575","brand":"스타벅스","name":"스타벅스 과천이마트점","lat":37.4264796380064,"lng":126.99164859646,"address":"경기 과천시 별양상가3로 11","phone":"1522-3232"},{"id":"1580322237","brand":"스타벅스","name":"스타벅스 의왕롯데몰점","lat":37.37540613398095,"lng":127.00855799397858,"address":"경기 의왕시 바라산로 1","phone":"1522-3232"},{"id":"1319610997","brand":"스타벅스","name":"스타벅스 과천DT점","lat":37.43923275878556,"lng":126.9938461227314,"address":"경기 과천시 중앙로 277","phone":"1522-3232"},{"id":"26849460","brand":"스타벅스","name":"스타벅스 안양석수DT점","lat":37.43107541127094,"lng":126.90354399123862,"address":"경기 안양시 만안구 경수대로 1397","phone":"1522-3232"},{"id":"2090446816","brand":"스타벅스","name":"스타벅스 금천시흥점","lat":37.4489620586813,"lng":126.903175211658,"address":"서울 금천구 시흥대로 164","phone":""},{"id":"688125358","brand":"스타벅스","name":"스타벅스 광명소하DT점","lat":37.4348337428402,"lng":126.879239228002,"address":"경기 광명시 오리로 363","phone":"1522-3232"},{"id":"10831345","brand":"스타벅스","name":"스타벅스 광명AK점","lat":37.418645299076395,"lng":126.88294682474886,"address":"경기 광명시 양지로 17","phone":"1522-3232"},{"id":"1569976309","brand":"스타벅스","name":"스타벅스 광명롯데몰점","lat":37.423078199670144,"lng":126.88467181253642,"address":"경기 광명시 일직로 17","phone":"1522-3232"},{"id":"936949903","brand":"스타벅스","name":"스타벅스 신림녹두거리점","lat":37.4704053531146,"lng":126.93825481255969,"address":"서울 관악구 신림로 99","phone":"1522-3232"},{"id":"840708054","brand":"스타벅스","name":"스타벅스 용인고기동유원지점","lat":37.35954173669862,"lng":127.05534998306041,"address":"경기 용인시 수지구 고기로 487","phone":"1522-3232"},{"id":"427369680","brand":"스타벅스","name":"스타벅스 낙성대DT점","lat":37.4761819067065,"lng":126.965138754993,"address":"서울 관악구 남부순환로 1948","phone":""},{"id":"2020032581","brand":"스타벅스","name":"스타벅스 파주금촌역점","lat":37.7638940663959,"lng":126.774245387531,"address":"경기 파주시 문화로 109","phone":"1522-3232"},{"id":"22547068","brand":"스타벅스","name":"스타벅스 파주금릉역점","lat":37.7522875705879,"lng":126.76579746917,"address":"경기 파주시 금릉역로 84","phone":""},{"id":"724713944","brand":"스타벅스","name":"스타벅스 파주가람점","lat":37.7359716890864,"lng":126.75984070401,"address":"경기 파주시 가람로 89","phone":"1522-3232"},{"id":"1368556635","brand":"스타벅스","name":"스타벅스 스타필드빌리지운정점","lat":37.727260238256605,"lng":126.7647635172596,"address":"경기 파주시 와석순환로515번길 70","phone":"1522-3232"},{"id":"1602210820","brand":"스타벅스","name":"스타벅스 파주산내점","lat":37.72863468958978,"lng":126.7356480572995,"address":"경기 파주시 청암로17번길 29","phone":"1522-3232"},{"id":"24529853","brand":"스타벅스","name":"스타벅스 파주운정점","lat":37.712186349922,"lng":126.744534416004,"address":"경기 파주시 와석순환로 135","phone":"1522-3232"},{"id":"532582982","brand":"스타벅스","name":"스타벅스 파주LGD점","lat":37.8097715448917,"lng":126.7680473465145,"address":"경기 파주시 월롱면 엘지로 245","phone":"1522-3232"},{"id":"935298662","brand":"스타벅스","name":"스타벅스 파주LGD GATE G점","lat":37.810408651356646,"lng":126.76090235757567,"address":"경기 파주시 월롱면 엘지로 245","phone":"1522-3232"},{"id":"742629410","brand":"스타벅스","name":"스타벅스 파주교하점","lat":37.7247073404094,"lng":126.717759346925,"address":"경기 파주시 청석로 256","phone":"1522-3232"},{"id":"766394161","brand":"스타벅스","name":"스타벅스 파주운정이마트점","lat":37.71030806221474,"lng":126.74547761562258,"address":"경기 파주시 한울로 123","phone":"1522-3232"},{"id":"219977348","brand":"스타벅스","name":"스타벅스 파주P.아울렛B1점","lat":37.76961585785059,"lng":126.69424208206881,"address":"경기 파주시 탄현면 법흥리 1790-8","phone":"1522-3232"},{"id":"13133782","brand":"스타벅스","name":"스타벅스 파주P.아울렛2F점","lat":37.7689352877083,"lng":126.69654888410318,"address":"경기 파주시 탄현면 필승로 200","phone":"1522-3232"},{"id":"1581492848","brand":"스타벅스","name":"스타벅스 파주문산DT점","lat":37.84644933487252,"lng":126.78910492718391,"address":"경기 파주시 파주읍 통일로 1555","phone":"1522-3232"},{"id":"13082095","brand":"스타벅스","name":"스타벅스 현대킨텍스점","lat":37.668133508678736,"lng":126.75100328350932,"address":"경기 고양시 일산서구 호수로 817","phone":"1522-3232"},{"id":"26850458","brand":"스타벅스","name":"스타벅스 김포운양점","lat":37.65422504597107,"lng":126.68401366009748,"address":"경기 김포시 김포한강11로 288-32","phone":"1522-3232"},{"id":"268662269","brand":"스타벅스","name":"스타벅스 철산역점","lat":37.47635007295101,"lng":126.86781167066289,"address":"경기 광명시 철산로 15","phone":"1522-3232"},{"id":"27280513","brand":"스타벅스","name":"스타벅스 철산로데오점","lat":37.4739236088593,"lng":126.869390734082,"address":"경기 광명시 디지털로 17","phone":""},{"id":"1251577804","brand":"스타벅스","name":"스타벅스 광명사거리역점","lat":37.479825621810456,"lng":126.85432324805835,"address":"경기 광명시 광명로 907","phone":"1522-3232"},{"id":"825774936","brand":"스타벅스","name":"스타벅스 광명센트럴점","lat":37.48429157121381,"lng":126.85698858460218,"address":"경기 광명시 광명로 960","phone":"1522-3232"},{"id":"1469997287","brand":"스타벅스","name":"스타벅스 가산어반워크점","lat":37.4800209461231,"lng":126.878015601766,"address":"서울 금천구 가산디지털2로 135","phone":"1522-3232"},{"id":"8403565","brand":"스타벅스","name":"스타벅스 가산디지털점","lat":37.48001465912096,"lng":126.8824803289091,"address":"서울 금천구 가산디지털1로 168","phone":"1522-3232"},{"id":"1146328973","brand":"스타벅스","name":"스타벅스 가산에스케이점","lat":37.48079971611958,"lng":126.88095843414192,"address":"서울 금천구 가산디지털1로 171","phone":"1522-3232"},{"id":"1460458769","brand":"스타벅스","name":"스타벅스 가산디지털단지역점","lat":37.4813375391088,"lng":126.883591912152,"address":"서울 금천구 벚꽃로 298","phone":"1522-3232"},{"id":"26376546","brand":"스타벅스","name":"스타벅스 가산브이타워점","lat":37.4769946609385,"lng":126.883576037768,"address":"서울 금천구 가산디지털1로 128","phone":"1522-3232"},{"id":"1887888284","brand":"스타벅스","name":"스타벅스 가산케이에스점","lat":37.48074248928671,"lng":126.88504001007452,"address":"서울 금천구 벚꽃로36길 30","phone":"1522-3232"},{"id":"18363987","brand":"스타벅스","name":"스타벅스 마리오아울렛점","lat":37.4786411891975,"lng":126.88488834054287,"address":"서울 금천구 벚꽃로 266","phone":"1522-3232"},{"id":"1724970139","brand":"스타벅스","name":"스타벅스 가산퍼블릭점","lat":37.47557684259649,"lng":126.88673806155231,"address":"서울 금천구 디지털로 178","phone":"1522-3232"},{"id":"26344923","brand":"스타벅스","name":"스타벅스 광명하안점","lat":37.462669160061445,"lng":126.88052826854573,"address":"경기 광명시 범안로 1060","phone":"1522-3232"},{"id":"1138402820","brand":"스타벅스","name":"스타벅스 가산현대아울렛점","lat":37.477651151536676,"lng":126.88883098701767,"address":"서울 금천구 디지털로10길 9","phone":"1522-3232"},{"id":"1657715080","brand":"스타벅스","name":"스타벅스 광명하안대로점","lat":37.46154246244984,"lng":126.87833724792175,"address":"경기 광명시 범안로 1036","phone":"1522-3232"},{"id":"1385815016","brand":"스타벅스","name":"스타벅스 고척아이파크점","lat":37.4993056293408,"lng":126.858220892358,"address":"서울 구로구 경인로43길 49","phone":"1522-3232"},{"id":"828777707","brand":"스타벅스","name":"스타벅스 독산역점","lat":37.467710116158145,"lng":126.88767347514968,"address":"서울 금천구 가산디지털1로 16","phone":"1522-3232"},{"id":"895620917","brand":"스타벅스","name":"스타벅스 구로오류DT점","lat":37.48811218152662,"lng":126.83447666279501,"address":"서울 구로구 서해안로 2233","phone":"1522-3232"},{"id":"24765611","brand":"스타벅스","name":"스타벅스 금천독산점","lat":37.4695491849933,"lng":126.895651607106,"address":"서울 금천구 두산로 70","phone":"1522-3232"},{"id":"21058537","brand":"스타벅스","name":"스타벅스 구로디지털로점","lat":37.4857746895213,"lng":126.895800907536,"address":"서울 구로구 디지털로33길 11","phone":"1522-3232"},{"id":"34391801","brand":"스타벅스","name":"스타벅스 구로구청점","lat":37.4937889409453,"lng":126.886762582058,"address":"서울 구로구 가마산로 232","phone":"1522-3232"},{"id":"25115111","brand":"스타벅스","name":"스타벅스 오류동역점","lat":37.4962245157872,"lng":126.844857947147,"address":"서울 구로구 경인로 216","phone":"1522-3232"},{"id":"1653669621","brand":"스타벅스","name":"스타벅스 구로디지털타워점","lat":37.483630865471,"lng":126.896455138658,"address":"서울 구로구 디지털로32길 30","phone":"1522-3232"},{"id":"649401592","brand":"스타벅스","name":"스타벅스 구로NC점","lat":37.50162626899816,"lng":126.88253580778616,"address":"서울 구로구 구로중앙로 152","phone":"1522-3232"},{"id":"1616531669","brand":"스타벅스","name":"스타벅스 독산사거리점","lat":37.4715700200452,"lng":126.898606100317,"address":"서울 금천구 시흥대로 426","phone":"1522-3232"},{"id":"784815881","brand":"스타벅스","name":"스타벅스 신림DT점","lat":37.480980972238186,"lng":126.90842516192575,"address":"서울 관악구 남부순환로 1419","phone":""},{"id":"7961406","brand":"스타벅스","name":"스타벅스 구로에이스점","lat":37.4842382622588,"lng":126.894550272167,"address":"서울 구로구 디지털로 285","phone":""},{"id":"1287406551","brand":"스타벅스","name":"스타벅스 포포인츠구로점","lat":37.48327789654454,"lng":126.89879605812563,"address":"서울 구로구 디지털로32길 72","phone":"1522-3232"},{"id":"13049462","brand":"스타벅스","name":"스타벅스 구로하이엔드점","lat":37.4816313144481,"lng":126.893179103414,"address":"서울 구로구 디지털로26길 5","phone":"1522-3232"},{"id":"673806844","brand":"스타벅스","name":"스타벅스 부천옥길점","lat":37.467628510578365,"lng":126.82318159215644,"address":"경기 부천시 소사구 옥길로 124","phone":"1522-3232"},{"id":"62238907","brand":"스타벅스","name":"스타벅스 금천구청역점","lat":37.455943996935765,"lng":126.89574736821737,"address":"서울 금천구 시흥대로73길 67","phone":"1522-3232"},{"id":"805035291","brand":"스타벅스","name":"스타벅스 광명소하점","lat":37.4486672239091,"lng":126.883940906491,"address":"경기 광명시 금하로 464","phone":"1522-3232"},{"id":"1966058498","brand":"스타벅스","name":"스타벅스 금천금나래점","lat":37.458749053632495,"lng":126.897009381465,"address":"서울 금천구 시흥대로79길 23","phone":"1522-3232"},{"id":"926070592","brand":"스타벅스","name":"스타벅스 목동10단지점","lat":37.5154091347214,"lng":126.859608867626,"address":"서울 양천구 목동서로 401","phone":"1522-3232"},{"id":"1993056337","brand":"스타벅스","name":"스타벅스 신풍역점","lat":37.50034629049825,"lng":126.90838568483211,"address":"서울 영등포구 신풍로 23","phone":"1522-3232"},{"id":"1737262840","brand":"스타벅스","name":"스타벅스 신정DT점","lat":37.5220179956817,"lng":126.858858924977,"address":"서울 양천구 신월로 341","phone":"1522-3232"},{"id":"1989650151","brand":"스타벅스","name":"스타벅스 목동8단지점","lat":37.5205194255446,"lng":126.868843500708,"address":"서울 양천구 목동서로 299","phone":"1522-3232"},{"id":"26548835","brand":"스타벅스","name":"스타벅스 역곡역DT점","lat":37.4835439491209,"lng":126.809291410123,"address":"경기 부천시 소사구 경인로 485","phone":""},{"id":"579596381","brand":"스타벅스","name":"스타벅스 시흥대야DT점","lat":37.44171104933993,"lng":126.7876922704619,"address":"경기 시흥시 뱀내장터로 27","phone":"1522-3232"},{"id":"2049293396","brand":"스타벅스","name":"스타벅스 시흥은계점","lat":37.43758229353922,"lng":126.80151310717848,"address":"경기 시흥시 은계번영길 9","phone":"1522-3232"},{"id":"18691192","brand":"스타벅스","name":"스타벅스 인천논현점","lat":37.3994755653437,"lng":126.725004326673,"address":"인천 남동구 논고개로 93","phone":"1522-3232"},{"id":"552103465","brand":"스타벅스","name":"스타벅스 시흥대야점","lat":37.443944971167085,"lng":126.79089869065332,"address":"경기 시흥시 비둘기공원로 10","phone":"1522-3232"},{"id":"906373343","brand":"스타벅스","name":"스타벅스 시흥대야동점","lat":37.4416320363878,"lng":126.791900670345,"address":"경기 시흥시 비둘기공원7길 51","phone":"1522-3232"},{"id":"2126722725","brand":"스타벅스","name":"스타벅스 스타필드부천점","lat":37.46107859402119,"lng":126.81349671059897,"address":"경기 부천시 소사구 옥길로 1","phone":"1522-3232"},{"id":"851750779","brand":"스타벅스","name":"스타벅스 인천구월아시아드점","lat":37.4426952249821,"lng":126.70836136265535,"address":"인천 남동구 인하로 556","phone":"1522-3232"},{"id":"24350795","brand":"스타벅스","name":"스타벅스 인천예술회관역점","lat":37.4494965939482,"lng":126.701359788768,"address":"인천 남동구 예술로 174","phone":"1522-3232"},{"id":"1084251560","brand":"스타벅스","name":"스타벅스 인천스퀘어원점","lat":37.406041897060526,"lng":126.6827943080074,"address":"인천 연수구 청능대로 210","phone":"1522-3232"},{"id":"26925119","brand":"스타벅스","name":"스타벅스 평내DT","lat":37.6476835407172,"lng":127.234703127793,"address":"경기 남양주시 경춘로 1269","phone":"1522-3232"},{"id":"19700516","brand":"스타벅스","name":"스타벅스 평내호평역점","lat":37.654024045281,"lng":127.243009227764,"address":"경기 남양주시 늘을1로16번길 25","phone":"1522-3232"},{"id":"89409077","brand":"스타벅스","name":"스타벅스 남양주이마트점","lat":37.6551500834186,"lng":127.243100157159,"address":"경기 남양주시 늘을2로 27","phone":""},{"id":"46197759","brand":"스타벅스","name":"스타벅스 남양주호평점","lat":37.6557500811332,"lng":127.2439996486,"address":"경기 남양주시 늘을2로 32","phone":"1522-3232"},{"id":"1582420490","brand":"스타벅스","name":"스타벅스 남양주삼패점","lat":37.5918545877073,"lng":127.199585450201,"address":"경기 남양주시 경강로 384","phone":"1522-3232"},{"id":"891606783","brand":"스타벅스","name":"스타벅스 남양주행정타운점","lat":37.6107558032725,"lng":127.168192418533,"address":"경기 남양주시 경춘로 498","phone":"1522-3232"},{"id":"188487275","brand":"스타벅스","name":"스타벅스 도농역점","lat":37.611115844276235,"lng":127.16460976081201,"address":"경기 남양주시 미금로 239","phone":"1522-3232"},{"id":"2069428721","brand":"스타벅스","name":"스타벅스 다산지금점","lat":37.60068103007942,"lng":127.17434254144156,"address":"경기 남양주시 다산지금로 139","phone":"1522-3232"},{"id":"2131363102","brand":"스타벅스","name":"스타벅스 리버사이드팔당DT점","lat":37.56710976353759,"lng":127.22839664513332,"address":"경기 남양주시 와부읍 경강로 772","phone":"1522-3232"},{"id":"492183734","brand":"스타벅스","name":"스타벅스 다산진건점","lat":37.624884755775746,"lng":127.15252159146841,"address":"경기 남양주시 다산중앙로123번길 22-26","phone":"1522-3232"},{"id":"509981146","brand":"스타벅스","name":"스타벅스 다산DT점","lat":37.61473838985432,"lng":127.15486693048926,"address":"경기 남양주시 다산중앙로19번길 5","phone":"1522-3232"},{"id":"19964146","brand":"스타벅스","name":"스타벅스 구리돌다리점","lat":37.6005335711162,"lng":127.141828295783,"address":"경기 구리시 검배로 5","phone":"1522-3232"},{"id":"26460119","brand":"스타벅스","name":"스타벅스 별내점","lat":37.6479100818064,"lng":127.123448246903,"address":"경기 남양주시 별내중앙로 64","phone":"1522-3232"},{"id":"1006749297","brand":"스타벅스","name":"스타벅스 구리갈매DT점","lat":37.63245635330583,"lng":127.12263078184789,"address":"경기 구리시 갈매순환로 148","phone":"1522-3232"},{"id":"1985715505","brand":"스타벅스","name":"스타벅스 하남미사점","lat":37.569630049137,"lng":127.183325713383,"address":"경기 하남시 미사강변북로30번길 130","phone":"1522-3232"},{"id":"1747188694","brand":"스타벅스","name":"스타벅스 다산이마트점","lat":37.60845488200112,"lng":127.15760143161431,"address":"경기 남양주시 도농로 24","phone":"1522-3232"},{"id":"2045170737","brand":"스타벅스","name":"스타벅스 구리인창DT점","lat":37.605647900563,"lng":127.139296691631,"address":"경기 구리시 건원대로 53","phone":"1522-3232"},{"id":"650757832","brand":"스타벅스","name":"스타벅스 남양주화도DT","lat":37.6390473277201,"lng":127.303208696347,"address":"경기 남양주시 화도읍 수레로 1137","phone":"1522-3232"},{"id":"279760526","brand":"스타벅스","name":"스타벅스 하남미사DT점","lat":37.55996573068262,"lng":127.1857885974711,"address":"경기 하남시 미사강변남로 35","phone":"1522-3232"},{"id":"804971280","brand":"스타벅스","name":"스타벅스 미사역그랑파사쥬점","lat":37.564220059372275,"lng":127.19153432067432,"address":"경기 하남시 미사강변동로 95","phone":"1522-3232"},{"id":"2072534228","brand":"스타벅스","name":"스타벅스 구리토평DT점","lat":37.58457210504793,"lng":127.14730942833782,"address":"경기 구리시 벌말로 88","phone":"1522-3232"},{"id":"795026321","brand":"스타벅스","name":"스타벅스 미사역파라곤스퀘어점","lat":37.56414524687027,"lng":127.1932115508466,"address":"경기 하남시 미사강변동로 100-1","phone":"1522-3232"},{"id":"1755276344","brand":"스타벅스","name":"스타벅스 미사역효성점","lat":37.567145734029296,"lng":127.19033066905897,"address":"경기 하남시 아리수로 570","phone":"1522-3232"},{"id":"1190840964","brand":"스타벅스","name":"스타벅스 강동강일점","lat":37.572264686913805,"lng":127.17492603883886,"address":"서울 강동구 아리수로93나길 54","phone":"1522-3232"},{"id":"1833867442","brand":"스타벅스","name":"스타벅스 남양주묵현DT","lat":37.663196640216796,"lng":127.30272094892798,"address":"경기 남양주시 화도읍 비룡로 122","phone":"1522-3232"},{"id":"811106931","brand":"스타벅스","name":"스타벅스 남양주연평DT점","lat":37.7114756883069,"lng":127.185493698353,"address":"경기 남양주시 진접읍 해밀예당1로 27","phone":"1522-3232"},{"id":"1721737768","brand":"스타벅스","name":"스타벅스 구리수택점","lat":37.5884754659165,"lng":127.138150565844,"address":"경기 구리시 체육관로 44","phone":"1522-3232"},{"id":"1719057433","brand":"스타벅스","name":"스타벅스 구리장자호수점","lat":37.5873283237686,"lng":127.13983318195868,"address":"경기 구리시 장자대로 84","phone":"1522-3232"},{"id":"1600115108","brand":"스타벅스","name":"스타벅스 구리갈매역점","lat":37.633840517048384,"lng":127.11615048363134,"address":"경기 구리시 경춘북로 252","phone":"1522-3232"},{"id":"1302578722","brand":"스타벅스","name":"스타벅스 별내불암로점","lat":37.650487040833,"lng":127.112487924176,"address":"경기 남양주시 별내5로5번길 15","phone":"1522-3232"},{"id":"638138510","brand":"스타벅스","name":"스타벅스 하남덕풍점","lat":37.552248332415,"lng":127.209171520936,"address":"경기 하남시 덕풍동로 123","phone":"1522-3232"},{"id":"1770061366","brand":"스타벅스","name":"스타벅스 구리시청DT점","lat":37.5902770222232,"lng":127.130611912114,"address":"경기 구리시 아차산로 393","phone":"1522-3232"},{"id":"1170670329","brand":"스타벅스","name":"스타벅스 강일역점","lat":37.5574850727156,"lng":127.173494887784,"address":"서울 강동구 고덕로 429","phone":"1522-3232"},{"id":"1371888894","brand":"스타벅스","name":"스타벅스 이케아강동점","lat":37.5666600295608,"lng":127.157333362387,"address":"서울 강동구 고덕비즈밸리로 51","phone":"1522-3232"},{"id":"1179986530","brand":"스타벅스","name":"스타벅스 하남풍산역점","lat":37.55353357229138,"lng":127.20533977246377,"address":"경기 하남시 덕풍서로 80","phone":"1522-3232"},{"id":"1944811832","brand":"스타벅스","name":"스타벅스 남양주진접DT점","lat":37.722861745864,"lng":127.190281504116,"address":"경기 남양주시 진접읍 금강로 1477","phone":"1522-3232"},{"id":"1422544505","brand":"스타벅스","name":"스타벅스 상일동역점","lat":37.5575422666516,"lng":127.170726725775,"address":"서울 강동구 고덕로 399","phone":"1522-3232"},{"id":"637886823","brand":"스타벅스","name":"스타벅스 구리롯데캐슬점","lat":37.6008859237569,"lng":127.137199628989,"address":"경기 구리시 경춘로 199","phone":"1522-3232"},{"id":"657510827","brand":"스타벅스","name":"스타벅스 진접역점","lat":37.721349588433895,"lng":127.20342814404073,"address":"경기 남양주시 진접읍 해밀예당1로235번길 3-5","phone":"1522-3232"},{"id":"146262937","brand":"스타벅스","name":"스타벅스 하남황산사거리점","lat":37.550695804163794,"lng":127.18609037162813,"address":"경기 하남시 조정대로 65","phone":"1522-3232"},{"id":"22105090","brand":"스타벅스","name":"스타벅스 상일동점","lat":37.55088234543218,"lng":127.17425816597004,"address":"서울 강동구 상일로10길 36","phone":"1522-3232"},{"id":"1334083934","brand":"스타벅스","name":"스타벅스 스타필드하남1F(티바나)점","lat":37.54475262908875,"lng":127.22359845923067,"address":"경기 하남시 미사대로 750","phone":"1522-3232"},{"id":"995171073","brand":"스타벅스","name":"스타벅스 스타필드하남2FR점","lat":37.545174930408166,"lng":127.2242141663272,"address":"경기 하남시 미사대로 750","phone":"1522-3232"},{"id":"1458330965","brand":"스타벅스","name":"스타벅스 더북한강R점","lat":37.612406390160096,"lng":127.34200841732975,"address":"경기 남양주시 화도읍 북한강로 1098","phone":"1522-3232"},{"id":"10539083","brand":"스타벅스","name":"스타벅스 춘천명동점","lat":37.879973179051554,"lng":127.72753015009147,"address":"강원특별자치도 춘천시 중앙로 55","phone":"1522-3232"},{"id":"17884702","brand":"스타벅스","name":"스타벅스 강원대점","lat":37.8727829184059,"lng":127.745094098958,"address":"강원특별자치도 춘천시 서부대성로 243-1","phone":""},{"id":"651540984","brand":"스타벅스","name":"스타벅스 춘천온의점","lat":37.86756109420666,"lng":127.72078589124455,"address":"강원특별자치도 춘천시 방송길 104","phone":"1522-3232"},{"id":"205788772","brand":"스타벅스","name":"스타벅스 춘천후평DT점","lat":37.87936516553207,"lng":127.75061631483874,"address":"강원특별자치도 춘천시 후석로 316","phone":"1522-3232"},{"id":"2050444187","brand":"스타벅스","name":"스타벅스 춘천후석로DT점","lat":37.8730544654098,"lng":127.752261649247,"address":"강원특별자치도 춘천시 후석로 245","phone":"1522-3232"},{"id":"17127120","brand":"스타벅스","name":"스타벅스 춘천이마트점","lat":37.863681642117115,"lng":127.7187287053137,"address":"강원특별자치도 춘천시 경춘로 2353","phone":"1522-3232"},{"id":"733606309","brand":"스타벅스","name":"스타벅스 더춘천의암호R점","lat":37.8634989031303,"lng":127.691320212984,"address":"강원특별자치도 춘천시 스포츠타운길 231","phone":"1522-3232"},{"id":"1875212769","brand":"스타벅스","name":"스타벅스 춘천구봉산R","lat":37.888407365554706,"lng":127.77596748318851,"address":"강원특별자치도 춘천시 동면 순환대로 1154-63","phone":"1522-3232"},{"id":"733456178","brand":"스타벅스","name":"스타벅스 춘천석사DT점","lat":37.8567032916807,"lng":127.739346159747,"address":"강원특별자치도 춘천시 후석로 13","phone":"1522-3232"},{"id":"328434928","brand":"스타벅스","name":"스타벅스 춘천퇴계DT점","lat":37.85528949057631,"lng":127.72621029094421,"address":"강원특별자치도 춘천시 안마산로 95","phone":"1522-3232"},{"id":"2122201687","brand":"스타벅스","name":"스타벅스 춘천후평DT점 주차장","lat":37.8792710981471,"lng":127.750674465743,"address":"강원특별자치도 춘천시 후평동 700","phone":""},{"id":"695863958","brand":"스타벅스","name":"스타벅스 춘천석사DT 주차장","lat":37.8566891130921,"lng":127.739308520229,"address":"강원특별자치도 춘천시 후석로 13","phone":""},{"id":"1655429607","brand":"스타벅스","name":"스타벅스 춘천구봉산R 주차장","lat":37.8883289709796,"lng":127.776242898843,"address":"강원특별자치도 춘천시 동면 만천리 340-61","phone":""},{"id":"849608172","brand":"스타벅스","name":"스타벅스 강릉IC DT점","lat":37.746745764139,"lng":128.872311685816,"address":"강원특별자치도 강릉시 경강로 1853","phone":"1522-3232"},{"id":"1431515003","brand":"스타벅스","name":"스타벅스 강릉교동광장점","lat":37.7643123098448,"lng":128.877063255812,"address":"강원특별자치도 강릉시 교동광장로 114","phone":"1522-3232"},{"id":"26410055","brand":"스타벅스","name":"스타벅스 강릉중앙점","lat":37.75497344417105,"lng":128.8962347197954,"address":"강원특별자치도 강릉시 경강로 2097","phone":"1522-3232"},{"id":"870968559","brand":"스타벅스","name":"스타벅스 강릉율곡DT점","lat":37.76994373057533,"lng":128.89219461487673,"address":"강원특별자치도 강릉시 율곡로 2996","phone":"1522-3232"},{"id":"1280175321","brand":"스타벅스","name":"스타벅스 강릉송정DT점","lat":37.771901698826625,"lng":128.92298578099556,"address":"강원특별자치도 강릉시 경강로 2400","phone":"1522-3232"},{"id":"397693663","brand":"스타벅스","name":"스타벅스 강릉강문해변점","lat":37.7947119397031,"lng":128.91855490234,"address":"강원특별자치도 강릉시 창해로350번길 3","phone":"1522-3232"},{"id":"20494147","brand":"스타벅스","name":"스타벅스 강릉안목해변점","lat":37.7713120905719,"lng":128.948831520775,"address":"강원특별자치도 강릉시 창해로14번길 40","phone":"1522-3232"},{"id":"1226189116","brand":"스타벅스","name":"스타벅스 강릉아산병원점","lat":37.81840977532356,"lng":128.85727910363303,"address":"강원특별자치도 강릉시 사천면 방동길 38","phone":"1522-3232"},{"id":"210308467","brand":"스타벅스","name":"스타벅스 강릉주문진점","lat":37.88108565742326,"lng":128.83168093431524,"address":"강원특별자치도 강릉시 주문진읍 학교담길 32-8","phone":"1522-3232"},{"id":"2020217761","brand":"스타벅스","name":"스타벅스 강릉교동광장점 주차장","lat":37.7643297411177,"lng":128.877100008678,"address":"강원특별자치도 강릉시 교동광장로 114","phone":""},{"id":"1343006983","brand":"스타벅스","name":"스타벅스 강릉율곡DT점 주차장","lat":37.7699437305753,"lng":128.892194614877,"address":"강원특별자치도 강릉시 율곡로 2996","phone":""},{"id":"1185364271","brand":"스타벅스","name":"스타벅스 강릉송정DT점 주차장","lat":37.7719129857671,"lng":128.922956566962,"address":"강원특별자치도 강릉시 경강로 2400","phone":""},{"id":"301732856","brand":"스타벅스","name":"스타벅스 원주시청점","lat":37.340713693111425,"lng":127.92384991980357,"address":"강원특별자치도 원주시 시청로 27-1","phone":"1522-3232"},{"id":"18691198","brand":"스타벅스","name":"스타벅스 원주터미널점","lat":37.34385531052891,"lng":127.93111087907099,"address":"강원특별자치도 원주시 서원대로 178","phone":"1522-3232"},{"id":"142735315","brand":"스타벅스","name":"스타벅스 원주무실점","lat":37.3330194920237,"lng":127.930245943604,"address":"강원특별자치도 원주시 능라동길 73","phone":"1522-3232"},{"id":"1283735746","brand":"스타벅스","name":"스타벅스 원주봉화산DT점","lat":37.353061006749385,"lng":127.92222924604707,"address":"강원특별자치도 원주시 서원대로 44","phone":"1522-3232"},{"id":"1407276573","brand":"스타벅스","name":"스타벅스 원주명륜DT점","lat":37.3359920322768,"lng":127.949844410428,"address":"강원특별자치도 원주시 남원로 588","phone":"1522-3232"},{"id":"1017042434","brand":"스타벅스","name":"스타벅스 원주단구DT점","lat":37.3285154306676,"lng":127.953443133629,"address":"강원특별자치도 원주시 서원대로 443","phone":""},{"id":"2054859785","brand":"스타벅스","name":"스타벅스 원주반곡DT점","lat":37.31976596419169,"lng":127.97169995857898,"address":"강원특별자치도 원주시 동부순환로 37","phone":"1522-3232"},{"id":"228829286","brand":"스타벅스","name":"스타벅스 원주기업도시DT점","lat":37.371483210569444,"lng":127.87156042883976,"address":"강원특별자치도 원주시 지정면 기업도시로 224","phone":"1522-3232"},{"id":"2073251041","brand":"스타벅스","name":"스타벅스 원주혁신도시점","lat":37.32324030519721,"lng":127.98096997248079,"address":"강원특별자치도 원주시 혁신로 61","phone":"1522-3232"},