[{"id":"드롭탑_MA010120220800131410","brand":"드롭탑","name":"드롭탑서귀포갤러리왈점","lat":33.2453048323859,"lng":126.573663980957,"address":"제주특별자치도 서귀포시 칠십리로214번길 30","phone":"064-763-5080","openingHours":"","services":{"parking":null,"wifi":true,"outlet":null,"driveThrough":null,"terrace":null,"pet":null},"petPolicyType":"정보 없음","lastCheckedAt":""},{"id":"카페베네_MA010120220800311430","brand":"카페베네","name":"카페베네제주점 롯데마트","lat":33.4824401282528,"lng":126.48183702564,"address":"제주특별자치도 제주시 연북로 1","phone":"","openingHours":"","services":{"parking":null,"wifi":true,"outlet":true,"driveThrough":null,"terrace":null,"pet":null},"petPolicyType":"정보 없음","lastCheckedAt":""},{"id":"빽다방_MA010120220800382898","brand":"빽다방","name":"제주빽다방 중앙여고점","lat":33.4899586295326,"lng":126.541102774103,"address":"제주특별자치도 제주시 남광로2길 43-13","phone":"070-8814-6545","openingHours":"","services":{"parking":null,"wifi":true,"outlet":true,"driveThrough":null,"terrace":null,"pet":null},"petPolicyType":"정보 없음","lastCheckedAt":""},{"id":"달콤커피_MA010120220800657323","brand":"달콤커피","name":"달콤커피제주 공항점","lat":33.5059397371195,"lng":126.495956962825,"address":"제주특별자치도 제주시 공항로 2","phone":"064-749-7111","openingHours":"","services":{"parking":null,"wifi":true,"outlet":null,"driveThrough":null,"terrace":null,"pet":null},"petPolicyType":"정보 없음","lastCheckedAt":""},{"id":"컴포즈커피_MA010120220800687128","brand":"컴포즈커피","name":"컴포즈커피서귀포서광점","lat":33.2891344549054,"lng":126.322272673238,"address":"제주특별자치도 서귀포시 안덕면 중산간서로 1880","phone":"","openingHours":"","services":{"parking":null,"wifi":true,"outlet":true,"driveThrough":null,"terrace":null,"pet":null},"petPolicyType":"정보 없음","lastCheckedAt":""},{"id":"메가MGC커피_MA010120220800805408","brand":"메가MGC커피","name":"메가엠지씨커피제주도청점","lat":33.4919526655474,"lng":126.497340037968,"address":"제주특별자치도 제주시 신대로7길 3","phone":"064-712-8787","openingHours":"","services":{"parking":null,"wifi":null,"outlet":null,"driveThrough":null,"terrace":null,"pet":null},"petPolicyType":"정보 없음","lastCheckedAt":""},{"id":"투썸플레이스_MA010120220800779414","brand":"투썸플레이스","name":"루마인,퍼즈,투썸플레이스제주루마인점","lat":33.4841963026117,"lng":126.901322843762,"address":"제주특별자치도 제주시 구좌읍 해맞이해안로 2498","phone":"","openingHours":"","services":{"parking":null,"wifi":true,"outlet":true,"driveThrough":null,"terrace":null,"pet":null},"petPolicyType":"정보 없음","lastCheckedAt":""},{"id":"메가MGC커피_MA010120220800802121","brand":"메가MGC커피","name":"메가엠지씨커피제주대점","lat":33.4603426942654,"lng":126.561449044287,"address":"제주특별자치도 제주시 제주대학로 107","phone":"064-702-1494","openingHours":"","services":{"parking":null,"wifi":null,"outlet":null,"driveThrough":null,"terrace":null,"pet":null},"petPolicyType":"정보 없음","lastCheckedAt":""},{"id":"투썸플레이스_MA010120220802500677","brand":"투썸플레이스","name":"투썸플레이스곽지과물 해변점","lat":33.4493437117272,"lng":126.305122448696,"address":"제주특별자치도 제주시 애월읍 곽지3길 26","phone":"064-799-9930","openingHours":"","services":{"parking":null,"wifi":true,"outlet":true,"driveThrough":null,"terrace":null,"pet":null},"petPolicyType":"정보 없음","lastCheckedAt":""},{"id":"이디야커피_MA010120220802243086","brand":"이디야커피","name":"이디야커피제주함덕해수욕장점","lat":33.5411828742258,"lng":126.669999758168,"address":"제주특별자치도 제주시 조천읍 함덕19길 9","phone":"","openingHours":"","services":{"parking":null,"wifi":null,"outlet":null,"driveThrough":null,"terrace":null,"pet":null},"petPolicyType":"정보 없음","lastCheckedAt":""},{"id":"이디야커피_MA010120220802683955","brand":"이디야커피","name":"이디야제주한림점","lat":33.4182470416219,"lng":126.26431132741,"address":"제주특별자치도 제주시 한림읍 한림로 711","phone":"064-796-2025","openingHours":"","services":{"parking":null,"wifi":null,"outlet":null,"driveThrough":null,"terrace":null,"pet":null},"petPolicyType":"정보 없음","lastCheckedAt":""},{"id":"컴포즈커피_MA010120220802648100","brand":"컴포즈커피","name":"컴포즈커피제주서사라점","lat":33.4996502089332,"lng":126.5195502349,"address":"제주특별자치도 제주시 서광로 218","phone":"064-725-2299","openingHours":"","services":{"parking":null,"wifi":true,"outlet":true,"driveThrough":null,"terrace":null,"pet":null},"petPolicyType":"정보 없음","lastCheckedAt":""},{"id":"메가MGC커피_MA010120220802741252","brand":"메가MGC커피","name":"메가커피제주 동홍점","lat":33.2571346639534,"lng":126.568562652698,"address":"제주특별자치도 서귀포시 동홍로 98","phone":"064-733-5953","openingHours":"","services":{"parking":null,"wifi":null,"outlet":null,"driveThrough":null,"terrace":null,"pet":null},"petPolicyType":"정보 없음","lastCheckedAt":""},{"id":"더리터_MA010120220803027283","brand":"더리터","name":"더리터제주,온다제주 일도점","lat":33.5082022613747,"lng":126.532633256277,"address":"제주특별자치도 제주시 삼성로 71","phone":"","openingHours":"","services":{"parking":null,"wifi":null,"outlet":null,"driveThrough":null,"terrace":null,"pet":null},"petPolicyType":"정보 없음","lastCheckedAt":""},{"id":"봄봄_MA010120220803098504","brand":"봄봄","name":"카페봄봄효돈점","lat":33.2635327308858,"lng":126.61705261804,"address":"제주특별자치도 서귀포시 효돈로 172","phone":"064-762-4800","openingHours":"","services":{"parking":null,"wifi":null,"outlet":null,"driveThrough":null,"terrace":null,"pet":null},"petPolicyType":"정보 없음","lastCheckedAt":""},{"id":"컴포즈커피_MA010120220803234762","brand":"컴포즈커피","name":"컴포즈커피제주 법원점","lat":33.4923749806678,"lng":126.536280053148,"address":"제주특별자치도 제주시 중앙로 325","phone":"070-8900-0119","openingHours":"","services":{"parking":null,"wifi":true,"outlet":true,"driveThrough":null,"terrace":null,"pet":null},"petPolicyType":"정보 없음","lastCheckedAt":""},{"id":"컴포즈커피_MA010120220803224982","brand":"컴포즈커피","name":"컴포즈커피서귀포창천점","lat":33.2612780079653,"lng":126.365630526442,"address":"제주특별자치도 서귀포시 안덕면 일주서로 1399","phone":"070-8838-0567","openingHours":"","services":{"parking":null,"wifi":true,"outlet":true,"driveThrough":null,"terrace":null,"pet":null},"petPolicyType":"정보 없음","lastCheckedAt":""},{"id":"컴포즈커피_MA010120220803170835","brand":"컴포즈커피","name":"컴포즈커피하효점","lat":33.2568811257998,"lng":126.617843586708,"address":"제주특별자치도 서귀포시 효돈순환로 246","phone":"010-9660-0151","openingHours":"","services":{"parking":null,"wifi":true,"outlet":true,"driveThrough":null,"terrace":null,"pet":null},"petPolicyType":"정보 없음","lastCheckedAt":""},{"id":"컴포즈커피_MA010120220803268421","brand":"컴포즈커피","name":"컴포즈커피제주삼화점","lat":33.514433081421,"lng":126.575437727387,"address":"제주특별자치도 제주시 화삼로 21","phone":"070-8900-0408","openingHours":"","services":{"parking":null,"wifi":true,"outlet":true,"driveThrough":null,"terrace":null,"pet":null},"petPolicyType":"정보 없음","lastCheckedAt":""},{"id":"더벤티_MA010120220803578167","brand":"더벤티","name":"더벤티제주 일도점","lat":33.5051359688163,"lng":126.537202126645,"address":"제주특별자치도 제주시 동광로 87","phone":"064-722-6898","openingHours":"","services":{"parking":null,"wifi":null,"outlet":null,"driveThrough":null,"terrace":null,"pet":null},"petPolicyType":"정보 없음","lastCheckedAt":""},{"id":"빽다방_MA010120220803588752","brand":"빽다방","name":"빽다방서귀포올레 중앙점","lat":33.2494952195656,"lng":126.562644644315,"address":"제주특별자치도 서귀포시 중정로61번길 19","phone":"064-733-4780","openingHours":"","services":{"parking":null,"wifi":true,"outlet":true,"driveThrough":null,"terrace":null,"pet":null},"petPolicyType":"정보 없음","lastCheckedAt":""},{"id":"메가MGC커피_MA010120220803712570","brand":"메가MGC커피","name":"메가엠지씨커피제주아라점","lat":33.473312807135,"lng":126.545353967443,"address":"제주특별자치도 제주시 중앙로 564","phone":"064-757-4433","openingHours":"","services":{"parking":null,"wifi":null,"outlet":null,"driveThrough":null,"terrace":null,"pet":null},"petPolicyType":"정보 없음","lastCheckedAt":""},{"id":"빽다방_MA010120220803789601","brand":"빽다방","name":"빽다방제주평화로에스케이점","lat":33.4675217274182,"lng":126.457248220739,"address":"제주특별자치도 제주시 노형로 121","phone":"070-4010-1851","openingHours":"","services":{"parking":null,"wifi":true,"outlet":true,"driveThrough":null,"terrace":null,"pet":null},"petPolicyType":"정보 없음","lastCheckedAt":""},{"id":"컴포즈커피_MA010120220803919103","brand":"컴포즈커피","name":"컴포즈커피서귀포 혁신도시점","lat":33.2510615602939,"lng":126.511128542486,"address":"제주특별자치도 서귀포시 김정문화로 59-1","phone":"","openingHours":"","services":{"parking":null,"wifi":true,"outlet":true,"driveThrough":null,"terrace":null,"pet":null},"petPolicyType":"정보 없음","lastCheckedAt":""},{"id":"빽다방_MA010120220804898496","brand":"빽다방","name":"제주노형뜨란채점빽다방","lat":33.4865877612047,"lng":126.473355112456,"address":"제주특별자치도 제주시 수덕로 35","phone":"064-711-5538","openingHours":"","services":{"parking":null,"wifi":true,"outlet":true,"driveThrough":null,"terrace":null,"pet":null},"petPolicyType":"정보 없음","lastCheckedAt":""},{"id":"이디야커피_MA010120220805041386","brand":"이디야커피","name":"이디야커피제주하귀점","lat":33.484618836385,"lng":126.416233822757,"address":"제주특별자치도 제주시 애월읍 하귀9길 29","phone":"064-712-0088","openingHours":"","services":{"parking":null,"wifi":null,"outlet":null,"driveThrough":null,"terrace":null,"pet":null},"petPolicyType":"정보 없음","lastCheckedAt":""},{"id":"드롭탑_MA010120220805085155","brand":"드롭탑","name":"드롭탑제주용담해안도로점","lat":33.5199433136572,"lng":126.496424717064,"address":"제주특별자치도 제주시 서해안로 540","phone":"064-711-7667","openingHours":"","services":{"parking":null,"wifi":true,"outlet":null,"driveThrough":null,"terrace":null,"pet":null},"petPolicyType":"정보 없음","lastCheckedAt":""},{"id":"빽다방_MA010120220805332897","brand":"빽다방","name":"빽다방제주봉개DT점","lat":33.4841084529415,"lng":126.604195450523,"address":"제주특별자치도 제주시 명림로 17","phone":"064-755-8686","openingHours":"","services":{"parking":null,"wifi":true,"outlet":true,"driveThrough":true,"terrace":null,"pet":null},"petPolicyType":"정보 없음","lastCheckedAt":""},{"id":"컴포즈커피_MA010120220805222117","brand":"컴포즈커피","name":"컴포즈 신시가지점","lat":33.2613086604615,"lng":126.521588963126,"address":"제주특별자치도 서귀포시 중산간동로 8380","phone":"070-4548-1904","openingHours":"","services":{"parking":null,"wifi":true,"outlet":true,"driveThrough":null,"terrace":null,"pet":null},"petPolicyType":"정보 없음","lastCheckedAt":""},{"id":"봄봄_MA010120220805331856","brand":"봄봄","name":"봄봄한북로점","lat":33.4633743691619,"lng":126.530087910879,"address":"제주특별자치도 제주시 한북로 132","phone":"064-752-4748","openingHours":"","services":{"parking":null,"wifi":null,"outlet":null,"driveThrough":null,"terrace":null,"pet":null},"petPolicyType":"정보 없음","lastCheckedAt":""},{"id":"공차_MA010120220805298591","brand":"공차","name":"공차제주삼화점","lat":33.5161109310431,"lng":126.580994277039,"address":"제주특별자치도 제주시 건주로 37","phone":"064-721-9951","openingHours":"","services":{"parking":null,"wifi":false,"outlet":false,"driveThrough":null,"terrace":null,"pet":null},"petPolicyType":"정보 없음","lastCheckedAt":""},{"id":"컴포즈커피_MA010120220805383654","brand":"컴포즈커피","name":"컴포즈서귀포표선점","lat":33.3268980000803,"lng":126.832139585355,"address":"제주특별자치도 서귀포시 표선면 표선중앙로 71","phone":"010-5943-1700","openingHours":"","services":{"parking":null,"wifi":true,"outlet":true,"driveThrough":null,"terrace":null,"pet":null},"petPolicyType":"정보 없음","lastCheckedAt":""},{"id":"더벤티_MA010120220805520161","brand":"더벤티","name":"더벤티서귀포올레 시장점","lat":33.2488580847026,"lng":126.566081623598,"address":"제주특별자치도 서귀포시 중정로91번길 4","phone":"064-763-0630","openingHours":"","services":{"parking":null,"wifi":null,"outlet":null,"driveThrough":null,"terrace":null,"pet":null},"petPolicyType":"정보 없음","lastCheckedAt":""},{"id":"메가MGC커피_MA010120220805683451","brand":"메가MGC커피","name":"메가엠지씨커피516도로점","lat":33.2700141250991,"lng":126.585704706702,"address":"제주특별자치도 서귀포시 516로 188","phone":"064-733-1494","openingHours":"","services":{"parking":null,"wifi":null,"outlet":null,"driveThrough":null,"terrace":null,"pet":null},"petPolicyType":"정보 없음","lastCheckedAt":""},{"id":"메가MGC커피_MA010120220805645025","brand":"메가MGC커피","name":"메가엠지씨커피제주 일도점","lat":33.505683425168,"lng":126.541374953163,"address":"제주특별자치도 제주시 고마로 99","phone":"064-727-5151","openingHours":"","services":{"parking":null,"wifi":null,"outlet":null,"driveThrough":null,"terrace":null,"pet":null},"petPolicyType":"정보 없음","lastCheckedAt":""},{"id":"이디야커피_MA010120220805938410","brand":"이디야커피","name":"이디야삼도점","lat":33.5045824353528,"lng":126.5196844152,"address":"제주특별자치도 제주시 서사로 90","phone":"064-759-9595","openingHours":"","services":{"parking":null,"wifi":null,"outlet":null,"driveThrough":null,"terrace":null,"pet":null},"petPolicyType":"정보 없음","lastCheckedAt":""},{"id":"메가MGC커피_MA010120220806388594","brand":"메가MGC커피","name":"메가엠지씨커피제주남녕점","lat":33.4905430311269,"lng":126.481261515184,"address":"제주특별자치도 제주시 남녕로 32","phone":"064-749-2877","openingHours":"","services":{"parking":null,"wifi":null,"outlet":null,"driveThrough":null,"terrace":null,"pet":null},"petPolicyType":"정보 없음","lastCheckedAt":""},{"id":"이디야커피_MA010120220806370456","brand":"이디야커피","name":"이디야제주삼화점","lat":33.5135211431903,"lng":126.580339442111,"address":"제주특별자치도 제주시 건주로 66","phone":"064-727-0222","openingHours":"","services":{"parking":null,"wifi":null,"outlet":null,"driveThrough":null,"terrace":null,"pet":null},"petPolicyType":"정보 없음","lastCheckedAt":""},{"id":"봄봄_MA010120220806415471","brand":"봄봄","name":"봄봄 노형점","lat":33.4891390821143,"lng":126.475437894646,"address":"제주특별자치도 제주시 월랑로 43","phone":"064-713-2456","openingHours":"","services":{"parking":null,"wifi":null,"outlet":null,"driveThrough":null,"terrace":null,"pet":null},"petPolicyType":"정보 없음","lastCheckedAt":""},{"id":"컴포즈커피_MA010120220806700054","brand":"컴포즈커피","name":"컴포즈커피서홍점","lat":33.2570126914243,"lng":126.556951619168,"address":"제주특별자치도 서귀포시 홍중로 47","phone":"","openingHours":"","services":{"parking":null,"wifi":true,"outlet":true,"driveThrough":null,"terrace":null,"pet":null},"petPolicyType":"정보 없음","lastCheckedAt":""},{"id":"드롭탑_MA010120220806601097","brand":"드롭탑","name":"드롭탑제주 삼성점","lat":33.5039796939876,"lng":126.527059712544,"address":"제주특별자치도 제주시 광양1길 2","phone":"064-725-2600","openingHours":"","services":{"parking":null,"wifi":true,"outlet":null,"driveThrough":null,"terrace":null,"pet":null},"petPolicyType":"정보 없음","lastCheckedAt":""},{"id":"투썸플레이스_MA010120220806671426","brand":"투썸플레이스","name":"투썸플레이스제주애월다인호텔점","lat":33.4724989159386,"lng":126.350476119494,"address":"제주특별자치도 제주시 애월읍 애월해안로 394","phone":"070-4544-1028","openingHours":"","services":{"parking":null,"wifi":true,"outlet":true,"driveThrough":null,"terrace":null,"pet":null},"petPolicyType":"정보 없음","lastCheckedAt":""},{"id":"더벤티_MA010120220806773582","brand":"더벤티","name":"더벤티 동홍점","lat":33.2567687389423,"lng":126.572256126205,"address":"제주특별자치도 서귀포시 동홍중앙로 70","phone":"064-733-1203","openingHours":"","services":{"parking":null,"wifi":null,"outlet":null,"driveThrough":null,"terrace":null,"pet":null},"petPolicyType":"정보 없음","lastCheckedAt":""},{"id":"더벤티_MA010120220806820799","brand":"더벤티","name":"더벤티서귀포오일 시장점","lat":33.2654359374716,"lng":126.570378594597,"address":"제주특별자치도 서귀포시 중산간동로 7917","phone":"","openingHours":"","services":{"parking":null,"wifi":null,"outlet":null,"driveThrough":null,"terrace":null,"pet":null},"petPolicyType":"정보 없음","lastCheckedAt":""},{"id":"카페베네_MA010120220806748884","brand":"카페베네","name":"카페베네중앙 병원점","lat":33.4923186414439,"lng":126.470479643637,"address":"제주특별자치도 제주시 월랑로 91","phone":"0507-0289-3220","openingHours":"","services":{"parking":null,"wifi":true,"outlet":true,"driveThrough":null,"terrace":null,"pet":null},"petPolicyType":"정보 없음","lastCheckedAt":""},{"id":"봄봄_MA010120220806757779","brand":"봄봄","name":"카페봄봄제주 삼양점","lat":33.5191626918436,"lng":126.584972974944,"address":"제주특별자치도 제주시 화삼로 167","phone":"064-702-8008","openingHours":"","services":{"parking":null,"wifi":null,"outlet":null,"driveThrough":null,"terrace":null,"pet":null},"petPolicyType":"정보 없음","lastCheckedAt":""},{"id":"이디야커피_MA010120220806938869","brand":"이디야커피","name":"이디야커피시청고산동산점","lat":33.4964061800638,"lng":126.531771198013,"address":"제주특별자치도 제주시 중앙로 264","phone":"064-752-7333","openingHours":"","services":{"parking":null,"wifi":null,"outlet":null,"driveThrough":null,"terrace":null,"pet":null},"petPolicyType":"정보 없음","lastCheckedAt":""},{"id":"봄봄_MA010120220807019295","brand":"봄봄","name":"카페봄봄 남원점","lat":33.2795633316076,"lng":126.718058215051,"address":"제주특별자치도 서귀포시 남원읍 남한로 8","phone":"064-900-9200","openingHours":"","services":{"parking":null,"wifi":null,"outlet":null,"driveThrough":null,"terrace":null,"pet":null},"petPolicyType":"정보 없음","lastCheckedAt":""},{"id":"투썸플레이스_MA010120220806877964","brand":"투썸플레이스","name":"투썸플레이스제주애월하귀점","lat":33.4886489505867,"lng":126.418154348735,"address":"제주특별자치도 제주시 애월읍 일주서로 7209","phone":"064-713-8985","openingHours":"","services":{"parking":null,"wifi":true,"outlet":true,"driveThrough":null,"terrace":null,"pet":null},"petPolicyType":"정보 없음","lastCheckedAt":""},{"id":"더벤티_MA010120220806897508","brand":"더벤티","name":"더벤티법환포구점","lat":33.2355576033836,"lng":126.514465721602,"address":"제주특별자치도 서귀포시 막숙포로 68","phone":"070-8648-2598","openingHours":"","services":{"parking":null,"wifi":null,"outlet":null,"driveThrough":null,"terrace":null,"pet":null},"petPolicyType":"정보 없음","lastCheckedAt":""},{"id":"빽다방_MA010120220807003345","brand":"빽다방","name":"빽다방서귀포 시청점","lat":33.2544648280816,"lng":126.560548740994,"address":"제주특별자치도 서귀포시 중앙로 109","phone":"064-762-6451","openingHours":"","services":{"parking":null,"wifi":true,"outlet":true,"driveThrough":null,"terrace":null,"pet":null},"petPolicyType":"정보 없음","lastCheckedAt":""},{"id":"빽다방_MA010120220807163326","brand":"빽다방","name":"빽다방빵연구소제주연동점","lat":33.483750635551,"lng":126.486939970424,"address":"제주특별자치도 제주시 신광로10길 27","phone":"064-805-8403","openingHours":"","services":{"parking":null,"wifi":true,"outlet":true,"driveThrough":null,"terrace":null,"pet":null},"petPolicyType":"정보 없음","lastCheckedAt":""},{"id":"컴포즈커피_MA010120220807169813","brand":"컴포즈커피","name":"컴포즈커피서귀포 대정점","lat":33.2210765831643,"lng":126.253823046785,"address":"제주특별자치도 서귀포시 대정읍 신영로 102","phone":"","openingHours":"","services":{"parking":null,"wifi":true,"outlet":true,"driveThrough":null,"terrace":null,"pet":null},"petPolicyType":"정보 없음","lastCheckedAt":""},{"id":"컴포즈커피_MA010120220807710345","brand":"컴포즈커피","name":"컴포즈커피제주 이도점","lat":33.4887221741152,"lng":126.538333184968,"address":"제주특별자치도 제주시 구남동6길 6","phone":"064-723-4691","openingHours":"","services":{"parking":null,"wifi":true,"outlet":true,"driveThrough":null,"terrace":null,"pet":null},"petPolicyType":"정보 없음","lastCheckedAt":""},{"id":"봄봄_MA010120220807724186","brand":"봄봄","name":"카페봄봄성산점","lat":33.4514576161199,"lng":126.911577800794,"address":"제주특별자치도 서귀포시 성산읍 일주동로 4224","phone":"064-782-8289","openingHours":"","services":{"parking":null,"wifi":null,"outlet":null,"driveThrough":null,"terrace":null,"pet":null},"petPolicyType":"정보 없음","lastCheckedAt":""},{"id":"투썸플레이스_MA010120220808209103","brand":"투썸플레이스","name":"투썸플레이스연북로점","lat":33.4819403049927,"lng":126.502885096199,"address":"제주특별자치도 제주시 연북로 201","phone":"064-745-0866","openingHours":"","services":{"parking":null,"wifi":true,"outlet":true,"driveThrough":null,"terrace":null,"pet":null},"petPolicyType":"정보 없음","lastCheckedAt":""},{"id":"봄봄_MA010120220808193862","brand":"봄봄","name":"카페봄봄 서귀포점","lat":33.2531076828123,"lng":126.569516055312,"address":"제주특별자치도 서귀포시 동홍서로 47","phone":"010-7431-2237","openingHours":"","services":{"parking":null,"wifi":null,"outlet":null,"driveThrough":null,"terrace":null,"pet":null},"petPolicyType":"정보 없음","lastCheckedAt":""},{"id":"공차_MA010120220808206518","brand":"공차","name":"공차한라대점","lat":33.4786157693956,"lng":126.475027936797,"address":"제주특별자치도 제주시 한라대학로 31","phone":"064-747-7030","openingHours":"","services":{"parking":null,"wifi":false,"outlet":false,"driveThrough":null,"terrace":null,"pet":null},"petPolicyType":"정보 없음","lastCheckedAt":""},{"id":"이디야커피_MA010120220808163395","brand":"이디야커피","name":"이디야커피제주화북점","lat":33.5187693934752,"lng":126.572714816227,"address":"제주특별자치도 제주시 동화로 12","phone":"064-755-3309","openingHours":"","services":{"parking":null,"wifi":null,"outlet":null,"driveThrough":null,"terrace":null,"pet":null},"petPolicyType":"정보 없음","lastCheckedAt":""},{"id":"빽다방_MA010120220808353648","brand":"빽다방","name":"빽다방제주연동 사거리점","lat":33.4858655319027,"lng":126.49699861364,"address":"제주특별자치도 제주시 선덕로 1","phone":"064-743-0179","openingHours":"","services":{"parking":null,"wifi":true,"outlet":true,"driveThrough":null,"terrace":null,"pet":null},"petPolicyType":"정보 없음","lastCheckedAt":""},{"id":"더벤티_MA010120220808343184","brand":"더벤티","name":"서귀포더벤티 중문점","lat":33.2509213816497,"lng":126.433470260415,"address":"제주특별자치도 서귀포시 천제연로 268","phone":"0507-1465-2308","openingHours":"","services":{"parking":null,"wifi":null,"outlet":null,"driveThrough":null,"terrace":null,"pet":null},"petPolicyType":"정보 없음","lastCheckedAt":""},{"id":"빽다방_MA010120220808299719","brand":"빽다방","name":"빽다방제주 함덕점","lat":33.5451828838992,"lng":126.662178352046,"address":"제주특별자치도 제주시 조천읍 조함해안로 450","phone":"070-8287-3234","openingHours":"","services":{"parking":null,"wifi":true,"outlet":true,"driveThrough":null,"terrace":null,"pet":null},"petPolicyType":"정보 없음","lastCheckedAt":""},{"id":"투썸플레이스_MA010120220808315086","brand":"투썸플레이스","name":"투썸플레이스제주남원농협하나로마트점","lat":33.2843952758353,"lng":126.721703336165,"address":"제주특별자치도 서귀포시 남원읍 남조로 52","phone":"064-764-1492","openingHours":"","services":{"parking":null,"wifi":true,"outlet":true,"driveThrough":null,"terrace":null,"pet":null},"petPolicyType":"정보 없음","lastCheckedAt":""},{"id":"공차_MA010120220808282946","brand":"공차","name":"공차제주아라점","lat":33.4730511911373,"lng":126.545312300962,"address":"제주특별자치도 제주시 중앙로 566","phone":"064-758-0705","openingHours":"","services":{"parking":null,"wifi":false,"outlet":false,"driveThrough":null,"terrace":null,"pet":null},"petPolicyType":"정보 없음","lastCheckedAt":""},{"id":"빽다방_MA010120220808398978","brand":"빽다방","name":"빽다방제주제원점","lat":33.4871974346677,"lng":126.489781780061,"address":"제주특별자치도 제주시 신광로 56","phone":"064-747-2451","openingHours":"","services":{"parking":null,"wifi":true,"outlet":true,"driveThrough":null,"terrace":null,"pet":null},"petPolicyType":"정보 없음","lastCheckedAt":""},{"id":"빽다방_MA010120220808394653","brand":"빽다방","name":"빽다방제주일도 동문점","lat":33.5120296771657,"lng":126.531482564516,"address":"제주특별자치도 제주시 신산로 14","phone":"064-755-0100","openingHours":"","services":{"parking":null,"wifi":true,"outlet":true,"driveThrough":null,"terrace":null,"pet":null},"petPolicyType":"정보 없음","lastCheckedAt":""},{"id":"봄봄_MA010120220808477365","brand":"봄봄","name":"봄봄","lat":33.450540264865,"lng":126.558336296537,"address":"제주특별자치도 제주시 산천단동3길 31","phone":"064-758-7740","openingHours":"","services":{"parking":null,"wifi":null,"outlet":null,"driveThrough":null,"terrace":null,"pet":null},"petPolicyType":"정보 없음","lastCheckedAt":""},{"id":"더벤티_MA010120220808571317","brand":"더벤티","name":"더벤티제주 노형점","lat":33.4866896553268,"lng":126.478260976881,"address":"제주특별자치도 제주시 월랑로 5","phone":"070-8900-9144","openingHours":"","services":{"parking":null,"wifi":null,"outlet":null,"driveThrough":null,"terrace":null,"pet":null},"petPolicyType":"정보 없음","lastCheckedAt":""},{"id":"투썸플레이스_MA010120220808560489","brand":"투썸플레이스","name":"투썸플레이스서귀포 신시가지점","lat":33.2518163780675,"lng":126.510480481111,"address":"제주특별자치도 서귀포시 신서귀로 31","phone":"064-738-2496","openingHours":"","services":{"parking":null,"wifi":true,"outlet":true,"driveThrough":null,"terrace":null,"pet":null},"petPolicyType":"정보 없음","lastCheckedAt":""},{"id":"컴포즈커피_MA010120220808550746","brand":"컴포즈커피","name":"컴포즈커피제주 노형점","lat":33.4813536769828,"lng":126.482908652331,"address":"제주특별자치도 제주시 과원북4길 9","phone":"064-747-2991","openingHours":"","services":{"parking":null,"wifi":true,"outlet":true,"driveThrough":null,"terrace":null,"pet":null},"petPolicyType":"정보 없음","lastCheckedAt":""},{"id":"봄봄_MA010120220808620412","brand":"봄봄","name":"카페봄봄 조천점","lat":33.5351613371551,"lng":126.623007843691,"address":"제주특별자치도 제주시 조천읍 신북로 88","phone":"","openingHours":"","services":{"parking":null,"wifi":null,"outlet":null,"driveThrough":null,"terrace":null,"pet":null},"petPolicyType":"정보 없음","lastCheckedAt":""},{"id":"할리스_MA010120220808665274","brand":"할리스","name":"할리스커피협재해수욕장점","lat":33.3929567236909,"lng":126.240244568317,"address":"제주특별자치도 제주시 한림읍 한림로 330","phone":"","openingHours":"","services":{"parking":null,"wifi":true,"outlet":true,"driveThrough":null,"terrace":null,"pet":null},"petPolicyType":"정보 없음","lastCheckedAt":""},{"id":"감성커피_MA010120220808764222","brand":"감성커피","name":"감성커피 봉개점","lat":33.4962692784232,"lng":126.581714026106,"address":"제주특별자치도 제주시 번영로 356","phone":"064-722-6729","openingHours":"","services":{"parking":null,"wifi":null,"outlet":null,"driveThrough":null,"terrace":null,"pet":null},"petPolicyType":"정보 없음","lastCheckedAt":""},{"id":"컴포즈커피_MA010120220809138733","brand":"컴포즈커피","name":"컴포즈커피연동점","lat":33.4811352148132,"lng":126.491119180073,"address":"제주특별자치도 제주시 과원북4길 89","phone":"064-743-7789","openingHours":"","services":{"parking":null,"wifi":true,"outlet":true,"driveThrough":null,"terrace":null,"pet":null},"petPolicyType":"정보 없음","lastCheckedAt":""},{"id":"더벤티_MA010120220809230054","brand":"더벤티","name":"더벤티커피고성교차로점","lat":33.4471040438347,"lng":126.913292280813,"address":"제주특별자치도 서귀포시 성산읍 일출로 4","phone":"","openingHours":"","services":{"parking":null,"wifi":null,"outlet":null,"driveThrough":null,"terrace":null,"pet":null},"petPolicyType":"정보 없음","lastCheckedAt":""},{"id":"메가MGC커피_MA010120220809395311","brand":"메가MGC커피","name":"메가엠지씨커피제주동문 시장점","lat":33.5133261613587,"lng":126.526266208425,"address":"제주특별자치도 제주시 관덕로 65","phone":"064-753-7539","openingHours":"","services":{"parking":null,"wifi":null,"outlet":null,"driveThrough":null,"terrace":null,"pet":null},"petPolicyType":"정보 없음","lastCheckedAt":""},{"id":"감성커피_MA010120220809580131","brand":"감성커피","name":"감성커피연동점","lat":33.4839139090953,"lng":126.491554830211,"address":"제주특별자치도 제주시 신대로20길 46","phone":"","openingHours":"","services":{"parking":null,"wifi":null,"outlet":null,"driveThrough":null,"terrace":null,"pet":null},"petPolicyType":"정보 없음","lastCheckedAt":""},{"id":"메가MGC커피_MA010120220809601816","brand":"메가MGC커피","name":"메가엠지씨커피제주 봉개점","lat":33.4916093421456,"lng":126.592938116568,"address":"제주특별자치도 제주시 번영로 475","phone":"064-900-3633","openingHours":"","services":{"parking":null,"wifi":null,"outlet":null,"driveThrough":null,"terrace":null,"pet":null},"petPolicyType":"정보 없음","lastCheckedAt":""},{"id":"빽다방_MA010120220809634456","brand":"빽다방","name":"빽다방서귀포하원점","lat":33.2536511108436,"lng":126.461385835325,"address":"제주특별자치도 서귀포시 일주서로 443","phone":"064-803-0110","openingHours":"","services":{"parking":null,"wifi":true,"outlet":true,"driveThrough":null,"terrace":null,"pet":null},"petPolicyType":"정보 없음","lastCheckedAt":""},{"id":"메가MGC커피_MA010120220809794025","brand":"메가MGC커피","name":"메가엠지씨커피제주연동점","lat":33.4787135245679,"lng":126.48761519533,"address":"제주특별자치도 제주시 과원북2길 48","phone":"064-743-2080","openingHours":"","services":{"parking":null,"wifi":null,"outlet":null,"driveThrough":null,"terrace":null,"pet":null},"petPolicyType":"정보 없음","lastCheckedAt":""},{"id":"공차_MA010120220809926957","brand":"공차","name":"공차제주연동점","lat":33.4889395021931,"lng":126.49026652961,"address":"제주특별자치도 제주시 신광로 35","phone":"064-783-7000","openingHours":"","services":{"parking":null,"wifi":false,"outlet":false,"driveThrough":null,"terrace":null,"pet":null},"petPolicyType":"정보 없음","lastCheckedAt":""},{"id":"컴포즈커피_MA010120220809920256","brand":"컴포즈커피","name":"컴포즈커피제주아라점","lat":33.4759801405553,"lng":126.544974246002,"address":"제주특별자치도 제주시 중앙로 531","phone":"070-8900-3080","openingHours":"","services":{"parking":null,"wifi":true,"outlet":true,"driveThrough":null,"terrace":null,"pet":null},"petPolicyType":"정보 없음","lastCheckedAt":""},{"id":"엔제리너스_MA010120220810099115","brand":"엔제리너스","name":"엔제리너스제주 시청점","lat":33.4955255213554,"lng":126.532539966535,"address":"제주특별자치도 제주시 중앙로 274-1","phone":"064-723-6677","openingHours":"","services":{"parking":null,"wifi":null,"outlet":null,"driveThrough":null,"terrace":null,"pet":null},"petPolicyType":"정보 없음","lastCheckedAt":""},{"id":"봄봄_MA010120220810096064","brand":"봄봄","name":"봄봄도두점","lat":33.5034241935414,"lng":126.465805936484,"address":"제주특별자치도 제주시 도공로 32","phone":"","openingHours":"","services":{"parking":null,"wifi":null,"outlet":null,"driveThrough":null,"terrace":null,"pet":null},"petPolicyType":"정보 없음","lastCheckedAt":""},{"id":"빽다방_MA010120220810238705","brand":"빽다방","name":"빽다방빵연구소제주합동 청사점","lat":33.4901311062032,"lng":126.527027405061,"address":"제주특별자치도 제주시 청사로 75","phone":"064-722-3334","openingHours":"","services":{"parking":null,"wifi":true,"outlet":true,"driveThrough":null,"terrace":null,"pet":null},"petPolicyType":"정보 없음","lastCheckedAt":""},{"id":"컴포즈커피_MA010120220810272206","brand":"컴포즈커피","name":"컴포즈커피서귀포 동홍점","lat":33.2582170847424,"lng":126.568696845548,"address":"제주특별자치도 서귀포시 동홍로 108","phone":"","openingHours":"","services":{"parking":null,"wifi":true,"outlet":true,"driveThrough":null,"terrace":null,"pet":null},"petPolicyType":"정보 없음","lastCheckedAt":""},{"id":"투썸플레이스_MA010120220810180049","brand":"투썸플레이스","name":"투썸플레이스엠제이벤처오름점","lat":33.4545640860538,"lng":126.571954395541,"address":"제주특별자치도 제주시 첨단로 199","phone":"","openingHours":"","services":{"parking":null,"wifi":true,"outlet":true,"driveThrough":null,"terrace":null,"pet":null},"petPolicyType":"정보 없음","lastCheckedAt":""},{"id":"봄봄_MA010120220810225456","brand":"봄봄","name":"카페봄봄김녕점","lat":33.5559903794948,"lng":126.752645812078,"address":"제주특별자치도 제주시 구좌읍 김녕로15길 11","phone":"064-784-3441","openingHours":"","services":{"parking":null,"wifi":null,"outlet":null,"driveThrough":null,"terrace":null,"pet":null},"petPolicyType":"정보 없음","lastCheckedAt":""},{"id":"투썸플레이스_MA010120220810215482","brand":"투썸플레이스","name":"투썸플레이스제주쇠소깍점","lat":33.2522433155358,"lng":126.622628378243,"address":"제주특별자치도 서귀포시 쇠소깍로 134","phone":"064-732-0756","openingHours":"","services":{"parking":null,"wifi":true,"outlet":true,"driveThrough":null,"terrace":null,"pet":null},"petPolicyType":"정보 없음","lastCheckedAt":""},{"id":"빽다방_MA010120220810244572","brand":"빽다방","name":"빽다방서귀포성읍 마을점","lat":33.3846840600333,"lng":126.802204589188,"address":"제주특별자치도 서귀포시 표선면 성읍정의현로22번길 9-1","phone":"","openingHours":"","services":{"parking":null,"wifi":true,"outlet":true,"driveThrough":null,"terrace":null,"pet":null},"petPolicyType":"정보 없음","lastCheckedAt":""},{"id":"봄봄_MA010120220810385821","brand":"봄봄","name":"카페봄봄용담점","lat":33.5125846386517,"lng":126.509479877787,"address":"제주특별자치도 제주시 용담로 64","phone":"064-713-8819","openingHours":"","services":{"parking":null,"wifi":null,"outlet":null,"driveThrough":null,"terrace":null,"pet":null},"petPolicyType":"정보 없음","lastCheckedAt":""},{"id":"컴포즈커피_MA010120220810596396","brand":"컴포즈커피","name":"컴포즈커피화북공단점","lat":33.5121926994049,"lng":126.563781533623,"address":"제주특별자치도 제주시 화남로 65","phone":"010-5720-4556","openingHours":"","services":{"parking":null,"wifi":true,"outlet":true,"driveThrough":null,"terrace":null,"pet":null},"petPolicyType":"정보 없음","lastCheckedAt":""},{"id":"공차_MA010120220811360110","brand":"공차","name":"공차제주 시청점","lat":33.4980682684211,"lng":126.530223388717,"address":"제주특별자치도 제주시 신성로13길 25","phone":"064-751-9988","openingHours":"","services":{"parking":null,"wifi":false,"outlet":false,"driveThrough":null,"terrace":null,"pet":null},"petPolicyType":"정보 없음","lastCheckedAt":""},{"id":"이디야커피_MA010120220811350020","brand":"이디야커피","name":"이디야커피연동점","lat":33.4896790552776,"lng":126.490326757944,"address":"제주특별자치도 제주시 신광로 27","phone":"064-744-8666","openingHours":"","services":{"parking":null,"wifi":null,"outlet":null,"driveThrough":null,"terrace":null,"pet":null},"petPolicyType":"정보 없음","lastCheckedAt":""},{"id":"투썸플레이스_MA010120220811353312","brand":"투썸플레이스","name":"투썸플레이스제주연동점","lat":33.4850532021856,"lng":126.490160180499,"address":"제주특별자치도 제주시 신광로 79","phone":"064-745-7484","openingHours":"","services":{"parking":null,"wifi":true,"outlet":true,"driveThrough":null,"terrace":null,"pet":null},"petPolicyType":"정보 없음","lastCheckedAt":""},{"id":"컴포즈커피_MA010120220811309073","brand":"컴포즈커피","name":"컴포즈커피제주제원점","lat":33.4885024954381,"lng":126.489236124059,"address":"제주특별자치도 제주시 제원길 16","phone":"064-743-5010","openingHours":"","services":{"parking":null,"wifi":true,"outlet":true,"driveThrough":null,"terrace":null,"pet":null},"petPolicyType":"정보 없음","lastCheckedAt":""},{"id":"이디야커피_MA010120220811335410","brand":"이디야커피","name":"이디야커피 전문점","lat":33.2483307587086,"lng":126.509126404627,"address":"제주특별자치도 서귀포시 일주동로 9209","phone":"064-739-8762","openingHours":"","services":{"parking":null,"wifi":null,"outlet":null,"driveThrough":null,"terrace":null,"pet":null},"petPolicyType":"정보 없음","lastCheckedAt":""},{"id":"카페베네_MA010120220811360528","brand":"카페베네","name":"카페베네이도일동점","lat":33.5064891976538,"lng":126.525507052491,"address":"제주특별자치도 제주시 고전길 5","phone":"","openingHours":"","services":{"parking":null,"wifi":true,"outlet":true,"driveThrough":null,"terrace":null,"pet":null},"petPolicyType":"정보 없음","lastCheckedAt":""},{"id":"이디야커피_MA010120220811324617","brand":"이디야커피","name":"이디야커피 중앙점","lat":33.5133522616018,"lng":126.526018513522,"address":"제주특별자치도 제주시 관덕로13길 2","phone":"064-722-0907","openingHours":"","services":{"parking":null,"wifi":null,"outlet":null,"driveThrough":null,"terrace":null,"pet":null},"petPolicyType":"정보 없음","lastCheckedAt":""},{"id":"빽다방_MA010120220811379548","brand":"빽다방","name":"빽다방베이커리제주사수점","lat":33.5092855886279,"lng":126.476618644162,"address":"제주특별자치도 제주시 서해안로 291-5","phone":"064-711-0228","openingHours":"","services":{"parking":null,"wifi":true,"outlet":true,"driveThrough":null,"terrace":null,"pet":null},"petPolicyType":"정보 없음","lastCheckedAt":""},{"id":"봄봄_MA010120220811698271","brand":"봄봄","name":"카페봄봄오라점","lat":33.4964083737331,"lng":126.509043831345,"address":"제주특별자치도 제주시 오라로 51","phone":"064-743-1001","openingHours":"","services":{"parking":null,"wifi":null,"outlet":null,"driveThrough":null,"terrace":null,"pet":null},"petPolicyType":"정보 없음","lastCheckedAt":""},{"id":"빽다방_MA010120220811657210","brand":"빽다방","name":"빽다방제주삼도일동점","lat":33.5070613821879,"lng":126.519573859628,"address":"제주특별자치도 제주시 서사로8길 1","phone":"070-4366-0812","openingHours":"","services":{"parking":null,"wifi":true,"outlet":true,"driveThrough":null,"terrace":null,"pet":null},"petPolicyType":"정보 없음","lastCheckedAt":""},{"id":"투썸플레이스_MA010120220811849514","brand":"투썸플레이스","name":"투썸플레이스제주대학 병원점","lat":33.4691153056164,"lng":126.546430140765,"address":"제주특별자치도 제주시 아란13길 10","phone":"064-702-5810","openingHours":"","services":{"parking":null,"wifi":true,"outlet":true,"driveThrough":null,"terrace":null,"pet":null},"petPolicyType":"정보 없음","lastCheckedAt":""},{"id":"봄봄_MA010120220811952854","brand":"봄봄","name":"카페봄봄 동홍점","lat":33.2581034974994,"lng":126.572356939473,"address":"제주특별자치도 서귀포시 동홍중앙로90번길 4-8","phone":"064-732-0946","openingHours":"","services":{"parking":null,"wifi":null,"outlet":null,"driveThrough":null,"terrace":null,"pet":null},"petPolicyType":"정보 없음","lastCheckedAt":""},{"id":"더벤티_MA010120220812070038","brand":"더벤티","name":"더벤티제주대학교점","lat":33.4572331874152,"lng":126.564293590979,"address":"제주특별자치도 제주시 제주대학로 102","phone":"064-722-3188","openingHours":"","services":{"parking":null,"wifi":null,"outlet":null,"driveThrough":null,"terrace":null,"pet":null},"petPolicyType":"정보 없음","lastCheckedAt":""},{"id":"감성커피_MA010120220812206531","brand":"감성커피","name":"감성커피삼화점","lat":33.5215721387134,"lng":126.585628848726,"address":"제주특별자치도 제주시 지석13길 2-2","phone":"064-721-4150","openingHours":"","services":{"parking":null,"wifi":null,"outlet":null,"driveThrough":null,"terrace":null,"pet":null},"petPolicyType":"정보 없음","lastCheckedAt":""},{"id":"빽다방_MA010120220812135565","brand":"빽다방","name":"빽다방신 서귀포점","lat":33.2547177674872,"lng":126.507727814529,"address":"제주특별자치도 서귀포시 신중로 26-8","phone":"","openingHours":"","services":{"parking":null,"wifi":true,"outlet":true,"driveThrough":null,"terrace":null,"pet":null},"petPolicyType":"정보 없음","lastCheckedAt":""},{"id":"이디야커피_MA010120220812301961","brand":"이디야커피","name":"이디야커피제주연북로점","lat":33.4816687675825,"lng":126.484961789616,"address":"제주특별자치도 제주시 연북로 34","phone":"064-747-0941","openingHours":"","services":{"parking":null,"wifi":null,"outlet":null,"driveThrough":null,"terrace":null,"pet":null},"petPolicyType":"정보 없음","lastCheckedAt":""},{"id":"더벤티_MA010120220812340914","brand":"더벤티","name":"더벤티제주외도점","lat":33.4912304548443,"lng":126.430436166194,"address":"제주특별자치도 제주시 우정로4길 3-1","phone":"070-8691-3813","openingHours":"","services":{"parking":null,"wifi":null,"outlet":null,"driveThrough":null,"terrace":null,"pet":null},"petPolicyType":"정보 없음","lastCheckedAt":""},{"id":"더벤티_MA010120220812571588","brand":"더벤티","name":"더벤티제주용담점","lat":33.5131880504069,"lng":126.507044005892,"address":"제주특별자치도 제주시 용담로 39","phone":"064-746-1200","openingHours":"","services":{"parking":null,"wifi":null,"outlet":null,"driveThrough":null,"terrace":null,"pet":null},"petPolicyType":"정보 없음","lastCheckedAt":""},{"id":"봄봄_MA010120220812660621","brand":"봄봄","name":"봄봄화북점","lat":33.5239347713865,"lng":126.567307169143,"address":"제주특별자치도 제주시 진동로 55","phone":"064-725-7720","openingHours":"","services":{"parking":null,"wifi":null,"outlet":null,"driveThrough":null,"terrace":null,"pet":null},"petPolicyType":"정보 없음","lastCheckedAt":""},{"id":"투썸플레이스_MA010120220812588013","brand":"투썸플레이스","name":"투썸플레이스신화빌라스점","lat":33.30137939057,"lng":126.317528908912,"address":"제주특별자치도 서귀포시 안덕면 신화역사로304번길 139","phone":"","openingHours":"","services":{"parking":null,"wifi":true,"outlet":true,"driveThrough":null,"terrace":null,"pet":null},"petPolicyType":"정보 없음","lastCheckedAt":""},{"id":"컴포즈커피_MA010120220812671933","brand":"컴포즈커피","name":"컴포즈커피한림점","lat":33.4099143347464,"lng":126.265488853323,"address":"제주특별자치도 제주시 한림읍 한림상로 116","phone":"","openingHours":"","services":{"parking":null,"wifi":true,"outlet":true,"driveThrough":null,"terrace":null,"pet":null},"petPolicyType":"정보 없음","lastCheckedAt":""},{"id":"봄봄_MA010120220812728219","brand":"봄봄","name":"봄봄카페오일장점","lat":33.4933708289358,"lng":126.484817191608,"address":"제주특별자치도 제주시 성신북길 36","phone":"064-747-9520","openingHours":"","services":{"parking":null,"wifi":null,"outlet":null,"driveThrough":null,"terrace":null,"pet":null},"petPolicyType":"정보 없음","lastCheckedAt":""},{"id":"빽다방_MA010120220812668458","brand":"빽다방","name":"빽다방제주동광육 거리점","lat":33.3100098379471,"lng":126.341299943311,"address":"제주특별자치도 서귀포시 안덕면 신화역사로 502","phone":"064-794-0060","openingHours":"","services":{"parking":null,"wifi":true,"outlet":true,"driveThrough":null,"terrace":null,"pet":null},"petPolicyType":"정보 없음","lastCheckedAt":""},{"id":"이디야커피_MA010120220812869631","brand":"이디야커피","name":"이디야커피서귀포 동홍점","lat":33.2556952665259,"lng":126.574729598358,"address":"제주특별자치도 서귀포시 동홍동로 9","phone":"064-733-0977","openingHours":"","services":{"parking":null,"wifi":null,"outlet":null,"driveThrough":null,"terrace":null,"pet":null},"petPolicyType":"정보 없음","lastCheckedAt":""},{"id":"투썸플레이스_MA010120220812785601","brand":"투썸플레이스","name":"투썸플레이스제주아라점","lat":33.4743063454348,"lng":126.548307322419,"address":"제주특별자치도 제주시 인다10길 26","phone":"064-702-6364","openingHours":"","services":{"parking":null,"wifi":true,"outlet":true,"driveThrough":null,"terrace":null,"pet":null},"petPolicyType":"정보 없음","lastCheckedAt":""},{"id":"공차_MA010120220812829454","brand":"공차","name":"공차제주 일도점","lat":33.5054041362108,"lng":126.541430237215,"address":"제주특별자치도 제주시 고마로 101","phone":"064-702-3156","openingHours":"","services":{"parking":null,"wifi":false,"outlet":false,"driveThrough":null,"terrace":null,"pet":null},"petPolicyType":"정보 없음","lastCheckedAt":""},{"id":"더벤티_MA010120220812995460","brand":"더벤티","name":"더벤티제주삼화점","lat":33.516766714384,"lng":126.580291480691,"address":"제주특별자치도 제주시 건주로4길 6-8","phone":"064-759-7001","openingHours":"","services":{"parking":null,"wifi":null,"outlet":null,"driveThrough":null,"terrace":null,"pet":null},"petPolicyType":"정보 없음","lastCheckedAt":""},{"id":"컴포즈커피_MA010120220813012388","brand":"컴포즈커피","name":"컴포즈커피토평점","lat":33.2678741697655,"lng":126.590211930496,"address":"제주특별자치도 서귀포시 중산간동로 7735","phone":"","openingHours":"","services":{"parking":null,"wifi":true,"outlet":true,"driveThrough":null,"terrace":null,"pet":null},"petPolicyType":"정보 없음","lastCheckedAt":""},{"id":"봄봄_MA010120220813156039","brand":"봄봄","name":"봄봄표선점","lat":33.3257181581739,"lng":126.833097721787,"address":"제주특별자치도 서귀포시 표선면 표선중앙로 86","phone":"064-787-1124","openingHours":"","services":{"parking":null,"wifi":null,"outlet":null,"driveThrough":null,"terrace":null,"pet":null},"petPolicyType":"정보 없음","lastCheckedAt":""},{"id":"탐앤탐스_MA010120220813049932","brand":"탐앤탐스","name":"탐앤탐스신제주점","lat":33.4874491654793,"lng":126.489608145045,"address":"제주특별자치도 제주시 신광로 52","phone":"064-748-1266","openingHours":"","services":{"parking":null,"wifi":true,"outlet":true,"driveThrough":null,"terrace":null,"pet":null},"petPolicyType":"정보 없음","lastCheckedAt":""},{"id":"봄봄_MA010120220813210039","brand":"봄봄","name":"카페봄봄세화점","lat":33.5245319250153,"lng":126.853621827423,"address":"제주특별자치도 제주시 구좌읍 세평항로 12","phone":"064-904-1363","openingHours":"","services":{"parking":null,"wifi":null,"outlet":null,"driveThrough":null,"terrace":null,"pet":null},"petPolicyType":"정보 없음","lastCheckedAt":""},{"id":"스타벅스_MA010120220813221583","brand":"스타벅스","name":"스타벅스부동산","lat":33.5166903273771,"lng":126.503558276314,"address":"제주특별자치도 제주시 서해안로 624","phone":"","openingHours":"","services":{"parking":null,"wifi":true,"outlet":true,"driveThrough":null,"terrace":null,"pet":null},"petPolicyType":"정보 없음","lastCheckedAt":""},{"id":"더벤티_MA010120220813214530","brand":"더벤티","name":"더벤티해비치리조트점","lat":33.3248395267852,"lng":126.843850190382,"address":"제주특별자치도 서귀포시 표선면 민속해안로 577","phone":"064-805-8385","openingHours":"","services":{"parking":null,"wifi":null,"outlet":null,"driveThrough":null,"terrace":null,"pet":null},"petPolicyType":"정보 없음","lastCheckedAt":""},{"id":"컴포즈커피_MA010120220813598588","brand":"컴포즈커피","name":"컴포즈커피서귀포성산점","lat":33.4509351101045,"lng":126.912180643642,"address":"제주특별자치도 서귀포시 성산읍 일주동로 4229","phone":"010-2118-9949","openingHours":"","services":{"parking":null,"wifi":true,"outlet":true,"driveThrough":null,"terrace":null,"pet":null},"petPolicyType":"정보 없음","lastCheckedAt":""},{"id":"봄봄_MA010120220813564741","brand":"봄봄","name":"봄봄","lat":33.4603145048557,"lng":126.561126487602,"address":"제주특별자치도 제주시 제주대학로 105-1","phone":"010-9560-7740","openingHours":"","services":{"parking":null,"wifi":null,"outlet":null,"driveThrough":null,"terrace":null,"pet":null},"petPolicyType":"정보 없음","lastCheckedAt":""},{"id":"봄봄_MA010120220813580797","brand":"봄봄","name":"카페봄봄서귀 중앙점","lat":33.2504819682624,"lng":126.561212527375,"address":"제주특별자치도 서귀포시 중앙로 65","phone":"064-733-6323","openingHours":"","services":{"parking":null,"wifi":null,"outlet":null,"driveThrough":null,"terrace":null,"pet":null},"petPolicyType":"정보 없음","lastCheckedAt":""},{"id":"투썸플레이스_MA010120220813540695","brand":"투썸플레이스","name":"투썸플레이스제주 이도점","lat":33.4947607244782,"lng":126.532952989345,"address":"제주특별자치도 제주시 중앙로 286","phone":"064-755-1516","openingHours":"","services":{"parking":null,"wifi":true,"outlet":true,"driveThrough":null,"terrace":null,"pet":null},"petPolicyType":"정보 없음","lastCheckedAt":""},{"id":"메가MGC커피_MA010120220813574141","brand":"메가MGC커피","name":"메가엠지씨커피제주 남원점","lat":33.2784613245574,"lng":126.717170807765,"address":"제주특별자치도 서귀포시 남원읍 태위로 660","phone":"064-764-6363","openingHours":"","services":{"parking":null,"wifi":null,"outlet":null,"driveThrough":null,"terrace":null,"pet":null},"petPolicyType":"정보 없음","lastCheckedAt":""},{"id":"봄봄_MA010120220813668889","brand":"봄봄","name":"카페봄봄 중문점","lat":33.2528584268682,"lng":126.421406801463,"address":"제주특별자치도 서귀포시 천제연로 153","phone":"070-4548-5034","openingHours":"","services":{"parking":null,"wifi":null,"outlet":null,"driveThrough":null,"terrace":null,"pet":null},"petPolicyType":"정보 없음","lastCheckedAt":""},{"id":"공차_MA010120220813845146","brand":"공차","name":"공차이마트신제주점","lat":33.4849677283175,"lng":126.480433984363,"address":"제주특별자치도 제주시 1100로 3348","phone":"064-743-0782","openingHours":"","services":{"parking":null,"wifi":false,"outlet":false,"driveThrough":null,"terrace":null,"pet":null},"petPolicyType":"정보 없음","lastCheckedAt":""},{"id":"메가MGC커피_MA0101202209A0007676","brand":"메가MGC커피","name":"메가엠지씨커피제주한라대점","lat":33.4761619015656,"lng":126.478937322889,"address":"제주특별자치도 제주시 한라대학로 82","phone":"064-742-7142","openingHours":"","services":{"parking":null,"wifi":null,"outlet":null,"driveThrough":null,"terrace":null,"pet":null},"petPolicyType":"정보 없음","lastCheckedAt":""},{"id":"메가MGC커피_MA0101202209A0054638","brand":"메가MGC커피","name":"메가엠지씨커피제주표선점","lat":33.326241130058,"lng":126.833118205236,"address":"제주특별자치도 서귀포시 표선면 표선동서로 252","phone":"064-787-8200","openingHours":"","services":{"parking":null,"wifi":null,"outlet":null,"driveThrough":null,"terrace":null,"pet":null},"petPolicyType":"정보 없음","lastCheckedAt":""},{"id":"메가MGC커피_MA0101202210A0008733","brand":"메가MGC커피","name":"메가엠지씨커피서귀포여중점","lat":33.2555178119191,"lng":126.544972135594,"address":"제주특별자치도 서귀포시 일주동로 8840","phone":"064-762-9777","openingHours":"","services":{"parking":null,"wifi":null,"outlet":null,"driveThrough":null,"terrace":null,"pet":null},"petPolicyType":"정보 없음","lastCheckedAt":""},{"id":"메가MGC커피_MA0101202210A0039512","brand":"메가MGC커피","name":"메가엠지씨커피신제주점","lat":33.486043158632,"lng":126.489723989877,"address":"제주특별자치도 제주시 노연로 89","phone":"064-711-8850","openingHours":"","services":{"parking":null,"wifi":null,"outlet":null,"driveThrough":null,"terrace":null,"pet":null},"petPolicyType":"정보 없음","lastCheckedAt":""},{"id":"메가MGC커피_MA0101202211A0050252","brand":"메가MGC커피","name":"메가엠지씨커피제주무지개 해안점","lat":33.5087509123037,"lng":126.471724900115,"address":"제주특별자치도 제주시 서해안로 242","phone":"064-747-1133","openingHours":"","services":{"parking":null,"wifi":null,"outlet":null,"driveThrough":null,"terrace":null,"pet":null},"petPolicyType":"정보 없음","lastCheckedAt":""},{"id":"빽다방_MA0101202301A0015761","brand":"빽다방","name":"빽다방제주일도인제점","lat":33.505402382645,"lng":126.540956710374,"address":"제주특별자치도 제주시 고마로 100","phone":"064-755-2023","openingHours":"","services":{"parking":null,"wifi":true,"outlet":true,"driveThrough":null,"terrace":null,"pet":null},"petPolicyType":"정보 없음","lastCheckedAt":""},{"id":"컴포즈커피_MA0101202212A0059850","brand":"컴포즈커피","name":"컴포즈커피제주공항렌트카점","lat":33.5015021025152,"lng":126.488912267526,"address":"제주특별자치도 제주시 다호5길 17","phone":"","openingHours":"","services":{"parking":null,"wifi":true,"outlet":true,"driveThrough":null,"terrace":null,"pet":null},"petPolicyType":"정보 없음","lastCheckedAt":""},{"id":"봄봄_MA0101202212A0081476","brand":"봄봄","name":"봄봄516점","lat":33.2710870101716,"lng":126.585688906838,"address":"제주특별자치도 서귀포시 516로 202","phone":"064-733-5134","openingHours":"","services":{"parking":null,"wifi":null,"outlet":null,"driveThrough":null,"terrace":null,"pet":null},"petPolicyType":"정보 없음","lastCheckedAt":""},{"id":"할리스_MA0101202302A0022346","brand":"할리스","name":"할리스 이도점","lat":33.4938181215304,"lng":126.534034124869,"address":"제주특별자치도 제주시 중앙로 302","phone":"070-7694-2323","openingHours":"","services":{"parking":null,"wifi":true,"outlet":true,"driveThrough":null,"terrace":null,"pet":null},"petPolicyType":"정보 없음","lastCheckedAt":""},{"id":"메가MGC커피_MA0101202301A0058993","brand":"메가MGC커피","name":"메가엠지씨커피제주외도점","lat":33.4885357262617,"lng":126.430658247825,"address":"제주특별자치도 제주시 우정로 50","phone":"064-746-0663","openingHours":"","services":{"parking":null,"wifi":null,"outlet":null,"driveThrough":null,"terrace":null,"pet":null},"petPolicyType":"정보 없음","lastCheckedAt":""},{"id":"봄봄_MA0101202302A0032156","brand":"봄봄","name":"봄봄제주 동문점","lat":33.5141153191448,"lng":126.537068217366,"address":"제주특별자치도 제주시 동문로 97","phone":"064-756-4333","openingHours":"","services":{"parking":null,"wifi":null,"outlet":null,"driveThrough":null,"terrace":null,"pet":null},"petPolicyType":"정보 없음","lastCheckedAt":""},{"id":"메가MGC커피_MA0101202302A0068668","brand":"메가MGC커피","name":"메가엠지씨커피협재해수욕장점","lat":33.3931555889638,"lng":126.240328822736,"address":"제주특별자치도 제주시 한림읍 한림로 332-1","phone":"064-796-4516","openingHours":"","services":{"parking":null,"wifi":null,"outlet":null,"driveThrough":null,"terrace":null,"pet":null},"petPolicyType":"정보 없음","lastCheckedAt":""},{"id":"빽다방_MA0101202303A0059394","brand":"빽다방","name":"빽다방제주아라점","lat":33.4745960659285,"lng":126.54863932885,"address":"제주특별자치도 제주시 인다10길 27","phone":"064-721-8288","openingHours":"","services":{"parking":null,"wifi":true,"outlet":true,"driveThrough":null,"terrace":null,"pet":null},"petPolicyType":"정보 없음","lastCheckedAt":""},{"id":"매머드커피_MA0101202303A0051708","brand":"매머드커피","name":"매머드익스프레스서귀포일호 광장점","lat":33.2519673960211,"lng":126.560571973259,"address":"제주특별자치도 서귀포시 서문로 5-2","phone":"","openingHours":"","services":{"parking":null,"wifi":null,"outlet":null,"driveThrough":null,"terrace":null,"pet":null},"petPolicyType":"정보 없음","lastCheckedAt":""},{"id":"더벤티_MA0101202303A0088369","brand":"더벤티","name":"더벤티서홍점","lat":33.2564731759668,"lng":126.557362141932,"address":"제주특별자치도 서귀포시 홍중로 43","phone":"064-763-8870","openingHours":"","services":{"parking":null,"wifi":null,"outlet":null,"driveThrough":null,"terrace":null,"pet":null},"petPolicyType":"정보 없음","lastCheckedAt":""},{"id":"컴포즈커피_MA0101202303A0057692","brand":"컴포즈커피","name":"컴포즈커피제주 함덕점","lat":33.5421171994046,"lng":126.665398784936,"address":"제주특별자치도 제주시 조천읍 조함해안로 492-5","phone":"010-8229-7402","openingHours":"","services":{"parking":null,"wifi":true,"outlet":true,"driveThrough":null,"terrace":null,"pet":null},"petPolicyType":"정보 없음","lastCheckedAt":""},{"id":"컴포즈커피_MA0101202303A0092836","brand":"컴포즈커피","name":"컴포즈커피제주동초교점","lat":33.5133727749698,"lng":126.533800169145,"address":"제주특별자치도 제주시 동문로 66-1","phone":"","openingHours":"","services":{"parking":null,"wifi":true,"outlet":true,"driveThrough":null,"terrace":null,"pet":null},"petPolicyType":"정보 없음","lastCheckedAt":""},{"id":"메가MGC커피_MA0101202305A0054253","brand":"메가MGC커피","name":"메가엠지씨커피제주버스 터미널점","lat":33.500333551246,"lng":126.514445489002,"address":"제주특별자치도 제주시 서광로 167","phone":"064-756-1002","openingHours":"","services":{"parking":null,"wifi":null,"outlet":null,"driveThrough":null,"terrace":null,"pet":null},"petPolicyType":"정보 없음","lastCheckedAt":""},{"id":"빽다방_MA0101202305A0016668","brand":"빽다방","name":"빽다방제주이도초교점","lat":33.4890575992733,"lng":126.534005821421,"address":"제주특별자치도 제주시 구남로4길 8-1","phone":"064-723-2279","openingHours":"","services":{"parking":null,"wifi":true,"outlet":true,"driveThrough":null,"terrace":null,"pet":null},"petPolicyType":"정보 없음","lastCheckedAt":""},{"id":"이디야커피_MA0101202305A0027947","brand":"이디야커피","name":"이디야제주외도점","lat":33.490196970928,"lng":126.431163867578,"address":"제주특별자치도 제주시 우정로5길 4","phone":"064-749-6789","openingHours":"","services":{"parking":null,"wifi":null,"outlet":null,"driveThrough":null,"terrace":null,"pet":null},"petPolicyType":"정보 없음","lastCheckedAt":""},{"id":"컴포즈커피_MA0101202305A0038729","brand":"컴포즈커피","name":"컴포즈커피제주연동 센트럴점","lat":33.4864597351837,"lng":126.494574221026,"address":"제주특별자치도 제주시 연동13길 37","phone":"064-748-2788","openingHours":"","services":{"parking":null,"wifi":true,"outlet":true,"driveThrough":null,"terrace":null,"pet":null},"petPolicyType":"정보 없음","lastCheckedAt":""},{"id":"빽다방_MA0101202305A0105732","brand":"빽다방","name":"빽다방탐라도서관점","lat":33.4800166831873,"lng":126.477978212567,"address":"제주특별자치도 제주시 노형6길 27","phone":"064-725-3100","openingHours":"","services":{"parking":null,"wifi":true,"outlet":true,"driveThrough":null,"terrace":null,"pet":null},"petPolicyType":"정보 없음","lastCheckedAt":""},{"id":"봄봄_MA0101202305A0079458","brand":"봄봄","name":"카페봄봄한림점","lat":33.4144163166136,"lng":126.264483389465,"address":"제주특별자치도 제주시 한림읍 한림로 668","phone":"064-796-8819","openingHours":"","services":{"parking":null,"wifi":null,"outlet":null,"driveThrough":null,"terrace":null,"pet":null},"petPolicyType":"정보 없음","lastCheckedAt":""},{"id":"메가MGC커피_MA0101202305A0155728","brand":"메가MGC커피","name":"메가엠지씨커피제주롯데시티점","lat":33.4897346983542,"lng":126.4863343933,"address":"제주특별자치도 제주시 도령로 74","phone":"064-712-7121","openingHours":"","services":{"parking":null,"wifi":null,"outlet":null,"driveThrough":null,"terrace":null,"pet":null},"petPolicyType":"정보 없음","lastCheckedAt":""},{"id":"메가MGC커피_MA0101202305A0200348","brand":"메가MGC커피","name":"메가엠지씨커피제주성산 일출봉점","lat":33.4651483021399,"lng":126.932691315089,"address":"제주특별자치도 서귀포시 성산읍 성산등용로 15","phone":"064-783-0413","openingHours":"","services":{"parking":null,"wifi":null,"outlet":null,"driveThrough":null,"terrace":null,"pet":null},"petPolicyType":"정보 없음","lastCheckedAt":""},{"id":"봄봄_MA0101202305A0202324","brand":"봄봄","name":"봄봄 노형점","lat":33.4891390821143,"lng":126.475437894646,"address":"제주특별자치도 제주시 월랑로 43","phone":"064-713-2456","openingHours":"","services":{"parking":null,"wifi":null,"outlet":null,"driveThrough":null,"terrace":null,"pet":null},"petPolicyType":"정보 없음","lastCheckedAt":""},{"id":"컴포즈커피_MA0101202305A0150536","brand":"컴포즈커피","name":"컴포즈커피제주이호테우점","lat":33.4968911468231,"lng":126.452147212536,"address":"제주특별자치도 제주시 테우해안로 174","phone":"","openingHours":"","services":{"parking":null,"wifi":true,"outlet":true,"driveThrough":null,"terrace":null,"pet":null},"petPolicyType":"정보 없음","lastCheckedAt":""},{"id":"할리스_MA0101202306A0068205","brand":"할리스","name":"할리스제주황사평드라이브스루점","lat":33.497135695709,"lng":126.556055214289,"address":"제주특별자치도 제주시 연북로 756","phone":"064-722-2529","openingHours":"","services":{"parking":null,"wifi":true,"outlet":true,"driveThrough":true,"terrace":null,"pet":null},"petPolicyType":"정보 없음","lastCheckedAt":""},{"id":"봄봄_MA0101202306A0040421","brand":"봄봄","name":"봄봄 일도점","lat":33.5036940095087,"lng":126.542214117949,"address":"제주특별자치도 제주시 고마로 123","phone":"","openingHours":"","services":{"parking":null,"wifi":null,"outlet":null,"driveThrough":null,"terrace":null,"pet":null},"petPolicyType":"정보 없음","lastCheckedAt":""},{"id":"컴포즈커피_MA0101202306A0059615","brand":"컴포즈커피","name":"컴포즈커피제주하귀점","lat":33.486731564867,"lng":126.414960753308,"address":"제주특별자치도 제주시 애월읍 하귀9길 1","phone":"070-8900-8250","openingHours":"","services":{"parking":null,"wifi":true,"outlet":true,"driveThrough":null,"terrace":null,"pet":null},"petPolicyType":"정보 없음","lastCheckedAt":""},{"id":"더벤티_MA0101202306A0016640","brand":"더벤티","name":"더벤티제주세화점","lat":33.5229848012336,"lng":126.856724604914,"address":"제주특별자치도 제주시 구좌읍 구좌로 50","phone":"070-7576-1666","openingHours":"","services":{"parking":null,"wifi":null,"outlet":null,"driveThrough":null,"terrace":null,"pet":null},"petPolicyType":"정보 없음","lastCheckedAt":""},{"id":"컴포즈커피_MA0101202306A0057116","brand":"컴포즈커피","name":"컴포즈커피서귀포일호 광장점","lat":33.2530076986286,"lng":126.561543300668,"address":"제주특별자치도 서귀포시 중앙로 94","phone":"064-733-9454","openingHours":"","services":{"parking":null,"wifi":true,"outlet":true,"driveThrough":null,"terrace":null,"pet":null},"petPolicyType":"정보 없음","lastCheckedAt":""},{"id":"봄봄_MA0101202306A0072630","brand":"봄봄","name":"봄봄모슬포점","lat":33.2212825926955,"lng":126.25359603017,"address":"제주특별자치도 서귀포시 대정읍 신영로 103","phone":"064-767-8003","openingHours":"","services":{"parking":null,"wifi":null,"outlet":null,"driveThrough":null,"terrace":null,"pet":null},"petPolicyType":"정보 없음","lastCheckedAt":""},{"id":"빽다방_MA0101202307A0051396","brand":"빽다방","name":"빽다방제주도청점","lat":33.4919987477348,"lng":126.497587263159,"address":"제주특별자치도 제주시 신대로7길 7","phone":"070-8900-3535","openingHours":"","services":{"parking":null,"wifi":true,"outlet":true,"driveThrough":null,"terrace":null,"pet":null},"petPolicyType":"정보 없음","lastCheckedAt":""},{"id":"메가MGC커피_MA0101202307A0090910","brand":"메가MGC커피","name":"메가엠지씨커피제주 혁신도시점","lat":33.2523549822332,"lng":126.503062332738,"address":"제주특별자치도 서귀포시 대청로 34","phone":"064-738-0477","openingHours":"","services":{"parking":null,"wifi":null,"outlet":null,"driveThrough":null,"terrace":null,"pet":null},"petPolicyType":"정보 없음","lastCheckedAt":""},{"id":"봄봄_MA0101202308A0049069","brand":"봄봄","name":"카페봄봄한경점","lat":33.3531267482847,"lng":126.18515618418,"address":"제주특별자치도 제주시 한경면 두신로 118","phone":"064-772-8001","openingHours":"","services":{"parking":null,"wifi":null,"outlet":null,"driveThrough":null,"terrace":null,"pet":null},"petPolicyType":"정보 없음","lastCheckedAt":""},{"id":"메가MGC커피_MA0101202308A0050064","brand":"메가MGC커피","name":"메가엠지씨커피제주 이도점","lat":33.494620847273,"lng":126.534115911645,"address":"제주특별자치도 제주시 중앙로 293","phone":"064-757-7789","openingHours":"","services":{"parking":null,"wifi":null,"outlet":null,"driveThrough":null,"terrace":null,"pet":null},"petPolicyType":"정보 없음","lastCheckedAt":""},{"id":"메가MGC커피_MA0101202308A0077846","brand":"메가MGC커피","name":"메가엠지씨커피제주서사로점","lat":33.5042233912659,"lng":126.520095355441,"address":"제주특별자치도 제주시 서사로 91","phone":"064-755-1117","openingHours":"","services":{"parking":null,"wifi":null,"outlet":null,"driveThrough":null,"terrace":null,"pet":null},"petPolicyType":"정보 없음","lastCheckedAt":""},{"id":"봄봄_MA0101202308A0102634","brand":"봄봄","name":"봄봄제주도남 시장점","lat":33.4964044692219,"lng":126.528941047439,"address":"제주특별자치도 제주시 신성로 91","phone":"064-757-7773","openingHours":"","services":{"parking":null,"wifi":null,"outlet":null,"driveThrough":null,"terrace":null,"pet":null},"petPolicyType":"정보 없음","lastCheckedAt":""},{"id":"엔제리너스_MA0101202309A0039154","brand":"엔제리너스","name":"엔제리너스한라수목원점","lat":33.4705448294655,"lng":126.491934136545,"address":"제주특별자치도 제주시 수목원길 65-6","phone":"064-744-1040","openingHours":"","services":{"parking":null,"wifi":null,"outlet":null,"driveThrough":null,"terrace":null,"pet":null},"petPolicyType":"정보 없음","lastCheckedAt":""},{"id":"커피에반하다_MA0101202309A0049678","brand":"커피에반하다","name":"커피에반하다덕수점","lat":33.2521203425316,"lng":126.303790287268,"address":"제주특별자치도 서귀포시 안덕면 덕수서로 17-1","phone":"010-3089-0596","openingHours":"","services":{"parking":null,"wifi":null,"outlet":null,"driveThrough":null,"terrace":null,"pet":null},"petPolicyType":"정보 없음","lastCheckedAt":""},{"id":"봄봄_MA0101202310A0004586","brand":"봄봄","name":"봄봄회수점","lat":33.2632440385469,"lng":126.444906500028,"address":"제주특별자치도 서귀포시 전가로 1","phone":"010-7530-6528","openingHours":"","services":{"parking":null,"wifi":null,"outlet":null,"driveThrough":null,"terrace":null,"pet":null},"petPolicyType":"정보 없음","lastCheckedAt":""},{"id":"빽다방_MA0101202309A0080368","brand":"빽다방","name":"빽다방서귀포 중문점","lat":33.2550697530719,"lng":126.416123155914,"address":"제주특별자치도 서귀포시 천제연로 97","phone":"064-738-6578","openingHours":"","services":{"parking":null,"wifi":true,"outlet":true,"driveThrough":null,"terrace":null,"pet":null},"petPolicyType":"정보 없음","lastCheckedAt":""},{"id":"더벤티_MA0101202311A0016440","brand":"더벤티","name":"더벤티서귀포 신시가지점","lat":33.2508750888774,"lng":126.511859279082,"address":"제주특별자치도 서귀포시 김정문화로 67-1","phone":"064-739-0885","openingHours":"","services":{"parking":null,"wifi":null,"outlet":null,"driveThrough":null,"terrace":null,"pet":null},"petPolicyType":"정보 없음","lastCheckedAt":""},{"id":"빽다방_MA0101202311A0034745","brand":"빽다방","name":"빽다방제주한림점","lat":33.4082243941922,"lng":126.266341574848,"address":"제주특별자치도 제주시 한림읍 한림중앙로 72","phone":"064-796-0166","openingHours":"","services":{"parking":null,"wifi":true,"outlet":true,"driveThrough":null,"terrace":null,"pet":null},"petPolicyType":"정보 없음","lastCheckedAt":""},{"id":"메가MGC커피_MA0101202406A0001150","brand":"메가MGC커피","name":"메가엠지씨커피제주일주서로점","lat":33.4926306740236,"lng":126.425175861035,"address":"제주특별자치도 제주시 일주서로 7281","phone":"064-743-8515","openingHours":"","services":{"parking":null,"wifi":null,"outlet":null,"driveThrough":null,"terrace":null,"pet":null},"petPolicyType":"정보 없음","lastCheckedAt":""},{"id":"빽다방_MA0101202311A0080470","brand":"빽다방","name":"빽다방제주이호테우점","lat":33.4968161177617,"lng":126.451491260275,"address":"제주특별자치도 제주시 테우해안로 166","phone":"","openingHours":"","services":{"parking":null,"wifi":true,"outlet":true,"driveThrough":null,"terrace":null,"pet":null},"petPolicyType":"정보 없음","lastCheckedAt":""},{"id":"메가MGC커피_MA0101202311A0039690","brand":"메가MGC커피","name":"메가엠지씨커피제주이호 로드점","lat":33.4957521305976,"lng":126.457610180085,"address":"제주특별자치도 제주시 일주서로 7589","phone":"064-711-7071","openingHours":"","services":{"parking":null,"wifi":null,"outlet":null,"driveThrough":null,"terrace":null,"pet":null},"petPolicyType":"정보 없음","lastCheckedAt":""},{"id":"메가MGC커피_MA0101202311A0101384","brand":"메가MGC커피","name":"메가엠지씨커피제주송악산점","lat":33.207769067439,"lng":126.290884993735,"address":"제주특별자치도 서귀포시 대정읍 송악관광로 421-1","phone":"064-794-2859","openingHours":"","services":{"parking":null,"wifi":null,"outlet":null,"driveThrough":null,"terrace":null,"pet":null},"petPolicyType":"정보 없음","lastCheckedAt":""},{"id":"메가MGC커피_MA0101202406A0052524","brand":"메가MGC커피","name":"메가엠지씨커피제주위미감귤점","lat":33.2775787220704,"lng":126.659981750377,"address":"제주특별자치도 서귀포시 남원읍 일주동로 7678","phone":"064-764-0408","openingHours":"","services":{"parking":null,"wifi":null,"outlet":null,"driveThrough":null,"terrace":null,"pet":null},"petPolicyType":"정보 없음","lastCheckedAt":""},{"id":"빽다방_MA0101202406A0014518","brand":"빽다방","name":"빽다방제주한경면수월봉점","lat":33.2994966398377,"lng":126.173726948978,"address":"제주특별자치도 제주시 한경면 고산서3길 1","phone":"064-772-1253","openingHours":"","services":{"parking":null,"wifi":true,"outlet":true,"driveThrough":null,"terrace":null,"pet":null},"petPolicyType":"정보 없음","lastCheckedAt":""},{"id":"봄봄_MA0101202406A0082176","brand":"봄봄","name":"카페봄봄아라점","lat":33.4777537739348,"lng":126.541844932388,"address":"제주특별자치도 제주시 아연로 585","phone":"","openingHours":"","services":{"parking":null,"wifi":null,"outlet":null,"driveThrough":null,"terrace":null,"pet":null},"petPolicyType":"정보 없음","lastCheckedAt":""},{"id":"할리스_MA0101202406A0092983","brand":"할리스","name":"할리스제주애월천덕로점","lat":33.4328444852668,"lng":126.32467398335,"address":"제주특별자치도 제주시 애월읍 천덕로 238-1","phone":"064-799-6667","openingHours":"","services":{"parking":null,"wifi":true,"outlet":true,"driveThrough":null,"terrace":null,"pet":null},"petPolicyType":"정보 없음","lastCheckedAt":""},{"id":"감성커피_MA0101202406A0200969","brand":"감성커피","name":"감성커피제주외도점","lat":33.4895114385748,"lng":126.431093028754,"address":"제주특별자치도 제주시 우정로 37","phone":"064-901-7799","openingHours":"","services":{"parking":null,"wifi":null,"outlet":null,"driveThrough":null,"terrace":null,"pet":null},"petPolicyType":"정보 없음","lastCheckedAt":""},{"id":"봄봄_MA0101202406A0148791","brand":"봄봄","name":"봄봄연동점","lat":33.4815937427651,"lng":126.486436244506,"address":"제주특별자치도 제주시 연북로 48","phone":"","openingHours":"","services":{"parking":null,"wifi":null,"outlet":null,"driveThrough":null,"terrace":null,"pet":null},"petPolicyType":"정보 없음","lastCheckedAt":""},{"id":"공차_MA0101202406A0258072","brand":"공차","name":"공차제주서귀포 광장점","lat":33.253751593199,"lng":126.562838065335,"address":"제주특별자치도 서귀포시 일주동로 8662","phone":"","openingHours":"","services":{"parking":null,"wifi":false,"outlet":false,"driveThrough":null,"terrace":null,"pet":null},"petPolicyType":"정보 없음","lastCheckedAt":""},{"id":"메가MGC커피_MA0101202406A0232554","brand":"메가MGC커피","name":"메가엠지씨커피제주노형이편한세상점","lat":33.483240951969,"lng":126.468684270263,"address":"제주특별자치도 제주시 광평동로 45","phone":"064-747-9910","openingHours":"","services":{"parking":null,"wifi":null,"outlet":null,"driveThrough":null,"terrace":null,"pet":null},"petPolicyType":"정보 없음","lastCheckedAt":""},{"id":"메가MGC커피_MA0101202406A0214646","brand":"메가MGC커피","name":"메가엠지씨커피제주동홍 중앙점","lat":33.2489649626807,"lng":126.570899160939,"address":"제주특별자치도 서귀포시 태평로 488","phone":"064-732-4900","openingHours":"","services":{"parking":null,"wifi":null,"outlet":null,"driveThrough":null,"terrace":null,"pet":null},"petPolicyType":"정보 없음","lastCheckedAt":""},{"id":"더벤티_MA0101202406A0216105","brand":"더벤티","name":"더벤티서귀포상창점","lat":33.2853309534499,"lng":126.365209655033,"address":"제주특별자치도 서귀포시 안덕면 병악로 107","phone":"064-792-9881","openingHours":"","services":{"parking":null,"wifi":null,"outlet":null,"driveThrough":null,"terrace":null,"pet":null},"petPolicyType":"정보 없음","lastCheckedAt":""},{"id":"빽다방_MA0101202406A0334513","brand":"빽다방","name":"빽다방서귀포중문 로터리점","lat":33.2510937207935,"lng":126.431720023192,"address":"제주특별자치도 서귀포시 중문관광로 348","phone":"064-739-2139","openingHours":"","services":{"parking":null,"wifi":true,"outlet":true,"driveThrough":null,"terrace":null,"pet":null},"petPolicyType":"정보 없음","lastCheckedAt":""},{"id":"봄봄_MA0101202406A0317745","brand":"봄봄","name":"카페봄봄외도점","lat":33.4909810822022,"lng":126.431104939038,"address":"제주특별자치도 제주시 우정로 21","phone":"064-745-8880","openingHours":"","services":{"parking":null,"wifi":null,"outlet":null,"driveThrough":null,"terrace":null,"pet":null},"petPolicyType":"정보 없음","lastCheckedAt":""},{"id":"이디야커피_MA0101202406A0276860","brand":"이디야커피","name":"이디야서귀포 홈플러스점","lat":33.2604855539574,"lng":126.559939065706,"address":"제주특별자치도 서귀포시 중앙로 180","phone":"","openingHours":"","services":{"parking":null,"wifi":null,"outlet":null,"driveThrough":null,"terrace":null,"pet":null},"petPolicyType":"정보 없음","lastCheckedAt":""},{"id":"빽다방_MA0101202406A0364007","brand":"빽다방","name":"빽다방제주용문마을회관점","lat":33.5061449141524,"lng":126.508881237832,"address":"제주특별자치도 제주시 용문로 128","phone":"064-753-0001","openingHours":"","services":{"parking":null,"wifi":true,"outlet":true,"driveThrough":null,"terrace":null,"pet":null},"petPolicyType":"정보 없음","lastCheckedAt":""},{"id":"빽다방_MA0101202406A0345214","brand":"빽다방","name":"빽다방제주보성 시장점","lat":33.5032062708096,"lng":126.527569728514,"address":"제주특별자치도 제주시 중앙로 179","phone":"064-722-6496","openingHours":"","services":{"parking":null,"wifi":true,"outlet":true,"driveThrough":null,"terrace":null,"pet":null},"petPolicyType":"정보 없음","lastCheckedAt":""},{"id":"빽다방_MA0101202406A0381618","brand":"빽다방","name":"빽다방제주화북 남문점","lat":33.5191310406349,"lng":126.565232127822,"address":"제주특별자치도 제주시 일주동로 185","phone":"070-4010-8526","openingHours":"","services":{"parking":null,"wifi":true,"outlet":true,"driveThrough":null,"terrace":null,"pet":null},"petPolicyType":"정보 없음","lastCheckedAt":""},{"id":"빽다방_MA0101202406A0413144","brand":"빽다방","name":"빽다방서귀포호근동 희망점","lat":33.2618170440041,"lng":126.536793727894,"address":"제주특별자치도 서귀포시 중산간동로 8237","phone":"064-900-0566","openingHours":"","services":{"parking":null,"wifi":true,"outlet":true,"driveThrough":null,"terrace":null,"pet":null},"petPolicyType":"정보 없음","lastCheckedAt":""},{"id":"공차_MA0101202406A0410739","brand":"공차","name":"공차제주 영어교육도시점","lat":33.2792751656554,"lng":126.275097079552,"address":"제주특별자치도 서귀포시 대정읍 에듀시티로239번길 12","phone":"064-792-6377","openingHours":"","services":{"parking":null,"wifi":false,"outlet":false,"driveThrough":null,"terrace":null,"pet":null},"petPolicyType":"정보 없음","lastCheckedAt":""},{"id":"메가MGC커피_MA0101202406A0431126","brand":"메가MGC커피","name":"메가엠지씨커피서귀포효돈점","lat":33.2633758770512,"lng":126.621775579294,"address":"제주특별자치도 서귀포시 일주동로 8088","phone":"064-767-7778","openingHours":"","services":{"parking":null,"wifi":null,"outlet":null,"driveThrough":null,"terrace":null,"pet":null},"petPolicyType":"정보 없음","lastCheckedAt":""},{"id":"빽다방_MA0101202406A0421981","brand":"빽다방","name":"빽다방제주애월항점","lat":33.4658834084795,"lng":126.322244926626,"address":"제주특별자치도 제주시 애월읍 애월로13길 54-1","phone":"070-8822-9999","openingHours":"","services":{"parking":null,"wifi":true,"outlet":true,"driveThrough":null,"terrace":null,"pet":null},"petPolicyType":"정보 없음","lastCheckedAt":""},{"id":"컴포즈커피_MA0101202406A0409388","brand":"컴포즈커피","name":"컴포즈커피제주저지점","lat":33.3186465251451,"lng":126.268650118982,"address":"제주특별자치도 제주시 한경면 녹차분재로 525","phone":"","openingHours":"","services":{"parking":null,"wifi":true,"outlet":true,"driveThrough":null,"terrace":null,"pet":null},"petPolicyType":"정보 없음","lastCheckedAt":""},{"id":"메가MGC커피_MA0101202406A0524612","brand":"메가MGC커피","name":"메가엠지씨커피제주하귀농협하나로점","lat":33.485059356568,"lng":126.412152986171,"address":"제주특별자치도 제주시 애월읍 일주서로 7136","phone":"064-746-6228","openingHours":"","services":{"parking":null,"wifi":null,"outlet":null,"driveThrough":null,"terrace":null,"pet":null},"petPolicyType":"정보 없음","lastCheckedAt":""},{"id":"봄봄_MA0101202406A0470945","brand":"봄봄","name":"카페봄봄서홍점","lat":33.2572663660108,"lng":126.557293752084,"address":"제주특별자치도 서귀포시 홍중로 52","phone":"064-767-3313","openingHours":"","services":{"parking":null,"wifi":null,"outlet":null,"driveThrough":null,"terrace":null,"pet":null},"petPolicyType":"정보 없음","lastCheckedAt":""},{"id":"메가MGC커피_MA0101202406A0480189","brand":"메가MGC커피","name":"메가엠지씨커피제주중앙중점","lat":33.4858439797849,"lng":126.498354465087,"address":"제주특별자치도 제주시 선덕로 17","phone":"064-744-2270","openingHours":"","services":{"parking":null,"wifi":null,"outlet":null,"driveThrough":null,"terrace":null,"pet":null},"petPolicyType":"정보 없음","lastCheckedAt":""},{"id":"봄봄_MA0101202406A0512473","brand":"봄봄","name":"봄봄하귀점","lat":33.4811097624747,"lng":126.404465398973,"address":"제주특별자치도 제주시 애월읍 하귀로 70","phone":"064-803-0359","openingHours":"","services":{"parking":null,"wifi":null,"outlet":null,"driveThrough":null,"terrace":null,"pet":null},"petPolicyType":"정보 없음","lastCheckedAt":""},{"id":"메가MGC커피_MA0101202409A0097821","brand":"메가MGC커피","name":"메가엠지씨커피제주 봉개점","lat":33.4916093421456,"lng":126.592938116568,"address":"제주특별자치도 제주시 번영로 475","phone":"064-900-3633","openingHours":"","services":{"parking":null,"wifi":null,"outlet":null,"driveThrough":null,"terrace":null,"pet":null},"petPolicyType":"정보 없음","lastCheckedAt":""},{"id":"빽다방_MA0101202409A0040977","brand":"빽다방","name":"빽다방제주하귀점","lat":33.4841903363475,"lng":126.411416453215,"address":"제주특별자치도 제주시 애월읍 하광로 12","phone":"070-5001-1190","openingHours":"","services":{"parking":null,"wifi":true,"outlet":true,"driveThrough":null,"terrace":null,"pet":null},"petPolicyType":"정보 없음","lastCheckedAt":""},{"id":"빽다방_MA0101202409A0148691","brand":"빽다방","name":"빽다방제주법조 타워점","lat":33.4945945685296,"lng":126.534320508392,"address":"제주특별자치도 제주시 남광북1길 1","phone":"064-725-1235","openingHours":"","services":{"parking":null,"wifi":true,"outlet":true,"driveThrough":null,"terrace":null,"pet":null},"petPolicyType":"정보 없음","lastCheckedAt":""},{"id":"빽다방_MA0101202409A0117118","brand":"빽다방","name":"빽다방제주동문 시장점","lat":33.5128779255781,"lng":126.526935963506,"address":"제주특별자치도 제주시 동문로 4","phone":"","openingHours":"","services":{"parking":null,"wifi":true,"outlet":true,"driveThrough":null,"terrace":null,"pet":null},"petPolicyType":"정보 없음","lastCheckedAt":""},{"id":"더벤티_MA0101202409A0145206","brand":"더벤티","name":"더벤티제주김녕점","lat":33.5546803804802,"lng":126.751303497363,"address":"제주특별자치도 제주시 구좌읍 김녕로 124","phone":"","openingHours":"","services":{"parking":null,"wifi":null,"outlet":null,"driveThrough":null,"terrace":null,"pet":null},"petPolicyType":"정보 없음","lastCheckedAt":""},{"id":"메가MGC커피_MA0101202409A0111470","brand":"메가MGC커피","name":"메가엠지씨커피제주애월항점","lat":33.4644583828918,"lng":126.320502633208,"address":"제주특별자치도 제주시 애월읍 애월로 123","phone":"064-799-7995","openingHours":"","services":{"parking":null,"wifi":null,"outlet":null,"driveThrough":null,"terrace":null,"pet":null},"petPolicyType":"정보 없음","lastCheckedAt":""},{"id":"봄봄_MA0101202409A0141518","brand":"봄봄","name":"봄봄","lat":33.2527631905866,"lng":126.503682424901,"address":"제주특별자치도 서귀포시 대청로 37","phone":"064-738-1801","openingHours":"","services":{"parking":null,"wifi":null,"outlet":null,"driveThrough":null,"terrace":null,"pet":null},"petPolicyType":"정보 없음","lastCheckedAt":""},{"id":"빽다방_MA0101202409A0204289","brand":"빽다방","name":"빽다방한라대점","lat":33.4765014660116,"lng":126.478214466091,"address":"제주특별자치도 제주시 한라대학로 73-1","phone":"064-803-0661","openingHours":"","services":{"parking":null,"wifi":true,"outlet":true,"driveThrough":null,"terrace":null,"pet":null},"petPolicyType":"정보 없음","lastCheckedAt":""},{"id":"컴포즈커피_MA0101202409A0217668","brand":"컴포즈커피","name":"컴포즈커피서귀포 섭지코지점","lat":33.4385789098599,"lng":126.919398312206,"address":"제주특별자치도 서귀포시 성산읍 섭지코지로26번길 6","phone":"0503-7151-4587","openingHours":"","services":{"parking":null,"wifi":true,"outlet":true,"driveThrough":null,"terrace":null,"pet":null},"petPolicyType":"정보 없음","lastCheckedAt":""},{"id":"메가MGC커피_MA0101202409A0168971","brand":"메가MGC커피","name":"메가엠지씨커피제주노형 오거리점","lat":33.4844961589712,"lng":126.479780466905,"address":"제주특별자치도 제주시 노형14길 14","phone":"064-805-1050","openingHours":"","services":{"parking":null,"wifi":null,"outlet":null,"driveThrough":null,"terrace":null,"pet":null},"petPolicyType":"정보 없음","lastCheckedAt":""},{"id":"감성커피_MA0101202409A0203652","brand":"감성커피","name":"감성커피 노형점","lat":33.4868107503061,"lng":126.477044388477,"address":"제주특별자치도 제주시 수덕5길 7","phone":"0502-5552-8726","openingHours":"","services":{"parking":null,"wifi":null,"outlet":null,"driveThrough":null,"terrace":null,"pet":null},"petPolicyType":"정보 없음","lastCheckedAt":""},{"id":"컴포즈커피_MA0101202411A0031558","brand":"컴포즈커피","name":"컴포즈커피 태평로점","lat":33.2464453409689,"lng":126.559419270517,"address":"제주특별자치도 서귀포시 태평로 355","phone":"070-4548-5314","openingHours":"","services":{"parking":null,"wifi":true,"outlet":true,"driveThrough":null,"terrace":null,"pet":null},"petPolicyType":"정보 없음","lastCheckedAt":""},{"id":"컴포즈커피_MA0101202411A0019546","brand":"컴포즈커피","name":"컴포즈커피제주대학교점","lat":33.4603614487087,"lng":126.561653325764,"address":"제주특별자치도 제주시 제주대학로 109","phone":"","openingHours":"","services":{"parking":null,"wifi":true,"outlet":true,"driveThrough":null,"terrace":null,"pet":null},"petPolicyType":"정보 없음","lastCheckedAt":""},{"id":"더벤티_MA0101202411A0013754","brand":"더벤티","name":"더벤티제주아라점","lat":33.4773529082039,"lng":126.543159605601,"address":"제주특별자치도 제주시 아연로 600","phone":"0507-1302-2287","openingHours":"","services":{"parking":null,"wifi":null,"outlet":null,"driveThrough":null,"terrace":null,"pet":null},"petPolicyType":"정보 없음","lastCheckedAt":""},{"id":"빽다방_MA0101202411A0089150","brand":"빽다방","name":"빽다방제주월정리점","lat":33.5558609752254,"lng":126.795354210499,"address":"제주특별자치도 제주시 구좌읍 월정3길 60","phone":"","openingHours":"","services":{"parking":null,"wifi":true,"outlet":true,"driveThrough":null,"terrace":null,"pet":null},"petPolicyType":"정보 없음","lastCheckedAt":""},{"id":"공차_MA0101202411A0081189","brand":"공차","name":"공차서귀포 신시가지점","lat":33.2554538963,"lng":126.506918830371,"address":"제주특별자치도 서귀포시 신서로52번길 24","phone":"064-739-7010","openingHours":"","services":{"parking":null,"wifi":false,"outlet":false,"driveThrough":null,"terrace":null,"pet":null},"petPolicyType":"정보 없음","lastCheckedAt":""},{"id":"빽다방_MA0101202411A0092592","brand":"빽다방","name":"빽다방제주신비로점","lat":33.4500814918069,"lng":126.48607353505,"address":"제주특별자치도 제주시 주르레길 1","phone":"","openingHours":"","services":{"parking":null,"wifi":true,"outlet":true,"driveThrough":null,"terrace":null,"pet":null},"petPolicyType":"정보 없음","lastCheckedAt":""},{"id":"컴포즈커피_MA0101202411A0146282","brand":"컴포즈커피","name":"컴포즈커피제주드림 타워점","lat":33.4842429080411,"lng":126.481740214954,"address":"제주특별자치도 제주시 원노형남1길 11","phone":"064-743-7977","openingHours":"","services":{"parking":null,"wifi":true,"outlet":true,"driveThrough":null,"terrace":null,"pet":null},"petPolicyType":"정보 없음","lastCheckedAt":""},{"id":"봄봄_MA0101202411A0141775","brand":"봄봄","name":"봄봄안덕 화순점","lat":33.2462920667887,"lng":126.331015964598,"address":"제주특별자치도 서귀포시 안덕면 화순로 143","phone":"064-792-2021","openingHours":"","services":{"parking":null,"wifi":null,"outlet":null,"driveThrough":null,"terrace":null,"pet":null},"petPolicyType":"정보 없음","lastCheckedAt":""},{"id":"텐퍼센트커피_MA0101202412A0060979","brand":"텐퍼센트커피","name":"텐퍼센트제주 법원점","lat":33.492498097964,"lng":126.53545083191,"address":"제주특별자치도 제주시 중앙로 320-2","phone":"","openingHours":"","services":{"parking":null,"wifi":null,"outlet":null,"driveThrough":null,"terrace":null,"pet":null},"petPolicyType":"정보 없음","lastCheckedAt":""},{"id":"빽다방_MA0101202412A0069454","brand":"빽다방","name":"빽다방빵연구소호텔더 본점","lat":33.2595322954249,"lng":126.406499201256,"address":"제주특별자치도 서귀포시 색달로 18","phone":"","openingHours":"","services":{"parking":null,"wifi":true,"outlet":true,"driveThrough":null,"terrace":null,"pet":null},"petPolicyType":"정보 없음","lastCheckedAt":""},{"id":"메가MGC커피_MA0101202412A0040232","brand":"메가MGC커피","name":"메가엠지씨커피제주 중문점","lat":33.2516078514652,"lng":126.423926070308,"address":"제주특별자치도 서귀포시 천제연로 182","phone":"064-738-4700","openingHours":"","services":{"parking":null,"wifi":null,"outlet":null,"driveThrough":null,"terrace":null,"pet":null},"petPolicyType":"정보 없음","lastCheckedAt":""},{"id":"컴포즈커피_MA0101202412A0035487","brand":"컴포즈커피","name":"컴포즈커피제주베라체점","lat":33.4922000300013,"lng":126.542575906954,"address":"제주특별자치도 제주시 승천로 74","phone":"064-722-7995","openingHours":"","services":{"parking":null,"wifi":true,"outlet":true,"driveThrough":null,"terrace":null,"pet":null},"petPolicyType":"정보 없음","lastCheckedAt":""},{"id":"메가MGC커피_MA0101202501A0055827","brand":"메가MGC커피","name":"메가엠지씨커피제주동광육 거리점","lat":33.31056357175,"lng":126.340307880117,"address":"제주특별자치도 서귀포시 안덕면 한창로 599","phone":"064-792-4515","openingHours":"","services":{"parking":null,"wifi":null,"outlet":null,"driveThrough":null,"terrace":null,"pet":null},"petPolicyType":"정보 없음","lastCheckedAt":""},{"id":"공차_MA0101202501A0020959","brand":"공차","name":"공차제주 탑동점","lat":33.5171169909249,"lng":126.52265049608,"address":"제주특별자치도 제주시 탑동로 19","phone":"064-726-3370","openingHours":"","services":{"parking":null,"wifi":false,"outlet":false,"driveThrough":null,"terrace":null,"pet":null},"petPolicyType":"정보 없음","lastCheckedAt":""},{"id":"투썸플레이스_MA0101202501A0049824","brand":"투썸플레이스","name":"투썸플레이스영어도시점","lat":33.2807270158593,"lng":126.278240969228,"address":"제주특별자치도 서귀포시 대정읍 글로벌에듀로 370","phone":"064-792-6555","openingHours":"","services":{"parking":null,"wifi":true,"outlet":true,"driveThrough":null,"terrace":null,"pet":null},"petPolicyType":"정보 없음","lastCheckedAt":""},{"id":"메가MGC커피_MA0101202501A0067907","brand":"메가MGC커피","name":"메가엠지씨커피제주저지점","lat":33.3330913760685,"lng":126.256703894064,"address":"제주특별자치도 제주시 한경면 저지8길 2-1","phone":"064-803-0193","openingHours":"","services":{"parking":null,"wifi":null,"outlet":null,"driveThrough":null,"terrace":null,"pet":null},"petPolicyType":"정보 없음","lastCheckedAt":""},{"id":"컴포즈커피_MA0101202501A0038203","brand":"컴포즈커피","name":"컴포즈커피서귀포 화순점","lat":33.2464225101956,"lng":126.330124366266,"address":"제주특별자치도 서귀포시 안덕면 화순로 151","phone":"010-2737-7651","openingHours":"","services":{"parking":null,"wifi":true,"outlet":true,"driveThrough":null,"terrace":null,"pet":null},"petPolicyType":"정보 없음","lastCheckedAt":""},{"id":"이디야커피_MA0101202501A0006708","brand":"이디야커피","name":"이디야커피제주애월하나로마트점","lat":33.4604269936151,"lng":126.321910913214,"address":"제주특별자치도 제주시 애월읍 애원로 41","phone":"","openingHours":"","services":{"parking":null,"wifi":null,"outlet":null,"driveThrough":null,"terrace":null,"pet":null},"petPolicyType":"정보 없음","lastCheckedAt":""},{"id":"빽다방_MA0101202502A0028046","brand":"빽다방","name":"빽다방제주종합경 기장점","lat":33.4942188133972,"lng":126.518568721938,"address":"제주특별자치도 제주시 오라로 150","phone":"070-8824-2268","openingHours":"","services":{"parking":null,"wifi":true,"outlet":true,"driveThrough":null,"terrace":null,"pet":null},"petPolicyType":"정보 없음","lastCheckedAt":""},{"id":"메가MGC커피_MA0101202502A0011091","brand":"메가MGC커피","name":"메가엠지씨커피제주광양 사거리점","lat":33.5008473871197,"lng":126.528432710666,"address":"제주특별자치도 제주시 서광로 301","phone":"064-702-4515","openingHours":"","services":{"parking":null,"wifi":null,"outlet":null,"driveThrough":null,"terrace":null,"pet":null},"petPolicyType":"정보 없음","lastCheckedAt":""},{"id":"빽다방_MA0101202502A0054651","brand":"빽다방","name":"빽다방서귀포516로점","lat":33.2912688423913,"lng":126.594933735327,"address":"제주특별자치도 서귀포시 516로 450","phone":"0507-1417-7130","openingHours":"","services":{"parking":null,"wifi":true,"outlet":true,"driveThrough":null,"terrace":null,"pet":null},"petPolicyType":"정보 없음","lastCheckedAt":""},{"id":"메가MGC커피_MA0101202502A0099300","brand":"메가MGC커피","name":"메가엠지씨커피서귀포감산점","lat":33.2597287682423,"lng":126.357152848111,"address":"제주특별자치도 서귀포시 안덕면 일주서로 1479","phone":"064-805-9512","openingHours":"","services":{"parking":null,"wifi":null,"outlet":null,"driveThrough":null,"terrace":null,"pet":null},"petPolicyType":"정보 없음","lastCheckedAt":""},{"id":"빽다방_MA0101202502A0097712","brand":"빽다방","name":"빽다방제주 대학로점","lat":33.4999268806677,"lng":126.528200949007,"address":"제주특별자치도 제주시 광양8길 12-1","phone":"070-4010-2808","openingHours":"","services":{"parking":null,"wifi":true,"outlet":true,"driveThrough":null,"terrace":null,"pet":null},"petPolicyType":"정보 없음","lastCheckedAt":""},{"id":"빽다방_MA0101202503A0063248","brand":"빽다방","name":"빽다방제주연동사장1길점","lat":33.485136997662,"lng":126.490805268228,"address":"제주특별자치도 제주시 연동8길 7","phone":"0502-5551-9111","openingHours":"","services":{"parking":null,"wifi":true,"outlet":true,"driveThrough":null,"terrace":null,"pet":null},"petPolicyType":"정보 없음","lastCheckedAt":""},{"id":"봄봄_MA0101202503A0072284","brand":"봄봄","name":"봄봄제주서귀강정점","lat":33.234697878266,"lng":126.488914294805,"address":"제주특별자치도 서귀포시 이어도로 685-2","phone":"","openingHours":"","services":{"parking":null,"wifi":null,"outlet":null,"driveThrough":null,"terrace":null,"pet":null},"petPolicyType":"정보 없음","lastCheckedAt":""},{"id":"빽다방_MA0101202504A0090510","brand":"빽다방","name":"빽다방서귀포동홍 중앙점","lat":33.2574225452378,"lng":126.573605133664,"address":"제주특별자치도 서귀포시 동홍북로48번길 17","phone":"064-902-9976","openingHours":"","services":{"parking":null,"wifi":true,"outlet":true,"driveThrough":null,"terrace":null,"pet":null},"petPolicyType":"정보 없음","lastCheckedAt":""},{"id":"봄봄_MA0101202505A0027587","brand":"봄봄","name":"카페봄봄서귀서광리점","lat":33.2859033939474,"lng":126.333333232341,"address":"제주특별자치도 서귀포시 안덕면 중산간서로 1769","phone":"","openingHours":"","services":{"parking":null,"wifi":null,"outlet":null,"driveThrough":null,"terrace":null,"pet":null},"petPolicyType":"정보 없음","lastCheckedAt":""},{"id":"커피빈_MA0106202201A0153306","brand":"커피빈","name":"커피빈 코리아","lat":33.4844434282427,"lng":126.534536232593,"address":"제주특별자치도 제주시 연북로 511","phone":"","openingHours":"","services":{"parking":null,"wifi":true,"outlet":true,"driveThrough":null,"terrace":null,"pet":null},"petPolicyType":"정보 없음","lastCheckedAt":""},{"id":"엔제리너스_MA0106202201A0046221","brand":"엔제리너스","name":"롯데지알에스엔제리너스제주공항1층점","lat":33.5059397371195,"lng":126.495956962825,"address":"제주특별자치도 제주시 공항로 2","phone":"","openingHours":"","services":{"parking":null,"wifi":null,"outlet":null,"driveThrough":null,"terrace":null,"pet":null},"petPolicyType":"정보 없음","lastCheckedAt":""},{"id":"빽다방_MA0101202505A0092864","brand":"빽다방","name":"빽다방제주애월좋은마트점","lat":33.4709918384815,"lng":126.365871013912,"address":"제주특별자치도 제주시 애월읍 일주서로 6679","phone":"064-799-1144","openingHours":"","services":{"parking":null,"wifi":true,"outlet":true,"driveThrough":null,"terrace":null,"pet":null},"petPolicyType":"정보 없음","lastCheckedAt":""},{"id":"할리스_MA0106202201A0604670","brand":"할리스","name":"할리스제주연북로점","lat":33.4813855128093,"lng":126.515325892366,"address":"제주특별자치도 제주시 오남로 166","phone":"","openingHours":"","services":{"parking":null,"wifi":true,"outlet":true,"driveThrough":null,"terrace":null,"pet":null},"petPolicyType":"정보 없음","lastCheckedAt":""},{"id":"투썸플레이스_MA0106202201A1168614","brand":"투썸플레이스","name":"투썸플레이스","lat":33.4620427155959,"lng":126.310808221129,"address":"제주특별자치도 제주시 애월읍 애월로1길 19","phone":"","openingHours":"","services":{"parking":null,"wifi":true,"outlet":true,"driveThrough":null,"terrace":null,"pet":null},"petPolicyType":"정보 없음","lastCheckedAt":""},{"id":"빽다방_MA0106202201A1387927","brand":"빽다방","name":"빽다방제주법조 타워점","lat":33.4945945685296,"lng":126.534320508392,"address":"제주특별자치도 제주시 남광북1길 1","phone":"064-725-1235","openingHours":"","services":{"parking":null,"wifi":true,"outlet":true,"driveThrough":null,"terrace":null,"pet":null},"petPolicyType":"정보 없음","lastCheckedAt":""},{"id":"투썸플레이스_MA0106202201A2194872","brand":"투썸플레이스","name":"투썸플레이스제주노형 오거리점","lat":33.4842712182037,"lng":126.479889406951,"address":"제주특별자치도 제주시 1100로 3339","phone":"010-9001-7760","openingHours":"","services":{"parking":null,"wifi":true,"outlet":true,"driveThrough":null,"terrace":null,"pet":null},"petPolicyType":"정보 없음","lastCheckedAt":""},{"id":"카페베네_MA0106202201A2335387","brand":"카페베네","name":"카페베네유탑유블레스호텔점","lat":33.5424078852678,"lng":126.666205177186,"address":"제주특별자치도 제주시 조천읍 조함해안로 502","phone":"","openingHours":"","services":{"parking":null,"wifi":true,"outlet":true,"driveThrough":null,"terrace":null,"pet":null},"petPolicyType":"정보 없음","lastCheckedAt":""},{"id":"카페베네_MA0106202201A2356761","brand":"카페베네","name":"카페베네제주애월곽지해수욕장점","lat":33.4482558258561,"lng":126.304055629876,"address":"제주특별자치도 제주시 애월읍 곽지1길 23","phone":"","openingHours":"","services":{"parking":null,"wifi":true,"outlet":true,"driveThrough":null,"terrace":null,"pet":null},"petPolicyType":"정보 없음","lastCheckedAt":""},{"id":"투썸플레이스_MA0106202201A2194870","brand":"투썸플레이스","name":"투썸플레이스용 두암점","lat":33.5165392594964,"lng":126.504108079731,"address":"제주특별자치도 제주시 서해안로 626","phone":"","openingHours":"","services":{"parking":null,"wifi":true,"outlet":true,"driveThrough":null,"terrace":null,"pet":null},"petPolicyType":"정보 없음","lastCheckedAt":""},{"id":"이디야커피_MA0106202201A1856730","brand":"이디야커피","name":"이디야커피제주 중문점","lat":33.2549045244652,"lng":126.409771337071,"address":"제주특별자치도 서귀포시 중문관광로 42","phone":"064-805-5528","openingHours":"","services":{"parking":null,"wifi":null,"outlet":null,"driveThrough":null,"terrace":null,"pet":null},"petPolicyType":"정보 없음","lastCheckedAt":""},{"id":"투썸플레이스_MA0106202201A2085818","brand":"투썸플레이스","name":"투썸플레이스노형 디티점","lat":33.4913062054746,"lng":126.474090538657,"address":"제주특별자치도 제주시 월랑로 70","phone":"","openingHours":"","services":{"parking":null,"wifi":true,"outlet":true,"driveThrough":null,"terrace":null,"pet":null},"petPolicyType":"정보 없음","lastCheckedAt":""},{"id":"엔제리너스_MA0106202212A0045963","brand":"엔제리너스","name":"엔제리너스제주공항야외 광장점","lat":33.5059397371195,"lng":126.495956962825,"address":"제주특별자치도 제주시 공항로 2","phone":"064-745-8879","openingHours":"","services":{"parking":null,"wifi":null,"outlet":null,"driveThrough":null,"terrace":null,"pet":null},"petPolicyType":"정보 없음","lastCheckedAt":""},{"id":"폴 바셋_MA0106202204A0605487","brand":"폴 바셋","name":"폴바셋제주용담DT점","lat":33.51743544658,"lng":126.487279388431,"address":"제주특별자치도 제주시 서해안로 442-1","phone":"064-749-1630","openingHours":"","services":{"parking":null,"wifi":null,"outlet":null,"driveThrough":null,"terrace":null,"pet":null},"petPolicyType":"정보 없음","lastCheckedAt":""},{"id":"커피빈_MA0106202207A0152728","brand":"커피빈","name":"커피빈제주애월DT점","lat":33.4780665727948,"lng":126.363581670416,"address":"제주특별자치도 제주시 애월읍 애월해안로 560","phone":"064-799-3670","openingHours":"","services":{"parking":null,"wifi":true,"outlet":true,"driveThrough":true,"terrace":null,"pet":null},"petPolicyType":"정보 없음","lastCheckedAt":""},{"id":"할리스_MA0106202211A0599805","brand":"할리스","name":"할리스제주도두해안 디티점","lat":33.5090265157926,"lng":126.472928635353,"address":"제주특별자치도 제주시 서해안로 254","phone":"064-745-7301","openingHours":"","services":{"parking":null,"wifi":true,"outlet":true,"driveThrough":null,"terrace":null,"pet":null},"petPolicyType":"정보 없음","lastCheckedAt":""},{"id":"탐앤탐스_MA0106202305A0626886","brand":"탐앤탐스","name":"탐앤탐스블랙제주김녕점","lat":33.5554354152983,"lng":126.73709771122,"address":"제주특별자치도 제주시 구좌읍 일주동로 1921","phone":"070-4009-7743","openingHours":"","services":{"parking":null,"wifi":true,"outlet":true,"driveThrough":null,"terrace":null,"pet":null},"petPolicyType":"정보 없음","lastCheckedAt":""},{"id":"커피빈_MA0106202505A0148031","brand":"커피빈","name":"커피빈제주동문시장점 코리아","lat":33.5128712921021,"lng":126.527560259416,"address":"제주특별자치도 제주시 동문로 8-1","phone":"","openingHours":"","services":{"parking":null,"wifi":true,"outlet":true,"driveThrough":null,"terrace":null,"pet":null},"petPolicyType":"정보 없음","lastCheckedAt":""},{"id":"커피빈_MA0106202505A0148028","brand":"커피빈","name":"커피빈제주동문 시장점","lat":33.5128712921021,"lng":126.527560259416,"address":"제주특별자치도 제주시 동문로 8-1","phone":"064-726-9520","openingHours":"","services":{"parking":null,"wifi":true,"outlet":true,"driveThrough":null,"terrace":null,"pet":null},"petPolicyType":"정보 없음","lastCheckedAt":""},{"id":"빽다방_MA0106202506A2090289","brand":"빽다방","name":"빽다방 서귀포동홍중앙점","lat":33.2574225452378,"lng":126.573605133664,"address":"제주특별자치도 서귀포시 동홍북로48번길 17","phone":"064-902-9976","openingHours":"","services":{"parking":null,"wifi":true,"outlet":true,"driveThrough":null,"terrace":null,"pet":null},"petPolicyType":"정보 없음","lastCheckedAt":""},{"id":"컴포즈커피_MA0106202507A1349019","brand":"컴포즈커피","name":"컴포즈커피 서귀포위미점","lat":33.2747691748516,"lng":126.657985409492,"address":"제주특별자치도 서귀포시 남원읍 태위로 99","phone":"064-764-7774","openingHours":"","services":{"parking":null,"wifi":true,"outlet":true,"driveThrough":null,"terrace":null,"pet":null},"petPolicyType":"정보 없음","lastCheckedAt":""},{"id":"메가MGC커피_MA0106202507A1947749","brand":"메가MGC커피","name":"메가엠지씨커피 제주삼화초점","lat":33.5144411377925,"lng":126.575157841654,"address":"제주특별자치도 제주시 화삼로 19","phone":"064-805-0055","openingHours":"","services":{"parking":null,"wifi":null,"outlet":null,"driveThrough":null,"terrace":null,"pet":null},"petPolicyType":"정보 없음","lastCheckedAt":""},{"id":"컴포즈커피_MA0106202508A0759805","brand":"컴포즈커피","name":"컴포즈커피 서귀포올레시장점","lat":33.2476948176504,"lng":126.563458399436,"address":"제주특별자치도 서귀포시 중정로 66-1","phone":"","openingHours":"","services":{"parking":null,"wifi":true,"outlet":true,"driveThrough":null,"terrace":null,"pet":null},"petPolicyType":"정보 없음","lastCheckedAt":""},{"id":"더벤티_MA0106202508A0474775","brand":"더벤티","name":"더벤티제주서귀포점","lat":33.248032224866,"lng":126.561975907355,"address":"제주특별자치도 서귀포시 중앙로 38","phone":"070-4647-1133","openingHours":"","services":{"parking":null,"wifi":null,"outlet":null,"driveThrough":null,"terrace":null,"pet":null},"petPolicyType":"정보 없음","lastCheckedAt":""},{"id":"봄봄_MA0106202509A2429473","brand":"봄봄","name":"카페봄봄제주오일장점","lat":33.4933708289358,"lng":126.484817191608,"address":"제주특별자치도 제주시 성신북길 36","phone":"064-747-9520","openingHours":"","services":{"parking":null,"wifi":null,"outlet":null,"driveThrough":null,"terrace":null,"pet":null},"petPolicyType":"정보 없음","lastCheckedAt":""},{"id":"메가MGC커피_MA0106202509A0521573","brand":"메가MGC커피","name":"메가엠지씨커피제주오라정실점","lat":33.4715737490674,"lng":126.507849934186,"address":"제주특별자치도 제주시 아연로 158","phone":"064-803-0921","openingHours":"","services":{"parking":null,"wifi":null,"outlet":null,"driveThrough":null,"terrace":null,"pet":null},"petPolicyType":"정보 없음","lastCheckedAt":""},{"id":"컴포즈커피_MA0106202509A1040742","brand":"컴포즈커피","name":"컴포즈커피제주뉴월드화북마트점","lat":33.519707633473,"lng":126.570277545365,"address":"제주특별자치도 제주시 일주동로 233","phone":"","openingHours":"","services":{"parking":null,"wifi":true,"outlet":true,"driveThrough":null,"terrace":null,"pet":null},"petPolicyType":"정보 없음","lastCheckedAt":""},{"id":"더벤티_MA0106202509A1279945","brand":"더벤티","name":"더벤티제주노형이편한세상점","lat":33.4844212779905,"lng":126.470613781247,"address":"제주특별자치도 제주시 수덕로 69","phone":"064-742-9981","openingHours":"","services":{"parking":null,"wifi":null,"outlet":null,"driveThrough":null,"terrace":null,"pet":null},"petPolicyType":"정보 없음","lastCheckedAt":""},{"id":"컴포즈커피_MA0106202509A2227198","brand":"컴포즈커피","name":"컴포즈커피제주외도 부영점","lat":33.487935039294,"lng":126.431393855086,"address":"제주특별자치도 제주시 우정로11길 3","phone":"","openingHours":"","services":{"parking":null,"wifi":true,"outlet":true,"driveThrough":null,"terrace":null,"pet":null},"petPolicyType":"정보 없음","lastCheckedAt":""},{"id":"이디야커피_MA0106202509A0900744","brand":"이디야커피","name":"이디야커피제주 중문점","lat":33.2549045244652,"lng":126.409771337071,"address":"제주특별자치도 서귀포시 중문관광로 42","phone":"064-805-5528","openingHours":"","services":{"parking":null,"wifi":null,"outlet":null,"driveThrough":null,"terrace":null,"pet":null},"petPolicyType":"정보 없음","lastCheckedAt":""},{"id":"컴포즈커피_MA0106202511A0004925","brand":"컴포즈커피","name":"컴포즈커피제주남녕고점","lat":33.4906130836973,"lng":126.48076612296,"address":"제주특별자치도 제주시 남녕로 33","phone":"010-2663-1176","openingHours":"","services":{"parking":null,"wifi":true,"outlet":true,"driveThrough":null,"terrace":null,"pet":null},"petPolicyType":"정보 없음","lastCheckedAt":""},{"id":"봄봄_MA0106202510A1371535","brand":"봄봄","name":"봄봄애월점","lat":33.4600073959177,"lng":126.321021397966,"address":"제주특별자치도 제주시 애월읍 애원로 48","phone":"","openingHours":"","services":{"parking":null,"wifi":null,"outlet":null,"driveThrough":null,"terrace":null,"pet":null},"petPolicyType":"정보 없음","lastCheckedAt":""},{"id":"컴포즈커피_MA0106202511A0769325","brand":"컴포즈커피","name":"컴포즈커피제주일도인제점","lat":33.5054041362108,"lng":126.541430237215,"address":"제주특별자치도 제주시 고마로 101","phone":"","openingHours":"","services":{"parking":null,"wifi":true,"outlet":true,"driveThrough":null,"terrace":null,"pet":null},"petPolicyType":"정보 없음","lastCheckedAt":""},{"id":"메가MGC커피_MA0106202511A2322629","brand":"메가MGC커피","name":"메가엠지씨커피제주수모루점","lat":33.2451481715675,"lng":126.523071943228,"address":"제주특별자치도 서귀포시 이어도로 1048","phone":"","openingHours":"","services":{"parking":null,"wifi":null,"outlet":null,"driveThrough":null,"terrace":null,"pet":null},"petPolicyType":"정보 없음","lastCheckedAt":""},{"id":"더벤티_MA0106202512A0903140","brand":"더벤티","name":"더벤티연동점","lat":33.4872745600625,"lng":126.49099719754,"address":"제주특별자치도 제주시 연동7길 27","phone":"070-4647-3141","openingHours":"","services":{"parking":null,"wifi":null,"outlet":null,"driveThrough":null,"terrace":null,"pet":null},"petPolicyType":"정보 없음","lastCheckedAt":""},{"id":"메가MGC커피_MA0106202511A2064676","brand":"메가MGC커피","name":"메가엠지씨커피제주 중앙여고점","lat":33.4885180552418,"lng":126.53920583561,"address":"제주특별자치도 제주시 중앙로 376","phone":"064-722-5932","openingHours":"","services":{"parking":null,"wifi":null,"outlet":null,"driveThrough":null,"terrace":null,"pet":null},"petPolicyType":"정보 없음","lastCheckedAt":""},{"id":"봄봄_MA0106202512A0809545","brand":"봄봄","name":"카페봄봄 봉개점","lat":33.4888728417355,"lng":126.59702902388,"address":"제주특별자치도 제주시 번영로 524","phone":"064-756-2737","openingHours":"","services":{"parking":null,"wifi":null,"outlet":null,"driveThrough":null,"terrace":null,"pet":null},"petPolicyType":"정보 없음","lastCheckedAt":""},{"id":"봄봄_MA0106202511A0894725","brand":"봄봄","name":"봄봄법환점","lat":33.2374807149448,"lng":126.512834979686,"address":"제주특별자치도 서귀포시 이어도로 920","phone":"070-4647-1728","openingHours":"","services":{"parking":null,"wifi":null,"outlet":null,"driveThrough":null,"terrace":null,"pet":null},"petPolicyType":"정보 없음","lastCheckedAt":""},{"id":"감성커피_MA0106202511A1449279","brand":"감성커피","name":"감성커피서귀포법환점","lat":33.2338011368533,"lng":126.512597893883,"address":"제주특별자치도 서귀포시 최영로 20-6","phone":"064-739-3909","openingHours":"","services":{"parking":null,"wifi":null,"outlet":null,"driveThrough":null,"terrace":null,"pet":null},"petPolicyType":"정보 없음","lastCheckedAt":""},{"id":"빽다방_MA0106202601A0154599","brand":"빽다방","name":"빽다방제주도남점","lat":33.4976277442312,"lng":126.528181137349,"address":"제주특별자치도 제주시 도남로5길 23-2","phone":"070-5056-3040","openingHours":"","services":{"parking":null,"wifi":true,"outlet":true,"driveThrough":null,"terrace":null,"pet":null},"petPolicyType":"정보 없음","lastCheckedAt":""},{"id":"더벤티_MA0106202512A2040631","brand":"더벤티","name":"더벤티","lat":33.4992291354034,"lng":126.529646763442,"address":"제주특별자치도 제주시 광양10길 3","phone":"064-702-1515","openingHours":"","services":{"parking":null,"wifi":null,"outlet":null,"driveThrough":null,"terrace":null,"pet":null},"petPolicyType":"정보 없음","lastCheckedAt":""},{"id":"메가MGC커피_MA0106202512A2145594","brand":"메가MGC커피","name":"메가엠지씨커피제주평화로무수천점","lat":33.4621959446476,"lng":126.449665609498,"address":"제주특별자치도 제주시 노형로 21","phone":"064-711-1033","openingHours":"","services":{"parking":null,"wifi":null,"outlet":null,"driveThrough":null,"terrace":null,"pet":null},"petPolicyType":"정보 없음","lastCheckedAt":""},{"id":"빽다방_MA0106202601A2346257","brand":"빽다방","name":"빽다방 제주연북로점","lat":33.481341204528,"lng":126.484242863633,"address":"제주특별자치도 제주시 과원북4길 19","phone":"064-900-7460","openingHours":"","services":{"parking":null,"wifi":true,"outlet":true,"driveThrough":null,"terrace":null,"pet":null},"petPolicyType":"정보 없음","lastCheckedAt":""},{"id":"이디야커피_MA0106202602A2047254","brand":"이디야커피","name":"이디야커피서홍점","lat":33.2614071588195,"lng":126.555416199754,"address":"제주특별자치도 서귀포시 홍중로 99","phone":"","openingHours":"","services":{"parking":null,"wifi":null,"outlet":null,"driveThrough":null,"terrace":null,"pet":null},"petPolicyType":"정보 없음","lastCheckedAt":""},{"id":"더벤티_MA0106202602A0500635","brand":"더벤티","name":"더벤티원노형점","lat":33.4855459668075,"lng":126.485046438894,"address":"제주특별자치도 제주시 원노형로 35","phone":"","openingHours":"","services":{"parking":null,"wifi":null,"outlet":null,"driveThrough":null,"terrace":null,"pet":null},"petPolicyType":"정보 없음","lastCheckedAt":""},{"id":"빽다방_MA0106202602A1751470","brand":"빽다방","name":"빽다방빵연구소제주합동청사점","lat":33.4901311062032,"lng":126.527027405061,"address":"제주특별자치도 제주시 청사로 75","phone":"064-722-3334","openingHours":"","services":{"parking":null,"wifi":true,"outlet":true,"driveThrough":null,"terrace":null,"pet":null},"petPolicyType":"정보 없음","lastCheckedAt":""},{"id":"텐퍼센트커피_MA0106202602A0693164","brand":"텐퍼센트커피","name":"텐퍼센트커피 제주아라중앙점","lat":33.4750092758445,"lng":126.545753927635,"address":"제주특별자치도 제주시 중앙로 543","phone":"070-4887-0778","openingHours":"","services":{"parking":null,"wifi":null,"outlet":null,"driveThrough":null,"terrace":null,"pet":null},"petPolicyType":"정보 없음","lastCheckedAt":""},{"id":"이디야커피_MA0106202601A2168510","brand":"이디야커피","name":"이디야제주영어도시점","lat":33.2910540565462,"lng":126.28354521897,"address":"제주특별자치도 서귀포시 대정읍 에듀시티로50번길 6","phone":"","openingHours":"","services":{"parking":null,"wifi":null,"outlet":null,"driveThrough":null,"terrace":null,"pet":null},"petPolicyType":"정보 없음","lastCheckedAt":""},{"id":"빽다방_MA0106202601A2123746","brand":"빽다방","name":"빽다방 제주서광로동성길점","lat":33.4997858291272,"lng":126.510434518269,"address":"제주특별자치도 제주시 동성길 4","phone":"070-4333-2111","openingHours":"","services":{"parking":null,"wifi":true,"outlet":true,"driveThrough":null,"terrace":null,"pet":null},"petPolicyType":"정보 없음","lastCheckedAt":""},{"id":"봄봄_MA0106202601A1947763","brand":"봄봄","name":"카페봄봄 칠십리점","lat":33.2420525709914,"lng":126.566598091391,"address":"제주특별자치도 서귀포시 칠십리로 109","phone":"064-732-7102","openingHours":"","services":{"parking":null,"wifi":null,"outlet":null,"driveThrough":null,"terrace":null,"pet":null},"petPolicyType":"정보 없음","lastCheckedAt":""},{"id":"스타벅스_kakao_26102947","brand":"스타벅스","name":"스타벅스 제주용담DT점","lat":33.5124867330564,"lng":126.484480056159,"address":"제주특별자치도 제주시 서해안로 380","phone":"1522-3232","openingHours":"","services":{"parking":null,"wifi":true,"outlet":true,"driveThrough":true,"terrace":null,"pet":null},"petPolicyType":"정보 없음","lastCheckedAt":"2026-07-09","_source":"kakao-local"},{"id":"스타벅스_kakao_17884787","brand":"스타벅스","name":"스타벅스 제주중문점","lat":33.251236988375084,"lng":126.41268258774258,"address":"제주특별자치도 서귀포시 중문관광로110번길 32","phone":"1522-3232","openingHours":"","services":{"parking":null,"wifi":true,"outlet":true,"driveThrough":null,"terrace":null,"pet":null},"petPolicyType":"정보 없음","lastCheckedAt":"2026-07-09","_source":"kakao-local"},{"id":"스타벅스_kakao_1693150085","brand":"스타벅스","name":"스타벅스 제주애월DT점","lat":33.4727524725769,"lng":126.34876370442912,"address":"제주특별자치도 제주시 애월읍 애월해안로 376","phone":"1522-3232","openingHours":"","services":{"parking":null,"wifi":true,"outlet":true,"driveThrough":true,"terrace":null,"pet":null},"petPolicyType":"정보 없음","lastCheckedAt":"2026-07-09","_source":"kakao-local"},{"id":"스타벅스_kakao_675287243","brand":"스타벅스","name":"스타벅스 더제주송당파크R점","lat":33.43551932303755,"lng":126.73143570780672,"address":"제주특별자치도 제주시 구좌읍 비자림로 1189","phone":"1522-3232","openingHours":"","services":{"parking":null,"wifi":true,"outlet":true,"driveThrough":null,"terrace":null,"pet":null},"petPolicyType":"정보 없음","lastCheckedAt":"2026-07-09","_source":"kakao-local"},{"id":"스타벅스_kakao_414395112","brand":"스타벅스","name":"스타벅스 제주성산DT점","lat":33.4496930061935,"lng":126.920676533644,"address":"제주특별자치도 서귀포시 성산읍 일출로 80","phone":"1522-3232","openingHours":"","services":{"parking":null,"wifi":true,"outlet":true,"driveThrough":true,"terrace":null,"pet":null},"petPolicyType":"정보 없음","lastCheckedAt":"2026-07-09","_source":"kakao-local"},{"id":"스타벅스_kakao_1617472209","brand":"스타벅스","name":"스타벅스 제주협재점","lat":33.3937601737581,"lng":126.240413847396,"address":"제주특별자치도 제주시 한림읍 한림로 337","phone":"1522-3232","openingHours":"","services":{"parking":null,"wifi":true,"outlet":true,"driveThrough":null,"terrace":null,"pet":null},"petPolicyType":"정보 없음","lastCheckedAt":"2026-07-09","_source":"kakao-local"},