[{"id":"메가MGC커피_MA010120220800223521","brand":"메가MGC커피","name":"메가엠지씨커피 구리돌다리점","lat":37.6002132597095,"lng":127.141460786757,"address":"경기도 구리시 검배로6번길 3","phone":"031-555-3301","openingHours":"","services":{"parking":null,"wifi":true,"outlet":true,"driveThrough":null,"terrace":null,"pet":null},"petPolicyType":"불가","lastCheckedAt":""},{"id":"이디야커피_MA010120220800060299","brand":"이디야커피","name":"이디야김포풍무역점","lat":37.6114021792798,"lng":126.732847051052,"address":"경기도 김포시 유현로238번길 31","phone":"031-988-5040","openingHours":"","services":{"parking":null,"wifi":null,"outlet":null,"driveThrough":null,"terrace":null,"pet":null},"petPolicyType":"정보 없음","lastCheckedAt":""},{"id":"엔제리너스_MA010120220800186814","brand":"엔제리너스","name":"엔제리너스커피일산엠 씨티점","lat":37.6542451151909,"lng":126.772050664091,"address":"경기도 고양시 일산동구 백마로 195","phone":"","openingHours":"","services":{"parking":null,"wifi":null,"outlet":null,"driveThrough":null,"terrace":null,"pet":null},"petPolicyType":"정보 없음","lastCheckedAt":""},{"id":"메가MGC커피_MA010120220800101745","brand":"메가MGC커피","name":"메가엠지씨커피시흥함송점","lat":37.3637650018133,"lng":126.730713449341,"address":"경기도 시흥시 함송로 21","phone":"031-499-7332","openingHours":"","services":{"parking":null,"wifi":null,"outlet":null,"driveThrough":null,"terrace":null,"pet":null},"petPolicyType":"정보 없음","lastCheckedAt":""},{"id":"이디야커피_MA010120220800159678","brand":"이디야커피","name":"이디야커피","lat":37.2527799031285,"lng":127.073436458152,"address":"경기도 수원시 영통구 봉영로 1590","phone":"031-204-6112","openingHours":"","services":{"parking":null,"wifi":null,"outlet":null,"driveThrough":null,"terrace":null,"pet":null},"petPolicyType":"정보 없음","lastCheckedAt":""},{"id":"텐퍼센트커피_MA010120220800056431","brand":"텐퍼센트커피","name":"텐퍼센트스페셜티커피광교레이크시티점","lat":37.271033505626,"lng":127.060150126667,"address":"경기도 수원시 영통구 광교호수공원로 20","phone":"","openingHours":"","services":{"parking":null,"wifi":null,"outlet":null,"driveThrough":null,"terrace":null,"pet":null},"petPolicyType":"정보 없음","lastCheckedAt":""},{"id":"컴포즈커피_MA010120220800100739","brand":"컴포즈커피","name":"컴포즈커피일산마두역점","lat":37.6520915953908,"lng":126.776669356231,"address":"경기도 고양시 일산동구 장백로 194","phone":"010-8071-1703","openingHours":"","services":{"parking":null,"wifi":true,"outlet":true,"driveThrough":null,"terrace":null,"pet":null},"petPolicyType":"정보 없음","lastCheckedAt":""},{"id":"컴포즈커피_MA010120220800150987","brand":"컴포즈커피","name":"컴포즈초지역 푸르지오점","lat":37.324065288093,"lng":126.803774096124,"address":"경기도 안산시 단원구 화랑로 150","phone":"070-8779-7999","openingHours":"","services":{"parking":null,"wifi":true,"outlet":true,"driveThrough":null,"terrace":null,"pet":null},"petPolicyType":"정보 없음","lastCheckedAt":""},{"id":"이디야커피_MA010120220800092548","brand":"이디야커피","name":"이디야커피","lat":37.8544764425756,"lng":126.786900389645,"address":"경기도 파주시 문산읍 문산역로 91","phone":"031-952-7767","openingHours":"","services":{"parking":null,"wifi":null,"outlet":null,"driveThrough":null,"terrace":null,"pet":null},"petPolicyType":"정보 없음","lastCheckedAt":""},{"id":"매머드커피_MA010120220800083772","brand":"매머드커피","name":"매머드익스프레스인덕원디지털엠파이어점","lat":37.3967306619272,"lng":126.973324924592,"address":"경기도 안양시 동안구 시민대로 387","phone":"","openingHours":"","services":{"parking":null,"wifi":null,"outlet":null,"driveThrough":null,"terrace":null,"pet":null},"petPolicyType":"정보 없음","lastCheckedAt":""},{"id":"빽다방_MA010120220800152961","brand":"빽다방","name":"빽다방수원호매실칠보점","lat":37.2695996231352,"lng":126.957867522685,"address":"경기도 수원시 권선구 금호로 56","phone":"031-294-8253","openingHours":"","services":{"parking":null,"wifi":true,"outlet":true,"driveThrough":null,"terrace":null,"pet":null},"petPolicyType":"정보 없음","lastCheckedAt":""},{"id":"커피에반하다_MA010120220800055976","brand":"커피에반하다","name":"커피에반하다스마트카페","lat":37.3753216732497,"lng":126.737186576464,"address":"경기도 시흥시 배곧4로 81-39","phone":"","openingHours":"","services":{"parking":null,"wifi":null,"outlet":null,"driveThrough":null,"terrace":null,"pet":null},"petPolicyType":"정보 없음","lastCheckedAt":""},{"id":"공차_MA010120220800574353","brand":"공차","name":"공차 김포구래점","lat":37.644338336013,"lng":126.628282165136,"address":"경기도 김포시 김포한강7로 71","phone":"031-996-6439","openingHours":"","services":{"parking":null,"wifi":false,"outlet":false,"driveThrough":null,"terrace":null,"pet":null},"petPolicyType":"정보 없음","lastCheckedAt":""},{"id":"커피에반하다_MA010120220800531161","brand":"커피에반하다","name":"커피에반하다","lat":37.2349573095587,"lng":127.193357716158,"address":"경기도 용인시 처인구 중부대로 1338","phone":"031-339-5459","openingHours":"","services":{"parking":null,"wifi":null,"outlet":null,"driveThrough":null,"terrace":null,"pet":null},"petPolicyType":"정보 없음","lastCheckedAt":""},{"id":"빽다방_MA010120220800451112","brand":"빽다방","name":"빽다방고양서정 마을점","lat":37.6184419904106,"lng":126.845546747409,"address":"경기도 고양시 덕양구 중앙로 450","phone":"","openingHours":"","services":{"parking":null,"wifi":true,"outlet":true,"driveThrough":null,"terrace":null,"pet":null},"petPolicyType":"정보 없음","lastCheckedAt":""},{"id":"이디야커피_MA010120220800609420","brand":"이디야커피","name":"이디야진접센트레빌점","lat":37.7401493350033,"lng":127.200200765697,"address":"경기도 남양주시 진접읍 부평로 42","phone":"031-510-0642","openingHours":"","services":{"parking":null,"wifi":null,"outlet":null,"driveThrough":null,"terrace":null,"pet":null},"petPolicyType":"정보 없음","lastCheckedAt":""},{"id":"투썸플레이스_MA010120220800471071","brand":"투썸플레이스","name":"투썸플레이스오산시티 자이점","lat":37.1509130538468,"lng":127.090752051376,"address":"경기도 오산시 부산중앙로 25-6","phone":"031-372-6246","openingHours":"","services":{"parking":null,"wifi":true,"outlet":true,"driveThrough":null,"terrace":null,"pet":null},"petPolicyType":"정보 없음","lastCheckedAt":""},{"id":"투썸플레이스_MA010120220800456555","brand":"투썸플레이스","name":"투썸플레이스 안성공도점","lat":36.9985626108175,"lng":127.163930409453,"address":"경기도 안성시 공도읍 공도로 25","phone":"031-691-2020","openingHours":"","services":{"parking":null,"wifi":true,"outlet":true,"driveThrough":null,"terrace":null,"pet":null},"petPolicyType":"정보 없음","lastCheckedAt":""},{"id":"봄봄_MA010120220800532136","brand":"봄봄","name":"카페봄봄","lat":37.3830995879936,"lng":126.931867799897,"address":"경기도 안양시 만안구 성결대학로 20","phone":"031-465-7710","openingHours":"","services":{"parking":null,"wifi":null,"outlet":null,"driveThrough":null,"terrace":null,"pet":null},"petPolicyType":"정보 없음","lastCheckedAt":""},{"id":"더벤티_MA010120220800385429","brand":"더벤티","name":"더벤티평촌학원가점","lat":37.383706884254,"lng":126.959294237311,"address":"경기도 안양시 동안구 평촌대로 131","phone":"031-382-6688","openingHours":"","services":{"parking":null,"wifi":null,"outlet":null,"driveThrough":null,"terrace":null,"pet":null},"petPolicyType":"정보 없음","lastCheckedAt":""},{"id":"할리스_MA010120220800518675","brand":"할리스","name":"할리스커피 양평점","lat":37.494216401976,"lng":127.498605966268,"address":"경기도 양평군 양평읍 중앙로 90","phone":"","openingHours":"","services":{"parking":null,"wifi":true,"outlet":true,"driveThrough":null,"terrace":null,"pet":null},"petPolicyType":"정보 없음","lastCheckedAt":""},{"id":"투썸플레이스_MA010120220800375061","brand":"투썸플레이스","name":"투썸플레이스운정역점","lat":37.7290404666538,"lng":126.761135850059,"address":"경기도 파주시 경의로 1250","phone":"031-944-6060","openingHours":"","services":{"parking":null,"wifi":true,"outlet":true,"driveThrough":null,"terrace":null,"pet":null},"petPolicyType":"정보 없음","lastCheckedAt":""},{"id":"컴포즈커피_MA010120220800427733","brand":"컴포즈커피","name":"컴포즈커피 용인보정점","lat":37.3207501750036,"lng":127.112933285782,"address":"경기도 용인시 기흥구 죽전로 39","phone":"031-276-9593","openingHours":"","services":{"parking":null,"wifi":true,"outlet":true,"driveThrough":null,"terrace":null,"pet":null},"petPolicyType":"정보 없음","lastCheckedAt":""},{"id":"메가MGC커피_MA010120220800451097","brand":"메가MGC커피","name":"메가엠지씨커피에브리데이 병점점","lat":37.202390817447,"lng":127.041441755745,"address":"경기도 화성시 병점구 병점1로 66-10","phone":"031-224-0009","openingHours":"","services":{"parking":null,"wifi":null,"outlet":null,"driveThrough":null,"terrace":null,"pet":null},"petPolicyType":"정보 없음","lastCheckedAt":""},{"id":"빽다방_MA010120220800517701","brand":"빽다방","name":"빽다방동탄역아이비파크점","lat":37.2027962267801,"lng":127.090205850936,"address":"경기도 화성시 동탄구 동탄광역환승로 73","phone":"031-374-0851","openingHours":"","services":{"parking":null,"wifi":true,"outlet":true,"driveThrough":null,"terrace":null,"pet":null},"petPolicyType":"정보 없음","lastCheckedAt":""},{"id":"공차_MA010120220800607942","brand":"공차","name":"공차광교 중앙역점","lat":37.2882562793031,"lng":127.051897650441,"address":"경기도 수원시 영통구 도청로 45","phone":"031-212-3367","openingHours":"","services":{"parking":null,"wifi":false,"outlet":false,"driveThrough":null,"terrace":null,"pet":null},"petPolicyType":"정보 없음","lastCheckedAt":""},{"id":"빽다방_MA010120220800921736","brand":"빽다방","name":"빽다방분당정자역점","lat":37.3652851920975,"lng":127.106317082166,"address":"경기도 성남시 분당구 성남대로331번길 13","phone":"031-719-6889","openingHours":"","services":{"parking":null,"wifi":true,"outlet":true,"driveThrough":null,"terrace":null,"pet":null},"petPolicyType":"정보 없음","lastCheckedAt":""},{"id":"메가MGC커피_MA010120220800803620","brand":"메가MGC커피","name":"메가엠지씨커피 행신역점","lat":37.6148049975427,"lng":126.834465808531,"address":"경기도 고양시 덕양구 충장로 22","phone":"031-971-2019","openingHours":"","services":{"parking":null,"wifi":null,"outlet":null,"driveThrough":null,"terrace":null,"pet":null},"petPolicyType":"정보 없음","lastCheckedAt":""},{"id":"매머드커피_MA010120220800660334","brand":"매머드커피","name":"매머드익스프레스포레나 광교점","lat":37.284189714556,"lng":127.058096980644,"address":"경기도 수원시 영통구 광교호수공원로 300","phone":"","openingHours":"","services":{"parking":null,"wifi":null,"outlet":null,"driveThrough":null,"terrace":null,"pet":null},"petPolicyType":"정보 없음","lastCheckedAt":""},{"id":"컴포즈커피_MA010120220800803600","brand":"컴포즈커피","name":"컴포즈커피송내역점","lat":37.4891347088336,"lng":126.752460265942,"address":"경기도 부천시 원미구 부일로 203","phone":"032-290-7300","openingHours":"","services":{"parking":null,"wifi":true,"outlet":true,"driveThrough":null,"terrace":null,"pet":null},"petPolicyType":"정보 없음","lastCheckedAt":""},{"id":"이디야커피_MA010120220800801804","brand":"이디야커피","name":"이디야안산수암동점","lat":37.3642237004426,"lng":126.876875767672,"address":"경기도 안산시 상록구 수암2길 3","phone":"031-413-2299","openingHours":"","services":{"parking":null,"wifi":null,"outlet":null,"driveThrough":null,"terrace":null,"pet":null},"petPolicyType":"정보 없음","lastCheckedAt":""},{"id":"빽다방_MA010120220800896889","brand":"빽다방","name":"빽다방분당서현대명점","lat":37.3865311007835,"lng":127.125001278628,"address":"경기도 성남시 분당구 황새울로360번길 12","phone":"031-706-4014","openingHours":"","services":{"parking":null,"wifi":true,"outlet":true,"driveThrough":null,"terrace":null,"pet":null},"petPolicyType":"정보 없음","lastCheckedAt":""},{"id":"메가MGC커피_MA010120220800656372","brand":"메가MGC커피","name":"메가엠지씨커피덕소삼거리","lat":37.5862678044786,"lng":127.212343992185,"address":"경기도 남양주시 와부읍 덕소로 89","phone":"031-521-6657","openingHours":"","services":{"parking":null,"wifi":null,"outlet":null,"driveThrough":null,"terrace":null,"pet":null},"petPolicyType":"정보 없음","lastCheckedAt":""},{"id":"더벤티_MA010120220800843683","brand":"더벤티","name":"더벤티월곶점","lat":37.389480465284,"lng":126.738876174026,"address":"경기도 시흥시 월곶중앙로58번길 5-6","phone":"070-8691-1516","openingHours":"","services":{"parking":null,"wifi":null,"outlet":null,"driveThrough":null,"terrace":null,"pet":null},"petPolicyType":"정보 없음","lastCheckedAt":""},{"id":"공차_MA010120220800617386","brand":"공차","name":"공차NC 안산고잔점","lat":37.3134661247826,"lng":126.831011286865,"address":"경기도 안산시 단원구 광덕대로 194","phone":"","openingHours":"","services":{"parking":null,"wifi":false,"outlet":false,"driveThrough":null,"terrace":null,"pet":null},"petPolicyType":"정보 없음","lastCheckedAt":""},{"id":"할리스_MA010120220800673839","brand":"할리스","name":"할리스커피덕양 구청점","lat":37.6361004406254,"lng":126.831733474923,"address":"경기도 고양시 덕양구 화중로104번길 8","phone":"070-4647-0030","openingHours":"","services":{"parking":null,"wifi":true,"outlet":true,"driveThrough":null,"terrace":null,"pet":null},"petPolicyType":"정보 없음","lastCheckedAt":""},{"id":"텐퍼센트커피_MA010120220800611715","brand":"텐퍼센트커피","name":"텐퍼센트배곧도서관점","lat":37.3745923703452,"lng":126.733395655602,"address":"경기도 시흥시 배곧4로 87","phone":"0507-1856-7024","openingHours":"","services":{"parking":null,"wifi":null,"outlet":null,"driveThrough":null,"terrace":null,"pet":null},"petPolicyType":"정보 없음","lastCheckedAt":""},{"id":"이디야커피_MA010120220800735565","brand":"이디야커피","name":"이디야 안양일번가점","lat":37.3992860694664,"lng":126.923845838979,"address":"경기도 안양시 만안구 만안로 207","phone":"031-442-6967","openingHours":"","services":{"parking":null,"wifi":null,"outlet":null,"driveThrough":null,"terrace":null,"pet":null},"petPolicyType":"정보 없음","lastCheckedAt":""},{"id":"컴포즈커피_MA010120220800635535","brand":"컴포즈커피","name":"컴포즈커피화성 수원대점","lat":37.214154233472,"lng":126.975451045106,"address":"경기도 화성시 효행구 봉담읍 와우로 89","phone":"031-8019-9584","openingHours":"","services":{"parking":null,"wifi":true,"outlet":true,"driveThrough":null,"terrace":null,"pet":null},"petPolicyType":"정보 없음","lastCheckedAt":""},{"id":"빽다방_MA010120220800680391","brand":"빽다방","name":"빽다방시흥세종 프라자점","lat":37.3632236458823,"lng":126.730388021083,"address":"경기도 시흥시 함송로 24","phone":"0507-1371-0218","openingHours":"","services":{"parking":null,"wifi":true,"outlet":true,"driveThrough":null,"terrace":null,"pet":null},"petPolicyType":"정보 없음","lastCheckedAt":""},{"id":"메가MGC커피_MA010120220800661553","brand":"메가MGC커피","name":"메가커피동탄서연점","lat":37.1618173422017,"lng":127.110253341016,"address":"경기도 화성시 동탄구 동탄대로4길 39","phone":"031-378-1449","openingHours":"","services":{"parking":null,"wifi":null,"outlet":null,"driveThrough":null,"terrace":null,"pet":null},"petPolicyType":"정보 없음","lastCheckedAt":""},{"id":"컴포즈커피_MA010120220800743613","brand":"컴포즈커피","name":"컴포즈커피오이도빨강등대점","lat":37.3449903265618,"lng":126.687816095577,"address":"경기도 시흥시 오이도로 179","phone":"031-8042-5777","openingHours":"","services":{"parking":null,"wifi":true,"outlet":true,"driveThrough":null,"terrace":null,"pet":null},"petPolicyType":"정보 없음","lastCheckedAt":""},{"id":"이디야커피_MA010120220800643909","brand":"이디야커피","name":"이디야킨텍스 홈플러스점","lat":37.6679979039186,"lng":126.751640728544,"address":"경기도 고양시 일산서구 호수로 817","phone":"031-922-7613","openingHours":"","services":{"parking":null,"wifi":null,"outlet":null,"driveThrough":null,"terrace":null,"pet":null},"petPolicyType":"정보 없음","lastCheckedAt":""},{"id":"투썸플레이스_MA010120220800870894","brand":"투썸플레이스","name":"투썸플레이스","lat":37.4999517164179,"lng":126.777598239808,"address":"경기도 부천시 원미구 신흥로 178","phone":"032-620-5812","openingHours":"","services":{"parking":null,"wifi":true,"outlet":true,"driveThrough":null,"terrace":null,"pet":null},"petPolicyType":"정보 없음","lastCheckedAt":""},{"id":"메가MGC커피_MA010120220800922896","brand":"메가MGC커피","name":"메가엠지씨커피부천상동 로데오점","lat":37.5042713837153,"lng":126.752365059904,"address":"경기도 부천시 원미구 상동로 79","phone":"032-322-3044","openingHours":"","services":{"parking":null,"wifi":null,"outlet":null,"driveThrough":null,"terrace":null,"pet":null},"petPolicyType":"정보 없음","lastCheckedAt":""},{"id":"할리스_MA010120220800844716","brand":"할리스","name":"할리스커피군포IT밸리점","lat":37.3496189228498,"lng":126.953511456202,"address":"경기도 군포시 고산로148번길 17","phone":"031-8086-8211","openingHours":"","services":{"parking":null,"wifi":true,"outlet":true,"driveThrough":null,"terrace":null,"pet":null},"petPolicyType":"정보 없음","lastCheckedAt":""},{"id":"매머드커피_MA010120220801142444","brand":"매머드커피","name":"매머드익스프레스북 위례점","lat":37.4874986602967,"lng":127.155528798844,"address":"경기도 하남시 위례대로6길 15","phone":"","openingHours":"","services":{"parking":null,"wifi":null,"outlet":null,"driveThrough":null,"terrace":null,"pet":null},"petPolicyType":"정보 없음","lastCheckedAt":""},{"id":"빽다방_MA010120220801429532","brand":"빽다방","name":"빽다방수원정자 시장점","lat":37.2902229053268,"lng":127.001003696496,"address":"경기도 수원시 장안구 수성로261번길 6","phone":"031-548-4460","openingHours":"","services":{"parking":null,"wifi":true,"outlet":true,"driveThrough":null,"terrace":null,"pet":null},"petPolicyType":"정보 없음","lastCheckedAt":""},{"id":"더벤티_MA010120220801233177","brand":"더벤티","name":"더벤티부천중동 팰리스점","lat":37.4927414964493,"lng":126.767114633564,"address":"경기도 부천시 원미구 중동로 146","phone":"","openingHours":"","services":{"parking":null,"wifi":null,"outlet":null,"driveThrough":null,"terrace":null,"pet":null},"petPolicyType":"정보 없음","lastCheckedAt":""},{"id":"이디야커피_MA010120220801233101","brand":"이디야커피","name":"이디야성남단대점","lat":37.4465005467841,"lng":127.157150324071,"address":"경기도 성남시 수정구 산성대로 383","phone":"031-742-0083","openingHours":"","services":{"parking":null,"wifi":null,"outlet":null,"driveThrough":null,"terrace":null,"pet":null},"petPolicyType":"정보 없음","lastCheckedAt":""},{"id":"매머드커피_MA010120220801430274","brand":"매머드커피","name":"매머드익스프레스수원 터미널점","lat":37.2501878395728,"lng":127.020694509222,"address":"경기도 수원시 권선구 경수대로 270","phone":"","openingHours":"","services":{"parking":null,"wifi":null,"outlet":null,"driveThrough":null,"terrace":null,"pet":null},"petPolicyType":"정보 없음","lastCheckedAt":""},{"id":"빽다방_MA010120220801143043","brand":"빽다방","name":"빽다방파주교하 중앙점","lat":37.7251528244305,"lng":126.718305526897,"address":"경기도 파주시 청석로 262","phone":"031-945-3354","openingHours":"","services":{"parking":null,"wifi":true,"outlet":true,"driveThrough":null,"terrace":null,"pet":null},"petPolicyType":"정보 없음","lastCheckedAt":""},{"id":"메가MGC커피_MA010120220801145800","brand":"메가MGC커피","name":"메가엠지씨커피주엽역점","lat":37.6697546730699,"lng":126.760283208577,"address":"경기도 고양시 일산서구 주화로 70","phone":"031-922-0445","openingHours":"","services":{"parking":null,"wifi":null,"outlet":null,"driveThrough":null,"terrace":null,"pet":null},"petPolicyType":"정보 없음","lastCheckedAt":""},{"id":"투썸플레이스_MA010120220801314726","brand":"투썸플레이스","name":"투썸플레이스청점 만안구","lat":37.3865423264895,"lng":126.933321339521,"address":"경기도 안양시 만안구 문예로 53","phone":"","openingHours":"","services":{"parking":null,"wifi":true,"outlet":true,"driveThrough":null,"terrace":null,"pet":null},"petPolicyType":"정보 없음","lastCheckedAt":""},{"id":"이디야커피_MA010120220801434411","brand":"이디야커피","name":"이디야수원권선 중앙점","lat":37.2511845779334,"lng":127.035190146044,"address":"경기도 수원시 권선구 동수원로242번길 9","phone":"","openingHours":"","services":{"parking":null,"wifi":null,"outlet":null,"driveThrough":null,"terrace":null,"pet":null},"petPolicyType":"정보 없음","lastCheckedAt":""},{"id":"빽다방_MA010120220801284643","brand":"빽다방","name":"빽다방안양대림대앞점","lat":37.4012356682723,"lng":126.929310211031,"address":"경기도 안양시 동안구 경수대로 980","phone":"031-464-0013","openingHours":"","services":{"parking":null,"wifi":true,"outlet":true,"driveThrough":null,"terrace":null,"pet":null},"petPolicyType":"정보 없음","lastCheckedAt":""},{"id":"커피에반하다_MA010120220801313361","brand":"커피에반하다","name":"커피에반하다","lat":37.4005273458514,"lng":126.920603206523,"address":"경기도 안양시 만안구 안양로 316","phone":"0502-5551-6246","openingHours":"","services":{"parking":null,"wifi":null,"outlet":null,"driveThrough":null,"terrace":null,"pet":null},"petPolicyType":"정보 없음","lastCheckedAt":""},{"id":"메가MGC커피_MA010120220801375856","brand":"메가MGC커피","name":"메가엠지씨커피수원엠파이어점","lat":37.247466833878,"lng":127.050269166527,"address":"경기도 수원시 영통구 신원로 88","phone":"031-695-8220","openingHours":"","services":{"parking":null,"wifi":null,"outlet":null,"driveThrough":null,"terrace":null,"pet":null},"petPolicyType":"정보 없음","lastCheckedAt":""},{"id":"이디야커피_MA010120220801466277","brand":"이디야커피","name":"이디야커피","lat":36.9930569542779,"lng":127.087351378821,"address":"경기도 평택시 평택1로12번길 3","phone":"031-655-7058","openingHours":"","services":{"parking":null,"wifi":null,"outlet":null,"driveThrough":null,"terrace":null,"pet":null},"petPolicyType":"정보 없음","lastCheckedAt":""},{"id":"빽다방_MA010120220801145766","brand":"빽다방","name":"빽다방시흥목감조남점","lat":37.3779466216154,"lng":126.853436629627,"address":"경기도 시흥시 목감남서로 9-27","phone":"070-4833-0219","openingHours":"","services":{"parking":null,"wifi":true,"outlet":true,"driveThrough":null,"terrace":null,"pet":null},"petPolicyType":"정보 없음","lastCheckedAt":""},{"id":"이디야커피_MA010120220801436889","brand":"이디야커피","name":"이디야커피","lat":37.2656785787546,"lng":127.000101464448,"address":"경기도 수원시 팔달구 덕영대로 924","phone":"031-240-2110","openingHours":"","services":{"parking":null,"wifi":null,"outlet":null,"driveThrough":null,"terrace":null,"pet":null},"petPolicyType":"정보 없음","lastCheckedAt":""},{"id":"카페베네_MA010120220801472404","brand":"카페베네","name":"카페베네 안성점","lat":37.0070609941593,"lng":127.271382486009,"address":"경기도 안성시 중앙로 402","phone":"031-671-6232","openingHours":"","services":{"parking":null,"wifi":true,"outlet":true,"driveThrough":null,"terrace":null,"pet":null},"petPolicyType":"정보 없음","lastCheckedAt":""},{"id":"카페베네_MA010120220801363202","brand":"카페베네","name":"카페베네","lat":37.2462910899151,"lng":127.059713431127,"address":"경기도 수원시 영통구 덕영대로 1543","phone":"031-206-4333","openingHours":"","services":{"parking":null,"wifi":true,"outlet":true,"driveThrough":null,"terrace":null,"pet":null},"petPolicyType":"정보 없음","lastCheckedAt":""},{"id":"할리스_MA010120220801294144","brand":"할리스","name":"할리스커피숍 산본점","lat":37.35879068092,"lng":126.933210445594,"address":"경기도 군포시 번영로 505","phone":"031-392-5999","openingHours":"","services":{"parking":null,"wifi":true,"outlet":true,"driveThrough":null,"terrace":null,"pet":null},"petPolicyType":"정보 없음","lastCheckedAt":""},{"id":"이디야커피_MA010120220801396568","brand":"이디야커피","name":"이디야서수원몰점","lat":37.282632400093,"lng":126.970151485977,"address":"경기도 수원시 권선구 수인로 291","phone":"","openingHours":"","services":{"parking":null,"wifi":null,"outlet":null,"driveThrough":null,"terrace":null,"pet":null},"petPolicyType":"정보 없음","lastCheckedAt":""},{"id":"커피나무_MA010120220801417458","brand":"커피나무","name":"커피나무","lat":37.2570814572919,"lng":127.01668336844,"address":"경기도 수원시 권선구 세지로 55","phone":"031-223-9577","openingHours":"","services":{"parking":null,"wifi":true,"outlet":null,"driveThrough":null,"terrace":null,"pet":null},"petPolicyType":"정보 없음","lastCheckedAt":""},{"id":"공차_MA010120220801035929","brand":"공차","name":"공차구리수택점 코리아","lat":37.5913679752136,"lng":127.139405945555,"address":"경기도 구리시 체육관로74번길 23","phone":"031-564-0707","openingHours":"","services":{"parking":null,"wifi":false,"outlet":false,"driveThrough":null,"terrace":null,"pet":null},"petPolicyType":"정보 없음","lastCheckedAt":""},{"id":"투썸플레이스_MA010120220801049398","brand":"투썸플레이스","name":"투썸플레이스","lat":37.5077231620518,"lng":126.77536971549,"address":"경기도 부천시 원미구 신흥로 270","phone":"032-322-5696","openingHours":"","services":{"parking":null,"wifi":true,"outlet":true,"driveThrough":null,"terrace":null,"pet":null},"petPolicyType":"정보 없음","lastCheckedAt":""},{"id":"투썸플레이스_MA010120220801435183","brand":"투썸플레이스","name":"투썸플레이스","lat":37.2685257463664,"lng":127.005422915245,"address":"경기도 수원시 팔달구 매산로 37","phone":"031-251-0086","openingHours":"","services":{"parking":null,"wifi":true,"outlet":true,"driveThrough":null,"terrace":null,"pet":null},"petPolicyType":"정보 없음","lastCheckedAt":""},{"id":"컴포즈커피_MA010120220801150007","brand":"컴포즈커피","name":"컴포즈커피의정부신곡1동점","lat":37.7309540441763,"lng":127.055857821991,"address":"경기도 의정부시 발곡로 10","phone":"","openingHours":"","services":{"parking":null,"wifi":true,"outlet":true,"driveThrough":null,"terrace":null,"pet":null},"petPolicyType":"정보 없음","lastCheckedAt":""},{"id":"공차_MA010120220801382301","brand":"공차","name":"공차오산역점","lat":37.1455481904568,"lng":127.069336786924,"address":"경기도 오산시 오산로212번길 8","phone":"031-373-9969","openingHours":"","services":{"parking":null,"wifi":false,"outlet":false,"driveThrough":null,"terrace":null,"pet":null},"petPolicyType":"정보 없음","lastCheckedAt":""},{"id":"공차_MA010120220801311233","brand":"공차","name":"공차 산본점","lat":37.3601416239845,"lng":126.932159469968,"address":"경기도 군포시 산본로323번길 10-22","phone":"031-391-0505","openingHours":"","services":{"parking":null,"wifi":false,"outlet":false,"driveThrough":null,"terrace":null,"pet":null},"petPolicyType":"정보 없음","lastCheckedAt":""},{"id":"컴포즈커피_MA010120220801146511","brand":"컴포즈커피","name":"컴포즈커피의정부센트럴 자이점","lat":37.7332817873797,"lng":127.048542466492,"address":"경기도 의정부시 경의로 115","phone":"031-855-5585","openingHours":"","services":{"parking":null,"wifi":true,"outlet":true,"driveThrough":null,"terrace":null,"pet":null},"petPolicyType":"정보 없음","lastCheckedAt":""},{"id":"할리스_MA010120220801514676","brand":"할리스","name":"할리스커피","lat":36.9931654386301,"lng":127.08686846356,"address":"경기도 평택시 평택1로 11","phone":"031-651-1223","openingHours":"","services":{"parking":null,"wifi":true,"outlet":true,"driveThrough":null,"terrace":null,"pet":null},"petPolicyType":"정보 없음","lastCheckedAt":""},{"id":"이디야커피_MA010120220801798488","brand":"이디야커피","name":"이디야","lat":37.655902909646,"lng":126.772045596105,"address":"경기도 고양시 일산동구 정발산로 24","phone":"031-903-8858","openingHours":"","services":{"parking":null,"wifi":null,"outlet":null,"driveThrough":null,"terrace":null,"pet":null},"petPolicyType":"정보 없음","lastCheckedAt":""},{"id":"탐앤탐스_MA010120220801812120","brand":"탐앤탐스","name":"탐앤탐스","lat":37.6357240556338,"lng":126.833161839159,"address":"경기도 고양시 덕양구 화중로104번길 28","phone":"031-965-3496","openingHours":"","services":{"parking":null,"wifi":true,"outlet":true,"driveThrough":null,"terrace":null,"pet":null},"petPolicyType":"정보 없음","lastCheckedAt":""},{"id":"투썸플레이스_MA010120220801668323","brand":"투썸플레이스","name":"투썸플레이스","lat":37.739543698325,"lng":127.048126778968,"address":"경기도 의정부시 행복로 5-1","phone":"031-843-7272","openingHours":"","services":{"parking":null,"wifi":true,"outlet":true,"driveThrough":null,"terrace":null,"pet":null},"petPolicyType":"정보 없음","lastCheckedAt":""},{"id":"이디야커피_MA010120220801834394","brand":"이디야커피","name":"이디야대화 마을점","lat":37.6709181001102,"lng":126.735535553084,"address":"경기도 고양시 일산서구 대화로 138","phone":"031-919-2896","openingHours":"","services":{"parking":null,"wifi":null,"outlet":null,"driveThrough":null,"terrace":null,"pet":null},"petPolicyType":"정보 없음","lastCheckedAt":""},{"id":"이디야커피_MA010120220801722508","brand":"이디야커피","name":"이디야커피솔뫼 D/T점","lat":37.7314158487553,"lng":127.082607466782,"address":"경기도 의정부시 시민로 450","phone":"031-841-3700","openingHours":"","services":{"parking":null,"wifi":null,"outlet":null,"driveThrough":null,"terrace":null,"pet":null},"petPolicyType":"정보 없음","lastCheckedAt":""},{"id":"이디야커피_MA010120220801937063","brand":"이디야커피","name":"이디야커피 성남상대원점","lat":37.4407270493625,"lng":127.162336260806,"address":"경기도 성남시 중원구 금상로57번길 4","phone":"031-603-9846","openingHours":"","services":{"parking":null,"wifi":null,"outlet":null,"driveThrough":null,"terrace":null,"pet":null},"petPolicyType":"정보 없음","lastCheckedAt":""},{"id":"이디야커피_MA010120220801770890","brand":"이디야커피","name":"이디야커피","lat":37.6260883037614,"lng":126.824052990731,"address":"경기도 고양시 덕양구 지도로 100","phone":"031-971-4288","openingHours":"","services":{"parking":null,"wifi":null,"outlet":null,"driveThrough":null,"terrace":null,"pet":null},"petPolicyType":"정보 없음","lastCheckedAt":""},{"id":"카페베네_MA010120220801501734","brand":"카페베네","name":"카페베네송탄신장점","lat":37.08103124578,"lng":127.053240584649,"address":"경기도 평택시 쇼핑로 34","phone":"","openingHours":"","services":{"parking":null,"wifi":true,"outlet":true,"driveThrough":null,"terrace":null,"pet":null},"petPolicyType":"정보 없음","lastCheckedAt":""},{"id":"투썸플레이스_MA010120220802062341","brand":"투썸플레이스","name":"제이엔에스에이투썸플레이스","lat":37.5033160120054,"lng":126.760963386442,"address":"경기도 부천시 원미구 석천로177번길 31","phone":"032-328-1481","openingHours":"","services":{"parking":null,"wifi":true,"outlet":true,"driveThrough":null,"terrace":null,"pet":null},"petPolicyType":"정보 없음","lastCheckedAt":""},{"id":"컴포즈커피_MA010120220801839217","brand":"컴포즈커피","name":"컴포즈커피김포태장로점","lat":37.6368234787473,"lng":126.67701428591,"address":"경기도 김포시 태장로 820","phone":"031-998-1393","openingHours":"","services":{"parking":null,"wifi":true,"outlet":true,"driveThrough":null,"terrace":null,"pet":null},"petPolicyType":"정보 없음","lastCheckedAt":""},{"id":"이디야커피_MA010120220801597111","brand":"이디야커피","name":"이디야이천몰점","lat":37.2939817626097,"lng":127.459128088171,"address":"경기도 이천시 이섭대천로 1440-50","phone":"","openingHours":"","services":{"parking":null,"wifi":null,"outlet":null,"driveThrough":null,"terrace":null,"pet":null},"petPolicyType":"정보 없음","lastCheckedAt":""},{"id":"투썸플레이스_MA010120220801925579","brand":"투썸플레이스","name":"투썸플레이스판교 테크노밸리점","lat":37.4020898908779,"lng":127.108639197372,"address":"경기도 성남시 분당구 판교역로 235","phone":"031-696-7777","openingHours":"","services":{"parking":null,"wifi":true,"outlet":true,"driveThrough":null,"terrace":null,"pet":null},"petPolicyType":"정보 없음","lastCheckedAt":""},{"id":"메가MGC커피_MA010120220801614364","brand":"메가MGC커피","name":"메가커피","lat":37.2527729304137,"lng":127.491690110947,"address":"경기도 이천시 부발읍 경충대로2092번길 39-7","phone":"031-637-9958","openingHours":"","services":{"parking":null,"wifi":null,"outlet":null,"driveThrough":null,"terrace":null,"pet":null},"petPolicyType":"정보 없음","lastCheckedAt":""},{"id":"엔제리너스_MA010120220801595092","brand":"엔제리너스","name":"엔제리너스커피하남신장 사거리점","lat":37.538331023426,"lng":127.204310301006,"address":"경기도 하남시 신장로 126","phone":"031-795-7956","openingHours":"","services":{"parking":null,"wifi":null,"outlet":null,"driveThrough":null,"terrace":null,"pet":null},"petPolicyType":"정보 없음","lastCheckedAt":""},{"id":"커피에반하다_MA010120220801654080","brand":"커피에반하다","name":"커피에반하다","lat":37.7404340196251,"lng":127.05198480463,"address":"경기도 의정부시 태평로90번길 6","phone":"010-8788-4463","openingHours":"","services":{"parking":null,"wifi":null,"outlet":null,"driveThrough":null,"terrace":null,"pet":null},"petPolicyType":"정보 없음","lastCheckedAt":""},{"id":"이디야커피_MA010120220801798791","brand":"이디야커피","name":"이디야커피마두역 2호점","lat":37.6530753719501,"lng":126.777572979095,"address":"경기도 고양시 일산동구 중앙로 1190","phone":"031-902-4177","openingHours":"","services":{"parking":null,"wifi":null,"outlet":null,"driveThrough":null,"terrace":null,"pet":null},"petPolicyType":"정보 없음","lastCheckedAt":""},{"id":"이디야커피_MA010120220801705777","brand":"이디야커피","name":"이디야","lat":37.8277946581646,"lng":127.144995072961,"address":"경기도 포천시 소흘읍 봉솔로5길 27","phone":"031-541-0444","openingHours":"","services":{"parking":null,"wifi":null,"outlet":null,"driveThrough":null,"terrace":null,"pet":null},"petPolicyType":"정보 없음","lastCheckedAt":""},{"id":"커피에반하다_MA010120220802031285","brand":"커피에반하다","name":"커피에반하다부천 오정점","lat":37.5263621726352,"lng":126.798856025055,"address":"경기도 부천시 오정구 성오로 144","phone":"","openingHours":"","services":{"parking":null,"wifi":null,"outlet":null,"driveThrough":null,"terrace":null,"pet":null},"petPolicyType":"정보 없음","lastCheckedAt":""},{"id":"투썸플레이스_MA010120220802031816","brand":"투썸플레이스","name":"투썸플레이스","lat":37.5063924355436,"lng":126.754133707954,"address":"경기도 부천시 원미구 길주로 105","phone":"032-324-2388","openingHours":"","services":{"parking":null,"wifi":true,"outlet":true,"driveThrough":null,"terrace":null,"pet":null},"petPolicyType":"정보 없음","lastCheckedAt":""},{"id":"할리스_MA010120220801923009","brand":"할리스","name":"할리스커피","lat":37.3850311173092,"lng":127.120448247267,"address":"경기도 성남시 분당구 황새울로 315","phone":"031-781-6254","openingHours":"","services":{"parking":null,"wifi":true,"outlet":true,"driveThrough":null,"terrace":null,"pet":null},"petPolicyType":"정보 없음","lastCheckedAt":""},{"id":"이디야커피_MA010120220801706980","brand":"이디야커피","name":"이디야지행역점","lat":37.8920733694945,"lng":127.053819287249,"address":"경기도 동두천시 지행로 60","phone":"031-866-4705","openingHours":"","services":{"parking":null,"wifi":null,"outlet":null,"driveThrough":null,"terrace":null,"pet":null},"petPolicyType":"정보 없음","lastCheckedAt":""},{"id":"커피빈_MA010120220801717848","brand":"커피빈","name":"커피빈스","lat":38.103275359796,"lng":127.075579345243,"address":"경기도 연천군 연천읍 연천로 296-1","phone":"","openingHours":"","services":{"parking":null,"wifi":true,"outlet":true,"driveThrough":null,"terrace":null,"pet":null},"petPolicyType":"정보 없음","lastCheckedAt":""},{"id":"이디야커피_MA010120220802052346","brand":"이디야커피","name":"이디야서울신대점","lat":37.4802087892924,"lng":126.791382199879,"address":"경기도 부천시 소사구 호현로489번길 39","phone":"032-226-8886","openingHours":"","services":{"parking":null,"wifi":null,"outlet":null,"driveThrough":null,"terrace":null,"pet":null},"petPolicyType":"정보 없음","lastCheckedAt":""},{"id":"이디야커피_MA010120220801895252","brand":"이디야커피","name":"이디야에스프레소 서현점","lat":37.3862261662382,"lng":127.123657042878,"address":"경기도 성남시 분당구 황새울로342번길 11","phone":"031-707-3316","openingHours":"","services":{"parking":null,"wifi":null,"outlet":null,"driveThrough":null,"terrace":null,"pet":null},"petPolicyType":"정보 없음","lastCheckedAt":""},{"id":"커피나무_MA010120220801611295","brand":"커피나무","name":"커피나무","lat":37.4930039345716,"lng":127.501945013062,"address":"경기도 양평군 양평읍 중앙로 120","phone":"","openingHours":"","services":{"parking":null,"wifi":true,"outlet":null,"driveThrough":null,"terrace":null,"pet":null},"petPolicyType":"정보 없음","lastCheckedAt":""},{"id":"이디야커피_MA010120220801702800","brand":"이디야커피","name":"이디야의정부 중앙점","lat":37.7409938465857,"lng":127.049126123985,"address":"경기도 의정부시 행복로 25","phone":"02-728-1546","openingHours":"","services":{"parking":null,"wifi":null,"outlet":null,"driveThrough":null,"terrace":null,"pet":null},"petPolicyType":"정보 없음","lastCheckedAt":""},{"id":"텐퍼센트커피_MA010120220801926687","brand":"텐퍼센트커피","name":"텐퍼센트 판교역점","lat":37.3964828770841,"lng":127.111499623614,"address":"경기도 성남시 분당구 대왕판교로606번길 39","phone":"031-8023-9610","openingHours":"","services":{"parking":null,"wifi":null,"outlet":null,"driveThrough":null,"terrace":null,"pet":null},"petPolicyType":"정보 없음","lastCheckedAt":""},{"id":"이디야커피_MA010120220802045618","brand":"이디야커피","name":"이디야역곡북부역점","lat":37.4862714400177,"lng":126.812192605629,"address":"경기도 부천시 원미구 부일로 743","phone":"032-345-8249","openingHours":"","services":{"parking":null,"wifi":null,"outlet":null,"driveThrough":null,"terrace":null,"pet":null},"petPolicyType":"정보 없음","lastCheckedAt":""},{"id":"이디야커피_MA010120220801936743","brand":"이디야커피","name":"이디야커피","lat":37.4176503450063,"lng":127.126883023947,"address":"경기도 성남시 중원구 양현로405번길 7","phone":"031-756-7881","openingHours":"","services":{"parking":null,"wifi":null,"outlet":null,"driveThrough":null,"terrace":null,"pet":null},"petPolicyType":"정보 없음","lastCheckedAt":""},{"id":"할리스_MA010120220802017610","brand":"할리스","name":"할리스커피","lat":37.501370148841,"lng":126.770197851379,"address":"경기도 부천시 원미구 소향로 203","phone":"032-325-6766","openingHours":"","services":{"parking":null,"wifi":true,"outlet":true,"driveThrough":null,"terrace":null,"pet":null},"petPolicyType":"정보 없음","lastCheckedAt":""},{"id":"컴포즈커피_MA010120220802033856","brand":"컴포즈커피","name":"컴포즈","lat":37.4860422418073,"lng":126.78355295524,"address":"경기도 부천시 원미구 부천로 20","phone":"032-612-0083","openingHours":"","services":{"parking":null,"wifi":true,"outlet":true,"driveThrough":null,"terrace":null,"pet":null},"petPolicyType":"정보 없음","lastCheckedAt":""},{"id":"투썸플레이스_MA010120220801596418","brand":"투썸플레이스","name":"투썸플레이스하남아이테코점","lat":37.5535291113824,"lng":127.194675724828,"address":"경기도 하남시 조정대로 150","phone":"031-790-1314","openingHours":"","services":{"parking":null,"wifi":true,"outlet":true,"driveThrough":null,"terrace":null,"pet":null},"petPolicyType":"정보 없음","lastCheckedAt":""},{"id":"투썸플레이스_MA010120220801724983","brand":"투썸플레이스","name":"투썸플레이스고양삼송 신원점","lat":37.6631275512839,"lng":126.891072173251,"address":"경기도 고양시 덕양구 권율대로 896-7","phone":"02-381-5595","openingHours":"","services":{"parking":null,"wifi":true,"outlet":true,"driveThrough":null,"terrace":null,"pet":null},"petPolicyType":"정보 없음","lastCheckedAt":""},{"id":"토프레소_MA010120220801515703","brand":"토프레소","name":"토프레소 평택점","lat":36.9943180465327,"lng":127.087925736855,"address":"경기도 평택시 중앙로 46","phone":"031-650-8212","openingHours":"","services":{"parking":null,"wifi":true,"outlet":null,"driveThrough":null,"terrace":null,"pet":null},"petPolicyType":"정보 없음","lastCheckedAt":""},{"id":"투썸플레이스_MA010120220801677064","brand":"투썸플레이스","name":"투썸플레이스포천대진대점","lat":37.8524981274639,"lng":127.165973314189,"address":"경기도 포천시 호국로 982","phone":"031-541-7300","openingHours":"","services":{"parking":null,"wifi":true,"outlet":true,"driveThrough":null,"terrace":null,"pet":null},"petPolicyType":"정보 없음","lastCheckedAt":""},{"id":"투썸플레이스_MA010120220801827938","brand":"투썸플레이스","name":"투썸플레이스일산탄현점","lat":37.6952107360759,"lng":126.76200410079,"address":"경기도 고양시 일산서구 일현로 97-11","phone":"031-921-9600","openingHours":"","services":{"parking":null,"wifi":true,"outlet":true,"driveThrough":null,"terrace":null,"pet":null},"petPolicyType":"정보 없음","lastCheckedAt":""},{"id":"투썸플레이스_MA010120220802050537","brand":"투썸플레이스","name":"투썸플레이스","lat":37.4883593278803,"lng":126.752214066598,"address":"경기도 부천시 원미구 부일로 202","phone":"032-323-4651","openingHours":"","services":{"parking":null,"wifi":true,"outlet":true,"driveThrough":null,"terrace":null,"pet":null},"petPolicyType":"정보 없음","lastCheckedAt":""},{"id":"엔제리너스_MA010120220801520615","brand":"엔제리너스","name":"엔제리너스평택성모 병원점","lat":37.0084112391838,"lng":127.074346750003,"address":"경기도 평택시 평택로 284","phone":"","openingHours":"","services":{"parking":null,"wifi":null,"outlet":null,"driveThrough":null,"terrace":null,"pet":null},"petPolicyType":"정보 없음","lastCheckedAt":""},{"id":"공차_MA010120220801936787","brand":"공차","name":"공차성남모란점 코리아","lat":37.4330798991704,"lng":127.13133822475,"address":"경기도 성남시 중원구 광명로 20","phone":"031-759-6988","openingHours":"","services":{"parking":null,"wifi":false,"outlet":false,"driveThrough":null,"terrace":null,"pet":null},"petPolicyType":"정보 없음","lastCheckedAt":""},{"id":"이디야커피_MA010120220801579088","brand":"이디야커피","name":"이디야","lat":37.2842632157735,"lng":127.635658400257,"address":"경기도 여주시 세종로 151","phone":"031-885-7621","openingHours":"","services":{"parking":null,"wifi":null,"outlet":null,"driveThrough":null,"terrace":null,"pet":null},"petPolicyType":"정보 없음","lastCheckedAt":""},{"id":"투썸플레이스_MA010120220801577798","brand":"투썸플레이스","name":"투썸플레이스","lat":37.6052051922738,"lng":127.141085194178,"address":"경기도 구리시 건원대로34번길 15","phone":"031-568-2312","openingHours":"","services":{"parking":null,"wifi":true,"outlet":true,"driveThrough":null,"terrace":null,"pet":null},"petPolicyType":"정보 없음","lastCheckedAt":""},{"id":"카페베네_MA010120220801517934","brand":"카페베네","name":"카페베네 소사벌점","lat":37.0037658986188,"lng":127.104586932437,"address":"경기도 평택시 만세로 1845-8","phone":"","openingHours":"","services":{"parking":null,"wifi":true,"outlet":true,"driveThrough":null,"terrace":null,"pet":null},"petPolicyType":"정보 없음","lastCheckedAt":""},{"id":"이디야커피_MA010120220801822136","brand":"이디야커피","name":"이디야커피 전문점","lat":37.6480836626896,"lng":126.782256384979,"address":"경기도 고양시 일산동구 중앙로 1124","phone":"031-903-3352","openingHours":"","services":{"parking":null,"wifi":null,"outlet":null,"driveThrough":null,"terrace":null,"pet":null},"petPolicyType":"정보 없음","lastCheckedAt":""},{"id":"이디야커피_MA010120220801838633","brand":"이디야커피","name":"이디야봉양동점","lat":37.8517967499967,"lng":127.077503495596,"address":"경기도 양주시 칠봉산로 195-7","phone":"031-862-6267","openingHours":"","services":{"parking":null,"wifi":null,"outlet":null,"driveThrough":null,"terrace":null,"pet":null},"petPolicyType":"정보 없음","lastCheckedAt":""},{"id":"투썸플레이스_MA010120220801922388","brand":"투썸플레이스","name":"투썸플레이스 가천대점","lat":37.4512374847921,"lng":127.129392183439,"address":"경기도 성남시 수정구 성남대로 1342","phone":"031-755-2355","openingHours":"","services":{"parking":null,"wifi":true,"outlet":true,"driveThrough":null,"terrace":null,"pet":null},"petPolicyType":"정보 없음","lastCheckedAt":""},{"id":"투썸플레이스_MA010120220801723622","brand":"투썸플레이스","name":"투썸플레이스 의정부민락점","lat":37.7405789531184,"lng":127.094292125546,"address":"경기도 의정부시 용현로 163","phone":"031-852-6580","openingHours":"","services":{"parking":null,"wifi":true,"outlet":true,"driveThrough":null,"terrace":null,"pet":null},"petPolicyType":"정보 없음","lastCheckedAt":""},{"id":"커피나무_MA010120220802046940","brand":"커피나무","name":"커피나무","lat":37.5061114547574,"lng":126.757685924602,"address":"경기도 부천시 원미구 길주로 137","phone":"032-324-5488","openingHours":"","services":{"parking":null,"wifi":true,"outlet":null,"driveThrough":null,"terrace":null,"pet":null},"petPolicyType":"정보 없음","lastCheckedAt":""},{"id":"커피나무_MA010120220802016541","brand":"커피나무","name":"커피나무","lat":37.4973804382492,"lng":126.757544510694,"address":"경기도 부천시 원미구 부흥로 133","phone":"","openingHours":"","services":{"parking":null,"wifi":true,"outlet":null,"driveThrough":null,"terrace":null,"pet":null},"petPolicyType":"정보 없음","lastCheckedAt":""},{"id":"달콤커피_MA010120220802016934","brand":"달콤커피","name":"달콤커피부천 시청역점","lat":37.5029947778304,"lng":126.76251379677,"address":"경기도 부천시 원미구 석천로 171","phone":"032-719-2115","openingHours":"","services":{"parking":null,"wifi":true,"outlet":null,"driveThrough":null,"terrace":null,"pet":null},"petPolicyType":"정보 없음","lastCheckedAt":""},{"id":"메가MGC커피_MA010120220802026088","brand":"메가MGC커피","name":"메가엠지씨커피역곡남부역점","lat":37.4848933357256,"lng":126.812467415408,"address":"경기도 부천시 소사구 경인로 517","phone":"032-342-2111","openingHours":"","services":{"parking":null,"wifi":null,"outlet":null,"driveThrough":null,"terrace":null,"pet":null},"petPolicyType":"정보 없음","lastCheckedAt":""},{"id":"커피에반하다_MA010120220801933715","brand":"커피에반하다","name":"커피에반하다","lat":37.4424069125702,"lng":127.15258775045,"address":"경기도 성남시 중원구 산성대로 322","phone":"031-743-8145","openingHours":"","services":{"parking":null,"wifi":null,"outlet":null,"driveThrough":null,"terrace":null,"pet":null},"petPolicyType":"정보 없음","lastCheckedAt":""},{"id":"공차_MA010120220801516310","brand":"공차","name":"공차송탄점","lat":37.0672501794784,"lng":127.060910869958,"address":"경기도 평택시 관광특구로 19","phone":"031-663-5583","openingHours":"","services":{"parking":null,"wifi":false,"outlet":false,"driveThrough":null,"terrace":null,"pet":null},"petPolicyType":"정보 없음","lastCheckedAt":""},{"id":"이디야커피_MA010120220801922151","brand":"이디야커피","name":"이디야커피신기 사거리점","lat":37.3615475155924,"lng":127.114281241226,"address":"경기도 성남시 분당구 불정로87번길 17","phone":"031-726-2999","openingHours":"","services":{"parking":null,"wifi":null,"outlet":null,"driveThrough":null,"terrace":null,"pet":null},"petPolicyType":"정보 없음","lastCheckedAt":""},{"id":"이디야커피_MA010120220801812243","brand":"이디야커피","name":"이디야커피숍","lat":37.6629264846305,"lng":126.769950069302,"address":"경기도 고양시 일산동구 중앙로 1317","phone":"031-811-2411","openingHours":"","services":{"parking":null,"wifi":null,"outlet":null,"driveThrough":null,"terrace":null,"pet":null},"petPolicyType":"정보 없음","lastCheckedAt":""},{"id":"이디야커피_MA010120220802641415","brand":"이디야커피","name":"이디야커피 의왕오전점","lat":37.3585709042027,"lng":126.967863897964,"address":"경기도 의왕시 원골로 14","phone":"070-8833-3621","openingHours":"","services":{"parking":null,"wifi":null,"outlet":null,"driveThrough":null,"terrace":null,"pet":null},"petPolicyType":"정보 없음","lastCheckedAt":""},{"id":"이디야커피_MA010120220802373854","brand":"이디야커피","name":"이디야광주 송정점","lat":37.4179987824128,"lng":127.256512130665,"address":"경기도 광주시 중앙로 205","phone":"031-766-1071","openingHours":"","services":{"parking":null,"wifi":null,"outlet":null,"driveThrough":null,"terrace":null,"pet":null},"petPolicyType":"정보 없음","lastCheckedAt":""},{"id":"이디야커피_MA010120220802201228","brand":"이디야커피","name":"이디야커피","lat":37.8181824382816,"lng":127.35024812993,"address":"경기도 가평군 조종면 조종희망로 14","phone":"031-584-6566","openingHours":"","services":{"parking":null,"wifi":null,"outlet":null,"driveThrough":null,"terrace":null,"pet":null},"petPolicyType":"정보 없음","lastCheckedAt":""},{"id":"이디야커피_MA010120220802620502","brand":"이디야커피","name":"이디야 평촌점","lat":37.3938627140317,"lng":126.963263880862,"address":"경기도 안양시 동안구 관평로182번길 54","phone":"031-388-9004","openingHours":"","services":{"parking":null,"wifi":null,"outlet":null,"driveThrough":null,"terrace":null,"pet":null},"petPolicyType":"정보 없음","lastCheckedAt":""},{"id":"메가MGC커피_MA010120220802508695","brand":"메가MGC커피","name":"메가엠지씨커피 원흥역점","lat":37.6497860487364,"lng":126.874955420907,"address":"경기도 고양시 덕양구 삼송로 8","phone":"031-965-1101","openingHours":"","services":{"parking":null,"wifi":null,"outlet":null,"driveThrough":null,"terrace":null,"pet":null},"petPolicyType":"정보 없음","lastCheckedAt":""},{"id":"컴포즈커피_MA010120220802672522","brand":"컴포즈커피","name":"컴포즈커피수원고등 자이점","lat":37.2725625267686,"lng":126.998601918105,"address":"경기도 수원시 팔달구 고등로 8","phone":"","openingHours":"","services":{"parking":null,"wifi":true,"outlet":true,"driveThrough":null,"terrace":null,"pet":null},"petPolicyType":"정보 없음","lastCheckedAt":""},{"id":"컴포즈커피_MA010120220802682997","brand":"컴포즈커피","name":"컴포즈커피부천신흥 시장점","lat":37.5164342983934,"lng":126.769880191988,"address":"경기도 부천시 오정구 중동로 409","phone":"070-7647-2560","openingHours":"","services":{"parking":null,"wifi":true,"outlet":true,"driveThrough":null,"terrace":null,"pet":null},"petPolicyType":"정보 없음","lastCheckedAt":""},{"id":"이디야커피_MA010120220802218032","brand":"이디야커피","name":"이디야 호평점","lat":37.6550867273601,"lng":127.244111935295,"address":"경기도 남양주시 늘을2로 26","phone":"031-594-2673","openingHours":"","services":{"parking":null,"wifi":null,"outlet":null,"driveThrough":null,"terrace":null,"pet":null},"petPolicyType":"정보 없음","lastCheckedAt":""},{"id":"이디야커피_MA010120220802215476","brand":"이디야커피","name":"이디야","lat":37.6572322504615,"lng":127.301983902552,"address":"경기도 남양주시 화도읍 비룡로 58","phone":"031-595-7632","openingHours":"","services":{"parking":null,"wifi":null,"outlet":null,"driveThrough":null,"terrace":null,"pet":null},"petPolicyType":"정보 없음","lastCheckedAt":""},{"id":"투썸플레이스_MA010120220802333005","brand":"투썸플레이스","name":"투썸플레이스안산 상록수점","lat":37.3022199917936,"lng":126.865156242582,"address":"경기도 안산시 상록구 상록수로 48","phone":"031-409-6608","openingHours":"","services":{"parking":null,"wifi":true,"outlet":true,"driveThrough":null,"terrace":null,"pet":null},"petPolicyType":"정보 없음","lastCheckedAt":""},{"id":"투썸플레이스_MA010120220802452488","brand":"투썸플레이스","name":"투썸플레이스수원 인계점","lat":37.2598536227361,"lng":127.031620650664,"address":"경기도 수원시 팔달구 권광로 138","phone":"031-224-2388","openingHours":"","services":{"parking":null,"wifi":true,"outlet":true,"driveThrough":null,"terrace":null,"pet":null},"petPolicyType":"정보 없음","lastCheckedAt":""},{"id":"메가MGC커피_MA010120220802513643","brand":"메가MGC커피","name":"메가엠지씨커피일산 서구점","lat":37.6894259222885,"lng":126.77082059805,"address":"경기도 고양시 일산서구 산현로92번길 60","phone":"031-911-0627","openingHours":"","services":{"parking":null,"wifi":null,"outlet":null,"driveThrough":null,"terrace":null,"pet":null},"petPolicyType":"정보 없음","lastCheckedAt":""},{"id":"엔제리너스_MA010120220802426255","brand":"엔제리너스","name":"엔제리너스용인유 타워점","lat":37.274896171297,"lng":127.080087752878,"address":"경기도 용인시 기흥구 흥덕중앙로 120","phone":"031-627-2211","openingHours":"","services":{"parking":null,"wifi":null,"outlet":null,"driveThrough":null,"terrace":null,"pet":null},"petPolicyType":"정보 없음","lastCheckedAt":""},{"id":"투썸플레이스_MA010120220802231733","brand":"투썸플레이스","name":"투썸플레이스양평 터미널점","lat":37.4905664258848,"lng":127.50095626279,"address":"경기도 양평군 양평읍 시민로 84","phone":"031-773-2333","openingHours":"","services":{"parking":null,"wifi":true,"outlet":true,"driveThrough":null,"terrace":null,"pet":null},"petPolicyType":"정보 없음","lastCheckedAt":""},{"id":"투썸플레이스_MA010120220802454009","brand":"투썸플레이스","name":"투썸플레이스수원드라마센타점","lat":37.2700886655119,"lng":127.034466100401,"address":"경기도 수원시 팔달구 권광로255번길 8","phone":"031-216-0300","openingHours":"","services":{"parking":null,"wifi":true,"outlet":true,"driveThrough":null,"terrace":null,"pet":null},"petPolicyType":"정보 없음","lastCheckedAt":""},{"id":"이디야커피_MA010120220802331107","brand":"이디야커피","name":"이디야","lat":37.3144047384794,"lng":126.838567514481,"address":"경기도 안산시 단원구 광덕4로 234","phone":"031-410-5585","openingHours":"","services":{"parking":null,"wifi":null,"outlet":null,"driveThrough":null,"terrace":null,"pet":null},"petPolicyType":"정보 없음","lastCheckedAt":""},{"id":"이디야커피_MA010120220802217179","brand":"이디야커피","name":"이디야커피","lat":37.708825021611,"lng":127.182028206928,"address":"경기도 남양주시 진접읍 금강로유연들1길 154","phone":"031-574-0026","openingHours":"","services":{"parking":null,"wifi":null,"outlet":null,"driveThrough":null,"terrace":null,"pet":null},"petPolicyType":"정보 없음","lastCheckedAt":""},{"id":"할리스_MA010120220802642932","brand":"할리스","name":"할리스커피평촌스마트스퀘어","lat":37.39607965491,"lng":126.964663171702,"address":"경기도 안양시 동안구 시민대로 311","phone":"031-421-8097","openingHours":"","services":{"parking":null,"wifi":true,"outlet":true,"driveThrough":null,"terrace":null,"pet":null},"petPolicyType":"정보 없음","lastCheckedAt":""},{"id":"이디야커피_MA010120220802227054","brand":"이디야커피","name":"이디야","lat":37.5863849327517,"lng":127.212344324907,"address":"경기도 남양주시 와부읍 덕소로 87-1","phone":"031-521-8202","openingHours":"","services":{"parking":null,"wifi":null,"outlet":null,"driveThrough":null,"terrace":null,"pet":null},"petPolicyType":"정보 없음","lastCheckedAt":""},{"id":"투썸플레이스_MA010120220802333748","brand":"투썸플레이스","name":"투썸플레이스안산 중앙역점","lat":37.31795616469,"lng":126.839563983562,"address":"경기도 안산시 단원구 고잔1길 54","phone":"031-402-5588","openingHours":"","services":{"parking":null,"wifi":true,"outlet":true,"driveThrough":null,"terrace":null,"pet":null},"petPolicyType":"정보 없음","lastCheckedAt":""},{"id":"투썸플레이스_MA010120220802320157","brand":"투썸플레이스","name":"투썸안양1번가점","lat":37.3992860694664,"lng":126.923845838979,"address":"경기도 안양시 만안구 만안로 207","phone":"031-441-7123","openingHours":"","services":{"parking":null,"wifi":true,"outlet":true,"driveThrough":null,"terrace":null,"pet":null},"petPolicyType":"정보 없음","lastCheckedAt":""},{"id":"이디야커피_MA010120220802231131","brand":"이디야커피","name":"이디야","lat":37.6428114508185,"lng":127.125973324456,"address":"경기도 남양주시 순화궁로 167","phone":"031-572-2345","openingHours":"","services":{"parking":null,"wifi":null,"outlet":null,"driveThrough":null,"terrace":null,"pet":null},"petPolicyType":"정보 없음","lastCheckedAt":""},{"id":"이디야커피_MA010120220802469584","brand":"이디야커피","name":"이디야수원디지털엠파이어2점","lat":37.247466833878,"lng":127.050269166527,"address":"경기도 수원시 영통구 신원로 88","phone":"031-695-8217","openingHours":"","services":{"parking":null,"wifi":null,"outlet":null,"driveThrough":null,"terrace":null,"pet":null},"petPolicyType":"정보 없음","lastCheckedAt":""},{"id":"메가MGC커피_MA010120220802615663","brand":"메가MGC커피","name":"메가엠지씨커피인덕원벌말점","lat":37.3937041879606,"lng":126.977989995004,"address":"경기도 안양시 동안구 흥안대로456번길 42","phone":"031-421-4556","openingHours":"","services":{"parking":null,"wifi":null,"outlet":null,"driveThrough":null,"terrace":null,"pet":null},"petPolicyType":"정보 없음","lastCheckedAt":""},{"id":"메가MGC커피_MA010120220802423947","brand":"메가MGC커피","name":"메가엠지씨커피수원연무 시장점","lat":37.2946170017773,"lng":127.026526195912,"address":"경기도 수원시 장안구 연무로13번길 58","phone":"031-248-4813","openingHours":"","services":{"parking":null,"wifi":null,"outlet":null,"driveThrough":null,"terrace":null,"pet":null},"petPolicyType":"정보 없음","lastCheckedAt":""},{"id":"투썸플레이스_MA010120220802636854","brand":"투썸플레이스","name":"투썸플레이스인덕원역점","lat":37.4030200694522,"lng":126.974587664804,"address":"경기도 안양시 동안구 관악대로 472","phone":"031-347-7270","openingHours":"","services":{"parking":null,"wifi":true,"outlet":true,"driveThrough":null,"terrace":null,"pet":null},"petPolicyType":"정보 없음","lastCheckedAt":""},{"id":"투썸플레이스_MA010120220802469311","brand":"투썸플레이스","name":"투썸플레이스오산 시청점","lat":37.1485093561878,"lng":127.074798848581,"address":"경기도 오산시 성호대로 122","phone":"031-376-4151","openingHours":"","services":{"parking":null,"wifi":true,"outlet":true,"driveThrough":null,"terrace":null,"pet":null},"petPolicyType":"정보 없음","lastCheckedAt":""},{"id":"투썸플레이스_MA010120220802214357","brand":"투썸플레이스","name":"투썸플레이스서종리버사이드점","lat":37.6246350812397,"lng":127.353744493985,"address":"경기도 양평군 서종면 북한강로 983","phone":"031-772-1104","openingHours":"","services":{"parking":null,"wifi":true,"outlet":true,"driveThrough":null,"terrace":null,"pet":null},"petPolicyType":"정보 없음","lastCheckedAt":""},{"id":"이디야커피_MA010120220802626544","brand":"이디야커피","name":"이디야평촌학원가점","lat":37.3838420105705,"lng":126.959215123813,"address":"경기도 안양시 동안구 평촌대로 133","phone":"070-7776-8883","openingHours":"","services":{"parking":null,"wifi":null,"outlet":null,"driveThrough":null,"terrace":null,"pet":null},"petPolicyType":"정보 없음","lastCheckedAt":""},{"id":"이디야커피_MA010120220802469098","brand":"이디야커피","name":"이디야커피","lat":37.2379217902752,"lng":127.056844327341,"address":"경기도 수원시 영통구 영통로 115","phone":"031-202-1476","openingHours":"","services":{"parking":null,"wifi":null,"outlet":null,"driveThrough":null,"terrace":null,"pet":null},"petPolicyType":"정보 없음","lastCheckedAt":""},{"id":"이디야커피_MA010120220802229974","brand":"이디야커피","name":"이디야","lat":37.6020858285517,"lng":127.142698690682,"address":"경기도 구리시 경춘로 249","phone":"031-556-4291","openingHours":"","services":{"parking":null,"wifi":null,"outlet":null,"driveThrough":null,"terrace":null,"pet":null},"petPolicyType":"정보 없음","lastCheckedAt":""},{"id":"커피나무_MA010120220802455786","brand":"커피나무","name":"커피나무","lat":37.2523019852762,"lng":127.074022129543,"address":"경기도 수원시 영통구 반달로7번길 6","phone":"","openingHours":"","services":{"parking":null,"wifi":true,"outlet":null,"driveThrough":null,"terrace":null,"pet":null},"petPolicyType":"정보 없음","lastCheckedAt":""},{"id":"토프레소_MA010120220802298434","brand":"토프레소","name":"토프레소안산스타프라자","lat":37.3208103132793,"lng":126.844725093815,"address":"경기도 안산시 상록구 화랑로 513","phone":"031-482-6564","openingHours":"","services":{"parking":null,"wifi":true,"outlet":null,"driveThrough":null,"terrace":null,"pet":null},"petPolicyType":"정보 없음","lastCheckedAt":""},{"id":"이디야커피_MA010120220802367557","brand":"이디야커피","name":"이디야커피성포점","lat":37.326747788012,"lng":126.844475935214,"address":"경기도 안산시 상록구 예술광장1로 124","phone":"031-410-5369","openingHours":"","services":{"parking":null,"wifi":null,"outlet":null,"driveThrough":null,"terrace":null,"pet":null},"petPolicyType":"정보 없음","lastCheckedAt":""},{"id":"이디야커피_MA010120220802240600","brand":"이디야커피","name":"이디야","lat":37.8289502620573,"lng":127.514321502418,"address":"경기도 가평군 가평읍 가화로 104","phone":"031-582-0049","openingHours":"","services":{"parking":null,"wifi":null,"outlet":null,"driveThrough":null,"terrace":null,"pet":null},"petPolicyType":"정보 없음","lastCheckedAt":""},{"id":"투썸플레이스_MA010120220802235132","brand":"투썸플레이스","name":"투썸별내 신도시점","lat":37.6531996729786,"lng":127.117344442161,"address":"경기도 남양주시 별내5로 54","phone":"031-575-2313","openingHours":"","services":{"parking":null,"wifi":true,"outlet":true,"driveThrough":null,"terrace":null,"pet":null},"petPolicyType":"정보 없음","lastCheckedAt":""},{"id":"이디야커피_MA010120220802451117","brand":"이디야커피","name":"이디야수원 인계점","lat":37.2628179676393,"lng":127.031937545154,"address":"경기도 수원시 팔달구 권광로 169","phone":"031-226-1112","openingHours":"","services":{"parking":null,"wifi":null,"outlet":null,"driveThrough":null,"terrace":null,"pet":null},"petPolicyType":"정보 없음","lastCheckedAt":""},{"id":"이디야커피_MA010120220802232299","brand":"이디야커피","name":"이디야커피도농역점","lat":37.6088285058745,"lng":127.161149337792,"address":"경기도 남양주시 경춘로 433","phone":"","openingHours":"","services":{"parking":null,"wifi":null,"outlet":null,"driveThrough":null,"terrace":null,"pet":null},"petPolicyType":"정보 없음","lastCheckedAt":""},{"id":"매머드커피_MA010120220802276722","brand":"매머드커피","name":"매머드익스프레스평촌하이필드점","lat":37.3943331707425,"lng":126.970095956949,"address":"경기도 안양시 동안구 벌말로 66","phone":"","openingHours":"","services":{"parking":null,"wifi":null,"outlet":null,"driveThrough":null,"terrace":null,"pet":null},"petPolicyType":"정보 없음","lastCheckedAt":""},{"id":"투썸플레이스_MA010120220802580187","brand":"투썸플레이스","name":"투썸플레이스김포 고촌점","lat":37.6027134495179,"lng":126.769807204656,"address":"경기도 김포시 고촌읍 장차로 3","phone":"031-989-4604","openingHours":"","services":{"parking":null,"wifi":true,"outlet":true,"driveThrough":null,"terrace":null,"pet":null},"petPolicyType":"정보 없음","lastCheckedAt":""},{"id":"투썸플레이스_MA010120220802448391","brand":"투썸플레이스","name":"투썸플레이스 아주대점","lat":37.2792039817031,"lng":127.044144930243,"address":"경기도 수원시 영통구 월드컵로 199","phone":"031-215-2785","openingHours":"","services":{"parking":null,"wifi":true,"outlet":true,"driveThrough":null,"terrace":null,"pet":null},"petPolicyType":"정보 없음","lastCheckedAt":""},{"id":"투썸플레이스_MA010120220802449065","brand":"투썸플레이스","name":"투썸플레이스","lat":37.2463089969157,"lng":127.059938864053,"address":"경기도 수원시 영통구 덕영대로 1545","phone":"031-203-8613","openingHours":"","services":{"parking":null,"wifi":true,"outlet":true,"driveThrough":null,"terrace":null,"pet":null},"petPolicyType":"정보 없음","lastCheckedAt":""},{"id":"이디야커피_MA010120220802649816","brand":"이디야커피","name":"이디야커피","lat":37.7082444404775,"lng":127.046881754264,"address":"경기도 의정부시 망월로 11","phone":"031-873-2621","openingHours":"","services":{"parking":null,"wifi":null,"outlet":null,"driveThrough":null,"terrace":null,"pet":null},"petPolicyType":"정보 없음","lastCheckedAt":""},{"id":"투썸플레이스_MA010120220802580575","brand":"투썸플레이스","name":"투썸플레이스사우점","lat":37.6199452359489,"lng":126.718091291275,"address":"경기도 김포시 돌문로 50-12","phone":"031-989-8990","openingHours":"","services":{"parking":null,"wifi":true,"outlet":true,"driveThrough":null,"terrace":null,"pet":null},"petPolicyType":"정보 없음","lastCheckedAt":""},{"id":"이디야커피_MA010120220802238778","brand":"이디야커피","name":"이디야커피청평점","lat":37.7385148355332,"lng":127.420597684147,"address":"경기도 가평군 청평면 청평중앙로 57","phone":"031-584-8177","openingHours":"","services":{"parking":null,"wifi":null,"outlet":null,"driveThrough":null,"terrace":null,"pet":null},"petPolicyType":"정보 없음","lastCheckedAt":""},{"id":"투썸플레이스_MA010120220802626296","brand":"투썸플레이스","name":"투썸플레이스 평촌역점","lat":37.3951156287457,"lng":126.964889487967,"address":"경기도 안양시 동안구 시민대로 312","phone":"031-421-2311","openingHours":"","services":{"parking":null,"wifi":true,"outlet":true,"driveThrough":null,"terrace":null,"pet":null},"petPolicyType":"정보 없음","lastCheckedAt":""},{"id":"메가MGC커피_MA010120220802240778","brand":"메가MGC커피","name":"메가엠지씨커피안양수촌 마을점","lat":37.403653755474,"lng":126.954460712711,"address":"경기도 안양시 동안구 관평로305번길 49","phone":"031-382-1009","openingHours":"","services":{"parking":null,"wifi":null,"outlet":null,"driveThrough":null,"terrace":null,"pet":null},"petPolicyType":"정보 없음","lastCheckedAt":""},{"id":"이디야커피_MA010120220802453451","brand":"이디야커피","name":"이디야커피성빈센트 병원점","lat":37.2779205417221,"lng":127.027456215024,"address":"경기도 수원시 팔달구 중부대로 93","phone":"031-249-8340","openingHours":"","services":{"parking":null,"wifi":null,"outlet":null,"driveThrough":null,"terrace":null,"pet":null},"petPolicyType":"정보 없음","lastCheckedAt":""},{"id":"빽다방_MA010120220802586199","brand":"빽다방","name":"빽다방동탄북 광장점","lat":37.2059799606726,"lng":127.07270392606,"address":"경기도 화성시 동탄구 동탄중심상가2길 5","phone":"031-613-1148","openingHours":"","services":{"parking":null,"wifi":true,"outlet":true,"driveThrough":null,"terrace":null,"pet":null},"petPolicyType":"정보 없음","lastCheckedAt":""},{"id":"달콤커피_MA010120220802466258","brand":"달콤커피","name":"dal.kommCOFFEE동탄석우점달콤커피","lat":37.2185091685796,"lng":127.079543630406,"address":"경기도 화성시 동탄구 큰재봉길 29","phone":"","openingHours":"","services":{"parking":null,"wifi":true,"outlet":null,"driveThrough":null,"terrace":null,"pet":null},"petPolicyType":"정보 없음","lastCheckedAt":""},{"id":"투썸플레이스_MA010120220802632975","brand":"투썸플레이스","name":"투썸플레이스계원예술대점","lat":37.3797651010259,"lng":126.976661745112,"address":"경기도 의왕시 계원대학로 47","phone":"031-425-1870","openingHours":"","services":{"parking":null,"wifi":true,"outlet":true,"driveThrough":null,"terrace":null,"pet":null},"petPolicyType":"정보 없음","lastCheckedAt":""},{"id":"공차_MA010120220802328278","brand":"공차","name":"공차용인 동백점","lat":37.2773928656583,"lng":127.152603575317,"address":"경기도 용인시 기흥구 동백5로 21-11","phone":"031-286-6208","openingHours":"","services":{"parking":null,"wifi":false,"outlet":false,"driveThrough":null,"terrace":null,"pet":null},"petPolicyType":"정보 없음","lastCheckedAt":""},{"id":"공차_MA010120220802470444","brand":"공차","name":"홈플러스공차 영통점","lat":37.251807290821,"lng":127.072601404076,"address":"경기도 수원시 영통구 봉영로 1576","phone":"070-8880-8642","openingHours":"","services":{"parking":null,"wifi":false,"outlet":false,"driveThrough":null,"terrace":null,"pet":null},"petPolicyType":"정보 없음","lastCheckedAt":""},{"id":"이디야커피_MA010120220802274984","brand":"이디야커피","name":"이디야의정부신곡점","lat":37.7439633883717,"lng":127.057229114609,"address":"경기도 의정부시 추동로19번길 21","phone":"031-844-9583","openingHours":"","services":{"parking":null,"wifi":null,"outlet":null,"driveThrough":null,"terrace":null,"pet":null},"petPolicyType":"정보 없음","lastCheckedAt":""},{"id":"이디야커피_MA010120220802233971","brand":"이디야커피","name":"이디야","lat":37.7176112493718,"lng":127.180892823801,"address":"경기도 남양주시 진접읍 장현로 77","phone":"031-528-0076","openingHours":"","services":{"parking":null,"wifi":null,"outlet":null,"driveThrough":null,"terrace":null,"pet":null},"petPolicyType":"정보 없음","lastCheckedAt":""},{"id":"더벤티_MA010120220802929131","brand":"더벤티","name":"더벤티 안산본오점","lat":37.2937834174246,"lng":126.86265630546,"address":"경기도 안산시 상록구 샘골로 111","phone":"031-233-4642","openingHours":"","services":{"parking":null,"wifi":null,"outlet":null,"driveThrough":null,"terrace":null,"pet":null},"petPolicyType":"정보 없음","lastCheckedAt":""},{"id":"할리스_MA010120220802873100","brand":"할리스","name":"할리스커피판교엠 타워점","lat":37.402704240854,"lng":127.106821699001,"address":"경기도 성남시 분당구 판교역로241번길 22","phone":"031-8017-7557","openingHours":"","services":{"parking":null,"wifi":true,"outlet":true,"driveThrough":null,"terrace":null,"pet":null},"petPolicyType":"정보 없음","lastCheckedAt":""},{"id":"이디야커피_MA010120220802876095","brand":"이디야커피","name":"이디야수 내동점","lat":37.3747885096696,"lng":127.118433514328,"address":"경기도 성남시 분당구 내정로173번길 11","phone":"031-711-9951","openingHours":"","services":{"parking":null,"wifi":null,"outlet":null,"driveThrough":null,"terrace":null,"pet":null},"petPolicyType":"정보 없음","lastCheckedAt":""},{"id":"커피나무_MA010120220802812790","brand":"커피나무","name":"커피나무","lat":37.3210384728513,"lng":127.112967563421,"address":"경기도 용인시 기흥구 죽전로43번길 11-3","phone":"","openingHours":"","services":{"parking":null,"wifi":true,"outlet":null,"driveThrough":null,"terrace":null,"pet":null},"petPolicyType":"정보 없음","lastCheckedAt":""},{"id":"메가MGC커피_MA010120220802882289","brand":"메가MGC커피","name":"메가커피수원매탄초 사거리점","lat":37.263840585612,"lng":127.045849541281,"address":"경기도 수원시 영통구 인계로 260","phone":"031-212-7111","openingHours":"","services":{"parking":null,"wifi":null,"outlet":null,"driveThrough":null,"terrace":null,"pet":null},"petPolicyType":"정보 없음","lastCheckedAt":""},{"id":"매머드커피_MA010120220802687914","brand":"매머드커피","name":"매머드익스프레스미사그랑파사쥬점","lat":37.5637241650815,"lng":127.191748103944,"address":"경기도 하남시 미사강변동로 95","phone":"","openingHours":"","services":{"parking":null,"wifi":null,"outlet":null,"driveThrough":null,"terrace":null,"pet":null},"petPolicyType":"정보 없음","lastCheckedAt":""},{"id":"이디야커피_MA010120220802735867","brand":"이디야커피","name":"이디야광명사거리역점","lat":37.4795743963045,"lng":126.855182982161,"address":"경기도 광명시 오리로 974","phone":"02-2619-1025","openingHours":"","services":{"parking":null,"wifi":null,"outlet":null,"driveThrough":null,"terrace":null,"pet":null},"petPolicyType":"정보 없음","lastCheckedAt":""},{"id":"공차_MA010120220802826972","brand":"공차","name":"공차 수지구청점","lat":37.3222068588809,"lng":127.095899251055,"address":"경기도 용인시 수지구 문정로 15","phone":"031-263-0712","openingHours":"","services":{"parking":null,"wifi":false,"outlet":false,"driveThrough":null,"terrace":null,"pet":null},"petPolicyType":"정보 없음","lastCheckedAt":""},{"id":"이디야커피_MA010120220802806038","brand":"이디야커피","name":"이디야흥덕몰점","lat":37.2757475320285,"lng":127.073323459023,"address":"경기도 용인시 기흥구 흥덕중앙로 60","phone":"","openingHours":"","services":{"parking":null,"wifi":null,"outlet":null,"driveThrough":null,"terrace":null,"pet":null},"petPolicyType":"정보 없음","lastCheckedAt":""},{"id":"컴포즈커피_MA010120220802866743","brand":"컴포즈커피","name":"컴포즈커피기흥 구청점","lat":37.2805909346436,"lng":127.112997291917,"address":"경기도 용인시 기흥구 구갈로72번길 14","phone":"031-281-2722","openingHours":"","services":{"parking":null,"wifi":true,"outlet":true,"driveThrough":null,"terrace":null,"pet":null},"petPolicyType":"정보 없음","lastCheckedAt":""},{"id":"커피에반하다_MA010120220802875245","brand":"커피에반하다","name":"커피에반하다","lat":37.349315168296,"lng":127.110481781981,"address":"경기도 성남시 분당구 미금일로90번길 36-5","phone":"031-713-1221","openingHours":"","services":{"parking":null,"wifi":null,"outlet":null,"driveThrough":null,"terrace":null,"pet":null},"petPolicyType":"정보 없음","lastCheckedAt":""},{"id":"이디야커피_MA010120220802836148","brand":"이디야커피","name":"명랑쌀핫도그&이디야커피광주 경안점","lat":37.4097223389377,"lng":127.258855931204,"address":"경기도 광주시 경안로 17","phone":"","openingHours":"","services":{"parking":null,"wifi":null,"outlet":null,"driveThrough":null,"terrace":null,"pet":null},"petPolicyType":"정보 없음","lastCheckedAt":""},{"id":"공차_MA010120220802907038","brand":"공차","name":"공차과천별양점","lat":37.4285394835267,"lng":126.993571321956,"address":"경기도 과천시 별양상가1로 35","phone":"02-504-8809","openingHours":"","services":{"parking":null,"wifi":false,"outlet":false,"driveThrough":null,"terrace":null,"pet":null},"petPolicyType":"정보 없음","lastCheckedAt":""},{"id":"컴포즈커피_MA010120220802866114","brand":"컴포즈커피","name":"컴포즈커피금촌 로터리점","lat":37.757399619027,"lng":126.773153019692,"address":"경기도 파주시 후곡로 2","phone":"","openingHours":"","services":{"parking":null,"wifi":true,"outlet":true,"driveThrough":null,"terrace":null,"pet":null},"petPolicyType":"정보 없음","lastCheckedAt":""},{"id":"메가MGC커피_MA010120220802909284","brand":"메가MGC커피","name":"메가엠지씨커피","lat":37.1670165675484,"lng":127.128050348714,"address":"경기도 화성시 동탄구 동탄순환대로12길 85","phone":"031-376-8577","openingHours":"","services":{"parking":null,"wifi":null,"outlet":null,"driveThrough":null,"terrace":null,"pet":null},"petPolicyType":"정보 없음","lastCheckedAt":""},{"id":"투썸플레이스_MA010120220802916290","brand":"투썸플레이스","name":"투썸플레이스광명 철산점","lat":37.4749420496356,"lng":126.869662547111,"address":"경기도 광명시 철산로30번길 14","phone":"02-2616-1928","openingHours":"","services":{"parking":null,"wifi":true,"outlet":true,"driveThrough":null,"terrace":null,"pet":null},"petPolicyType":"정보 없음","lastCheckedAt":""},{"id":"투썸플레이스_MA010120220802940257","brand":"투썸플레이스","name":"투썸광명스마트타운","lat":37.4206677657249,"lng":126.890125189482,"address":"경기도 광명시 일직로 79","phone":"02-899-0020","openingHours":"","services":{"parking":null,"wifi":true,"outlet":true,"driveThrough":null,"terrace":null,"pet":null},"petPolicyType":"정보 없음","lastCheckedAt":""},{"id":"메가MGC커피_MA010120220802903883","brand":"메가MGC커피","name":"메가엠지씨커피민락코스트코점","lat":37.7500171920226,"lng":127.118575115403,"address":"경기도 의정부시 용민로 493","phone":"031-851-5564","openingHours":"","services":{"parking":null,"wifi":null,"outlet":null,"driveThrough":null,"terrace":null,"pet":null},"petPolicyType":"정보 없음","lastCheckedAt":""},{"id":"이디야커피_MA010120220802687034","brand":"이디야커피","name":"이디야포천 중앙점","lat":37.8898014141351,"lng":127.198308907064,"address":"경기도 포천시 호국로 1499","phone":"031-535-7488","openingHours":"","services":{"parking":null,"wifi":null,"outlet":null,"driveThrough":null,"terrace":null,"pet":null},"petPolicyType":"정보 없음","lastCheckedAt":""},{"id":"탐앤탐스_MA010120220802719414","brand":"탐앤탐스","name":"탐앤탐스소하 이마트점","lat":37.4479176882539,"lng":126.884050555073,"address":"경기도 광명시 소하로 77","phone":"","openingHours":"","services":{"parking":null,"wifi":true,"outlet":true,"driveThrough":null,"terrace":null,"pet":null},"petPolicyType":"정보 없음","lastCheckedAt":""},{"id":"이디야커피_MA010120220802881321","brand":"이디야커피","name":"이디야커피판교 중앙점","lat":37.3969437516441,"lng":127.110054744255,"address":"경기도 성남시 분당구 판교역로 182","phone":"","openingHours":"","services":{"parking":null,"wifi":null,"outlet":null,"driveThrough":null,"terrace":null,"pet":null},"petPolicyType":"정보 없음","lastCheckedAt":""},{"id":"컴포즈커피_MA010120220802949798","brand":"컴포즈커피","name":"컴포즈커피남양주덕소점","lat":37.578768687806,"lng":127.213930253636,"address":"경기도 남양주시 와부읍 덕소로 180","phone":"031-576-0702","openingHours":"","services":{"parking":null,"wifi":true,"outlet":true,"driveThrough":null,"terrace":null,"pet":null},"petPolicyType":"정보 없음","lastCheckedAt":""},{"id":"투썸플레이스_MA010120220802929249","brand":"투썸플레이스","name":"투썸플레이스-지행역점","lat":37.8926952907725,"lng":127.053228564193,"address":"경기도 동두천시 지행로 53","phone":"031-866-2530","openingHours":"","services":{"parking":null,"wifi":true,"outlet":true,"driveThrough":null,"terrace":null,"pet":null},"petPolicyType":"정보 없음","lastCheckedAt":""},{"id":"이디야커피_MA010120220802687329","brand":"이디야커피","name":"이디야커피단원 병원점","lat":37.3003821089647,"lng":126.81240767202,"address":"경기도 안산시 단원구 원포공원1로 19","phone":"031-405-6102","openingHours":"","services":{"parking":null,"wifi":null,"outlet":null,"driveThrough":null,"terrace":null,"pet":null},"petPolicyType":"정보 없음","lastCheckedAt":""},{"id":"이디야커피_MA010120220802728509","brand":"이디야커피","name":"이디야철산역점","lat":37.4748225678045,"lng":126.867548689756,"address":"경기도 광명시 오리로856번길 6","phone":"","openingHours":"","services":{"parking":null,"wifi":null,"outlet":null,"driveThrough":null,"terrace":null,"pet":null},"petPolicyType":"정보 없음","lastCheckedAt":""},{"id":"이디야커피_MA010120220802775068","brand":"이디야커피","name":"이디야","lat":37.72510641985,"lng":126.717738549313,"address":"경기도 파주시 청석로 260","phone":"","openingHours":"","services":{"parking":null,"wifi":null,"outlet":null,"driveThrough":null,"terrace":null,"pet":null},"petPolicyType":"정보 없음","lastCheckedAt":""},{"id":"이디야커피_MA010120220802954074","brand":"이디야커피","name":"이디야커피","lat":37.7152490856945,"lng":126.901339445643,"address":"경기도 고양시 덕양구 혜음로 166","phone":"070-4401-7770","openingHours":"","services":{"parking":null,"wifi":null,"outlet":null,"driveThrough":null,"terrace":null,"pet":null},"petPolicyType":"정보 없음","lastCheckedAt":""},{"id":"이디야커피_MA010120220802741685","brand":"이디야커피","name":"이디야범박점","lat":37.4737026809769,"lng":126.812382329301,"address":"경기도 부천시 소사구 양지로67번길 26","phone":"032-344-0807","openingHours":"","services":{"parking":null,"wifi":null,"outlet":null,"driveThrough":null,"terrace":null,"pet":null},"petPolicyType":"정보 없음","lastCheckedAt":""},{"id":"이디야커피_MA010120220802932909","brand":"이디야커피","name":"이디야커피이천 터미널점","lat":37.2773680018121,"lng":127.447030055331,"address":"경기도 이천시 이섭대천로 1200","phone":"031-634-8087","openingHours":"","services":{"parking":null,"wifi":null,"outlet":null,"driveThrough":null,"terrace":null,"pet":null},"petPolicyType":"정보 없음","lastCheckedAt":""},{"id":"이디야커피_MA010120220802734663","brand":"이디야커피","name":"이디야","lat":37.3690759950484,"lng":126.811999695093,"address":"경기도 시흥시 장현능곡로 198","phone":"031-311-1239","openingHours":"","services":{"parking":null,"wifi":null,"outlet":null,"driveThrough":null,"terrace":null,"pet":null},"petPolicyType":"정보 없음","lastCheckedAt":""},{"id":"커피에반하다_MA010120220802728669","brand":"커피에반하다","name":"커피에반하다","lat":37.3352568273883,"lng":126.711722414726,"address":"경기도 시흥시 경제로 137","phone":"031-8085-3708","openingHours":"","services":{"parking":null,"wifi":null,"outlet":null,"driveThrough":null,"terrace":null,"pet":null},"petPolicyType":"정보 없음","lastCheckedAt":""},{"id":"커피나무_MA010120220802831469","brand":"커피나무","name":"커피나무","lat":37.23660791143,"lng":127.19779083719,"address":"경기도 용인시 처인구 금령로13번길 13","phone":"","openingHours":"","services":{"parking":null,"wifi":true,"outlet":null,"driveThrough":null,"terrace":null,"pet":null},"petPolicyType":"정보 없음","lastCheckedAt":""},{"id":"매머드커피_MA010120220803027866","brand":"매머드커피","name":"매머드익스프레스고색1단지점","lat":37.2415015291537,"lng":126.977989249488,"address":"경기도 수원시 권선구 오목천로152번길 68","phone":"","openingHours":"","services":{"parking":null,"wifi":null,"outlet":null,"driveThrough":null,"terrace":null,"pet":null},"petPolicyType":"정보 없음","lastCheckedAt":""},{"id":"투썸플레이스_MA010120220803038342","brand":"투썸플레이스","name":"투썸플레이스스마트 스퀘어점","lat":37.3234201103766,"lng":126.785080790191,"address":"경기도 안산시 단원구 산단로 325","phone":"","openingHours":"","services":{"parking":null,"wifi":true,"outlet":true,"driveThrough":null,"terrace":null,"pet":null},"petPolicyType":"정보 없음","lastCheckedAt":""},{"id":"더벤티_MA010120220802998035","brand":"더벤티","name":"더벤티원흥 푸르지오점","lat":37.6498197495691,"lng":126.872768359003,"address":"경기도 고양시 덕양구 권율대로 671","phone":"031-966-6839","openingHours":"","services":{"parking":null,"wifi":null,"outlet":null,"driveThrough":null,"terrace":null,"pet":null},"petPolicyType":"정보 없음","lastCheckedAt":""},{"id":"컴포즈커피_MA010120220802991397","brand":"컴포즈커피","name":"컴포즈커피위례역점","lat":37.4654183178001,"lng":127.138312664394,"address":"경기도 성남시 수정구 위례서일로3길 1","phone":"031-723-9909","openingHours":"","services":{"parking":null,"wifi":true,"outlet":true,"driveThrough":null,"terrace":null,"pet":null},"petPolicyType":"정보 없음","lastCheckedAt":""},{"id":"이디야커피_MA010120220803071045","brand":"이디야커피","name":"이디야안산본오동 2호점","lat":37.3002809461766,"lng":126.863569367943,"address":"경기도 안산시 상록구 샘골로 184","phone":"031-406-7173","openingHours":"","services":{"parking":null,"wifi":null,"outlet":null,"driveThrough":null,"terrace":null,"pet":null},"petPolicyType":"정보 없음","lastCheckedAt":""},{"id":"커피나무_MA010120220803047381","brand":"커피나무","name":"지소현커피나무","lat":37.3681889420436,"lng":126.730675060522,"address":"경기도 시흥시 서울대학로278번길 61","phone":"","openingHours":"","services":{"parking":null,"wifi":true,"outlet":null,"driveThrough":null,"terrace":null,"pet":null},"petPolicyType":"정보 없음","lastCheckedAt":""},{"id":"이디야커피_MA010120220803023720","brand":"이디야커피","name":"이디야","lat":37.5915842394276,"lng":127.139383703352,"address":"경기도 구리시 체육관로80번길 24","phone":"031-563-8900","openingHours":"","services":{"parking":null,"wifi":null,"outlet":null,"driveThrough":null,"terrace":null,"pet":null},"petPolicyType":"정보 없음","lastCheckedAt":""},{"id":"컴포즈커피_MA010120220803067667","brand":"컴포즈커피","name":"컴포즈커피용인상하점","lat":37.2577734822749,"lng":127.141077168876,"address":"경기도 용인시 기흥구 중부대로788번길 16","phone":"070-8877-9184","openingHours":"","services":{"parking":null,"wifi":true,"outlet":true,"driveThrough":null,"terrace":null,"pet":null},"petPolicyType":"정보 없음","lastCheckedAt":""},{"id":"메가MGC커피_MA010120220803021949","brand":"메가MGC커피","name":"메가엠지씨커피 야탑점","lat":37.4116501285208,"lng":127.126353302475,"address":"경기도 성남시 분당구 야탑로69번길 21","phone":"031-704-8947","openingHours":"","services":{"parking":null,"wifi":null,"outlet":null,"driveThrough":null,"terrace":null,"pet":null},"petPolicyType":"정보 없음","lastCheckedAt":""},{"id":"이디야커피_MA010120220803041521","brand":"이디야커피","name":"이디야에스프레소범계점","lat":37.3914805593671,"lng":126.953451740031,"address":"경기도 안양시 동안구 시민대로 202","phone":"031-381-3070","openingHours":"","services":{"parking":null,"wifi":null,"outlet":null,"driveThrough":null,"terrace":null,"pet":null},"petPolicyType":"정보 없음","lastCheckedAt":""},{"id":"메가MGC커피_MA010120220803079861","brand":"메가MGC커피","name":"메가엠지씨커피옥정 호수공원점","lat":37.8241398094885,"lng":127.09847594719,"address":"경기도 양주시 옥정동로 193","phone":"031-868-0829","openingHours":"","services":{"parking":null,"wifi":null,"outlet":null,"driveThrough":null,"terrace":null,"pet":null},"petPolicyType":"정보 없음","lastCheckedAt":""},{"id":"빽다방_MA010120220803112514","brand":"빽다방","name":"빽다방군포당정역은하점","lat":37.3462904127428,"lng":126.944868533875,"address":"경기도 군포시 고산로 248","phone":"031-399-0452","openingHours":"","services":{"parking":null,"wifi":true,"outlet":true,"driveThrough":null,"terrace":null,"pet":null},"petPolicyType":"정보 없음","lastCheckedAt":""},{"id":"이디야커피_MA010120220803069009","brand":"이디야커피","name":"이디야커피구리 시청점","lat":37.5937459520426,"lng":127.132129611948,"address":"경기도 구리시 아차산로432번길 13","phone":"031-553-5533","openingHours":"","services":{"parking":null,"wifi":null,"outlet":null,"driveThrough":null,"terrace":null,"pet":null},"petPolicyType":"정보 없음","lastCheckedAt":""},{"id":"빽다방_MA010120220803034190","brand":"빽다방","name":"빽다방평택 안중점","lat":36.9789235141557,"lng":126.919100359324,"address":"경기도 평택시 안중읍 안현로서8길 57","phone":"031-683-0916","openingHours":"","services":{"parking":null,"wifi":true,"outlet":true,"driveThrough":null,"terrace":null,"pet":null},"petPolicyType":"정보 없음","lastCheckedAt":""},{"id":"컴포즈커피_MA010120220802988768","brand":"컴포즈커피","name":"컴포즈커피진접역엠 타워점","lat":37.720089621889,"lng":127.202619393871,"address":"경기도 남양주시 진접읍 해밀예당1로 220","phone":"031-573-1230","openingHours":"","services":{"parking":null,"wifi":true,"outlet":true,"driveThrough":null,"terrace":null,"pet":null},"petPolicyType":"정보 없음","lastCheckedAt":""},{"id":"빽다방_MA010120220802972695","brand":"빽다방","name":"빽다방시흥 은계점","lat":37.4359329208959,"lng":126.80174231903,"address":"경기도 시흥시 은계남로 12","phone":"031-316-8808","openingHours":"","services":{"parking":null,"wifi":true,"outlet":true,"driveThrough":null,"terrace":null,"pet":null},"petPolicyType":"정보 없음","lastCheckedAt":""},{"id":"투썸플레이스_MA010120220803110716","brand":"투썸플레이스","name":"투썸플레이스안산호수 마을점","lat":37.3081376773374,"lng":126.816663582259,"address":"경기도 안산시 단원구 광덕1로 64","phone":"031-439-8850","openingHours":"","services":{"parking":null,"wifi":true,"outlet":true,"driveThrough":null,"terrace":null,"pet":null},"petPolicyType":"정보 없음","lastCheckedAt":""},{"id":"빽다방_MA010120220802981274","brand":"빽다방","name":"빽다방구리인창늘푸른점","lat":37.6048697840266,"lng":127.14278328224,"address":"경기도 구리시 건원대로34번길 51","phone":"031-555-8860","openingHours":"","services":{"parking":null,"wifi":true,"outlet":true,"driveThrough":null,"terrace":null,"pet":null},"petPolicyType":"정보 없음","lastCheckedAt":""},{"id":"투썸플레이스_MA010120220802966980","brand":"투썸플레이스","name":"투썸플레이스수지외식타운점","lat":37.3273789448718,"lng":127.09570272929,"address":"경기도 용인시 수지구 수지로342번길 11","phone":"031-263-2300","openingHours":"","services":{"parking":null,"wifi":true,"outlet":true,"driveThrough":null,"terrace":null,"pet":null},"petPolicyType":"정보 없음","lastCheckedAt":""},{"id":"할리스_MA010120220803069913","brand":"할리스","name":"할리스커피의정부 로데오점","lat":37.7409936327005,"lng":127.049636672442,"address":"경기도 의정부시 행복로 28","phone":"031-823-0201","openingHours":"","services":{"parking":null,"wifi":true,"outlet":true,"driveThrough":null,"terrace":null,"pet":null},"petPolicyType":"정보 없음","lastCheckedAt":""},{"id":"메가MGC커피_MA010120220802974707","brand":"메가MGC커피","name":"메가엠지씨커피선부중점","lat":37.3453124594629,"lng":126.81552366843,"address":"경기도 안산시 단원구 달미로 106","phone":"031-414-5807","openingHours":"","services":{"parking":null,"wifi":null,"outlet":null,"driveThrough":null,"terrace":null,"pet":null},"petPolicyType":"정보 없음","lastCheckedAt":""},{"id":"메가MGC커피_MA010120220803054073","brand":"메가MGC커피","name":"메가엠지씨커피수원 남문점","lat":37.2755167449966,"lng":127.016879115901,"address":"경기도 수원시 팔달구 정조로 756-1","phone":"031-235-3446","openingHours":"","services":{"parking":null,"wifi":null,"outlet":null,"driveThrough":null,"terrace":null,"pet":null},"petPolicyType":"정보 없음","lastCheckedAt":""},{"id":"봄봄_MA010120220802997137","brand":"봄봄","name":"카페봄봄삼성 마을점","lat":37.3369954893763,"lng":126.934471041152,"address":"경기도 군포시 삼성로20번길 8-20","phone":"","openingHours":"","services":{"parking":null,"wifi":null,"outlet":null,"driveThrough":null,"terrace":null,"pet":null},"petPolicyType":"정보 없음","lastCheckedAt":""},{"id":"컴포즈커피_MA010120220803034980","brand":"컴포즈커피","name":"컴포즈커피수원영통 아이파크점","lat":37.2517771737684,"lng":127.077470772644,"address":"경기도 수원시 영통구 반달로35번길 30","phone":"031-302-7022","openingHours":"","services":{"parking":null,"wifi":true,"outlet":true,"driveThrough":null,"terrace":null,"pet":null},"petPolicyType":"정보 없음","lastCheckedAt":""},{"id":"할리스_MA010120220803083582","brand":"할리스","name":"할리스커피제부도점","lat":37.1762365503907,"lng":126.623347479899,"address":"경기도 화성시 만세구 서신면 해안길 434","phone":"","openingHours":"","services":{"parking":null,"wifi":true,"outlet":true,"driveThrough":null,"terrace":null,"pet":null},"petPolicyType":"정보 없음","lastCheckedAt":""},{"id":"이디야커피_MA010120220802988263","brand":"이디야커피","name":"이디야용인 신갈점","lat":37.2890982335978,"lng":127.111419911267,"address":"경기도 용인시 기흥구 새천년로 20","phone":"031-281-8553","openingHours":"","services":{"parking":null,"wifi":null,"outlet":null,"driveThrough":null,"terrace":null,"pet":null},"petPolicyType":"정보 없음","lastCheckedAt":""},{"id":"이디야커피_MA010120220802963416","brand":"이디야커피","name":"이디야커피야탑 중앙점","lat":37.4113178026192,"lng":127.133593229839,"address":"경기도 성남시 분당구 매화로 41","phone":"031-781-5526","openingHours":"","services":{"parking":null,"wifi":null,"outlet":null,"driveThrough":null,"terrace":null,"pet":null},"petPolicyType":"정보 없음","lastCheckedAt":""},{"id":"빽다방_MA010120220802969969","brand":"빽다방","name":"빽다방김포통진 마송점","lat":37.6896756267374,"lng":126.600777629685,"address":"경기도 김포시 통진읍 조강로 39","phone":"031-996-1786","openingHours":"","services":{"parking":null,"wifi":true,"outlet":true,"driveThrough":null,"terrace":null,"pet":null},"petPolicyType":"정보 없음","lastCheckedAt":""},{"id":"메가MGC커피_MA010120220803024473","brand":"메가MGC커피","name":"메가엠지씨커피동탄K밸리점","lat":37.2102289723288,"lng":127.091408848304,"address":"경기도 화성시 동탄구 동탄첨단산업1로 14","phone":"031-612-7122","openingHours":"","services":{"parking":null,"wifi":null,"outlet":null,"driveThrough":null,"terrace":null,"pet":null},"petPolicyType":"정보 없음","lastCheckedAt":""},{"id":"메가MGC커피_MA010120220802979057","brand":"메가MGC커피","name":"메가커피강남대점","lat":37.2710972954154,"lng":127.127471000641,"address":"경기도 용인시 기흥구 강남로 12","phone":"031-286-5727","openingHours":"","services":{"parking":null,"wifi":null,"outlet":null,"driveThrough":null,"terrace":null,"pet":null},"petPolicyType":"정보 없음","lastCheckedAt":""},{"id":"커피에반하다_MA010120220803039035","brand":"커피에반하다","name":"커피에반하다동탄센테라 타워점","lat":37.2112057255569,"lng":127.0981469235,"address":"경기도 화성시 동탄구 동탄대로 643","phone":"","openingHours":"","services":{"parking":null,"wifi":null,"outlet":null,"driveThrough":null,"terrace":null,"pet":null},"petPolicyType":"정보 없음","lastCheckedAt":""},{"id":"메가MGC커피_MA010120220803060382","brand":"메가MGC커피","name":"메가엠지씨커피구리한양대 병원점","lat":37.6004567898529,"lng":127.133500376139,"address":"경기도 구리시 경춘로 164","phone":"031-569-8587","openingHours":"","services":{"parking":null,"wifi":null,"outlet":null,"driveThrough":null,"terrace":null,"pet":null},"petPolicyType":"정보 없음","lastCheckedAt":""},{"id":"더벤티_MA010120220803028539","brand":"더벤티","name":"더벤티","lat":37.7401291280422,"lng":127.04861500986,"address":"경기도 의정부시 행복로 13","phone":"031-821-8946","openingHours":"","services":{"parking":null,"wifi":null,"outlet":null,"driveThrough":null,"terrace":null,"pet":null},"petPolicyType":"정보 없음","lastCheckedAt":""},{"id":"공차_MA010120220803060198","brand":"공차","name":"공차 화성향남점","lat":37.1316761598148,"lng":126.923045717152,"address":"경기도 화성시 만세구 향남읍 발안로 113","phone":"031-366-0509","openingHours":"","services":{"parking":null,"wifi":false,"outlet":false,"driveThrough":null,"terrace":null,"pet":null},"petPolicyType":"정보 없음","lastCheckedAt":""},{"id":"메가MGC커피_MA010120220803053009","brand":"메가MGC커피","name":"메가엠지씨커피동탄산척점","lat":37.1711532627029,"lng":127.118576608735,"address":"경기도 화성시 동탄구 동탄순환대로 263","phone":"031-378-1980","openingHours":"","services":{"parking":null,"wifi":null,"outlet":null,"driveThrough":null,"terrace":null,"pet":null},"petPolicyType":"정보 없음","lastCheckedAt":""},{"id":"메가MGC커피_MA010120220802983002","brand":"메가MGC커피","name":"메가엠지씨커피안산일동점","lat":37.3095316175736,"lng":126.868922107966,"address":"경기도 안산시 상록구 안산대학로 101","phone":"031-409-0919","openingHours":"","services":{"parking":null,"wifi":null,"outlet":null,"driveThrough":null,"terrace":null,"pet":null},"petPolicyType":"정보 없음","lastCheckedAt":""},{"id":"커피에반하다_MA010120220803070424","brand":"커피에반하다","name":"커피에반하다화정은빛 마을점","lat":37.6401319274561,"lng":126.834624903001,"address":"경기도 고양시 덕양구 화중로152번길 32","phone":"","openingHours":"","services":{"parking":null,"wifi":null,"outlet":null,"driveThrough":null,"terrace":null,"pet":null},"petPolicyType":"정보 없음","lastCheckedAt":""},{"id":"이디야커피_MA010120220802957146","brand":"이디야커피","name":"이디야커피성남고등동점","lat":37.4238382242395,"lng":127.101033506518,"address":"경기도 성남시 수정구 청계산로4길 31","phone":"031-759-5119","openingHours":"","services":{"parking":null,"wifi":null,"outlet":null,"driveThrough":null,"terrace":null,"pet":null},"petPolicyType":"정보 없음","lastCheckedAt":""},{"id":"메가MGC커피_MA010120220803162596","brand":"메가MGC커피","name":"메가엠지씨커피안산열녀문점","lat":37.3353593825634,"lng":126.829743558488,"address":"경기도 안산시 단원구 와동로 56","phone":"031-403-2903","openingHours":"","services":{"parking":null,"wifi":null,"outlet":null,"driveThrough":null,"terrace":null,"pet":null},"petPolicyType":"정보 없음","lastCheckedAt":""},{"id":"컴포즈커피_MA010120220803220139","brand":"컴포즈커피","name":"컴포즈커피남양주오남진주점","lat":37.6869103359334,"lng":127.210861985232,"address":"경기도 남양주시 오남읍 진건오남로 597","phone":"","openingHours":"","services":{"parking":null,"wifi":true,"outlet":true,"driveThrough":null,"terrace":null,"pet":null},"petPolicyType":"정보 없음","lastCheckedAt":""},{"id":"텐퍼센트커피_MA010120220803237423","brand":"텐퍼센트커피","name":"텐퍼센트커피수원 아주대점","lat":37.2795646313211,"lng":127.04351369061,"address":"경기도 수원시 팔달구 아주로 51","phone":"031-8067-7040","openingHours":"","services":{"parking":null,"wifi":null,"outlet":null,"driveThrough":null,"terrace":null,"pet":null},"petPolicyType":"정보 없음","lastCheckedAt":""},{"id":"커피에반하다_MA010120220803151146","brand":"커피에반하다","name":"커피에반하다김포양곡","lat":37.6562156763069,"lng":126.623372628371,"address":"경기도 김포시 양촌읍 양곡1로 62-3","phone":"070-4493-7699","openingHours":"","services":{"parking":null,"wifi":null,"outlet":null,"driveThrough":null,"terrace":null,"pet":null},"petPolicyType":"정보 없음","lastCheckedAt":""},{"id":"이디야커피_MA010120220803131707","brand":"이디야커피","name":"이디야","lat":37.7192250098214,"lng":126.975205940541,"address":"경기도 양주시 장흥면 가마골로 4","phone":"031-837-1655","openingHours":"","services":{"parking":null,"wifi":null,"outlet":null,"driveThrough":null,"terrace":null,"pet":null},"petPolicyType":"정보 없음","lastCheckedAt":""},{"id":"이디야커피_MA010120220803128198","brand":"이디야커피","name":"이디야동안산 병원점","lat":37.335659944428,"lng":126.852254991583,"address":"경기도 안산시 상록구 월피로 81","phone":"031-402-3626","openingHours":"","services":{"parking":null,"wifi":null,"outlet":null,"driveThrough":null,"terrace":null,"pet":null},"petPolicyType":"정보 없음","lastCheckedAt":""},{"id":"메가MGC커피_MA010120220803252058","brand":"메가MGC커피","name":"메가엠지씨커피화성상리점","lat":37.2196961862728,"lng":126.948825375512,"address":"경기도 화성시 효행구 봉담읍 삼천병마로 1276","phone":"031-8067-6565","openingHours":"","services":{"parking":null,"wifi":null,"outlet":null,"driveThrough":null,"terrace":null,"pet":null},"petPolicyType":"정보 없음","lastCheckedAt":""},{"id":"더벤티_MA010120220803180717","brand":"더벤티","name":"더벤티광명 소하점","lat":37.4483753905086,"lng":126.891632940892,"address":"경기도 광명시 하안로 112","phone":"","openingHours":"","services":{"parking":null,"wifi":null,"outlet":null,"driveThrough":null,"terrace":null,"pet":null},"petPolicyType":"정보 없음","lastCheckedAt":""},{"id":"봄봄_MA010120220803242101","brand":"봄봄","name":"카페봄봄 부천점","lat":37.4908452510721,"lng":126.760539523006,"address":"경기도 부천시 원미구 석천로38번길 5","phone":"032-666-5068","openingHours":"","services":{"parking":null,"wifi":null,"outlet":null,"driveThrough":null,"terrace":null,"pet":null},"petPolicyType":"정보 없음","lastCheckedAt":""},{"id":"감성커피_MA010120220803225322","brand":"감성커피","name":"감성커피이천청강대점","lat":37.209988469565,"lng":127.359685430309,"address":"경기도 이천시 마장면 청강가창로 382","phone":"031-632-2122","openingHours":"","services":{"parking":null,"wifi":null,"outlet":null,"driveThrough":null,"terrace":null,"pet":null},"petPolicyType":"정보 없음","lastCheckedAt":""},{"id":"메가MGC커피_MA010120220803226294","brand":"메가MGC커피","name":"메가엠지씨커피안산석호점","lat":37.2949174334042,"lng":126.854048992319,"address":"경기도 안산시 상록구 석호로 207","phone":"031-408-5655","openingHours":"","services":{"parking":null,"wifi":null,"outlet":null,"driveThrough":null,"terrace":null,"pet":null},"petPolicyType":"정보 없음","lastCheckedAt":""},{"id":"빽다방_MA010120220803221236","brand":"빽다방","name":"판교유스페이스점빽다방","lat":37.4004607122582,"lng":127.106807220422,"address":"경기도 성남시 분당구 대왕판교로 660","phone":"031-628-1789","openingHours":"","services":{"parking":null,"wifi":true,"outlet":true,"driveThrough":null,"terrace":null,"pet":null},"petPolicyType":"정보 없음","lastCheckedAt":""},{"id":"이디야커피_MA010120220803197852","brand":"이디야커피","name":"이디야시화 반달섬점","lat":37.3035854133326,"lng":126.738812515937,"address":"경기도 안산시 단원구 엠티브이17로 27","phone":"031-496-0702","openingHours":"","services":{"parking":null,"wifi":null,"outlet":null,"driveThrough":null,"terrace":null,"pet":null},"petPolicyType":"정보 없음","lastCheckedAt":""},{"id":"텐퍼센트커피_MA010120220803181987","brand":"텐퍼센트커피","name":"텐퍼센트커피 별내점","lat":37.6472920843928,"lng":127.123374704048,"address":"경기도 남양주시 별내중앙로 55","phone":"031-529-0214","openingHours":"","services":{"parking":null,"wifi":null,"outlet":null,"driveThrough":null,"terrace":null,"pet":null},"petPolicyType":"정보 없음","lastCheckedAt":""},{"id":"텐퍼센트커피_MA010120220803255836","brand":"텐퍼센트커피","name":"텐퍼센트커피","lat":37.8190990508279,"lng":127.092813232152,"address":"경기도 양주시 옥정동로7다길 40","phone":"031-859-1012","openingHours":"","services":{"parking":null,"wifi":null,"outlet":null,"driveThrough":null,"terrace":null,"pet":null},"petPolicyType":"정보 없음","lastCheckedAt":""},{"id":"이디야커피_MA010120220803152303","brand":"이디야커피","name":"이디야커피구리등기소점","lat":37.6050707197296,"lng":127.140518698162,"address":"경기도 구리시 건원대로 44","phone":"031-553-5107","openingHours":"","services":{"parking":null,"wifi":null,"outlet":null,"driveThrough":null,"terrace":null,"pet":null},"petPolicyType":"정보 없음","lastCheckedAt":""},{"id":"메가MGC커피_MA010120220803170080","brand":"메가MGC커피","name":"메가엠지씨커피시흥거모점","lat":37.3415834053381,"lng":126.784272936297,"address":"경기도 시흥시 도일로124번길 3","phone":"031-495-9555","openingHours":"","services":{"parking":null,"wifi":null,"outlet":null,"driveThrough":null,"terrace":null,"pet":null},"petPolicyType":"정보 없음","lastCheckedAt":""},{"id":"컴포즈커피_MA010120220803263673","brand":"컴포즈커피","name":"컴포즈커피수원 연무점","lat":37.2925256674188,"lng":127.030382480202,"address":"경기도 수원시 장안구 창룡대로 185","phone":"031-245-1050","openingHours":"","services":{"parking":null,"wifi":true,"outlet":true,"driveThrough":null,"terrace":null,"pet":null},"petPolicyType":"정보 없음","lastCheckedAt":""},{"id":"빽다방_MA010120220803216419","brand":"빽다방","name":"빽다방부천U1 센터점","lat":37.5008035418416,"lng":126.790114845256,"address":"경기도 부천시 원미구 조마루로385번길 92","phone":"032-240-6060","openingHours":"","services":{"parking":null,"wifi":true,"outlet":true,"driveThrough":null,"terrace":null,"pet":null},"petPolicyType":"정보 없음","lastCheckedAt":""},{"id":"더벤티_MA010120220803209981","brand":"더벤티","name":"더벤티","lat":37.6412669367862,"lng":126.67760688525,"address":"경기도 김포시 김포한강2로 41","phone":"","openingHours":"","services":{"parking":null,"wifi":null,"outlet":null,"driveThrough":null,"terrace":null,"pet":null},"petPolicyType":"정보 없음","lastCheckedAt":""},{"id":"투썸플레이스_MA010120220803222788","brand":"투썸플레이스","name":"투썸플레이스","lat":37.3421946101857,"lng":126.686857140688,"address":"경기도 시흥시 오이도로135번길 72","phone":"031-319-0048","openingHours":"","services":{"parking":null,"wifi":true,"outlet":true,"driveThrough":null,"terrace":null,"pet":null},"petPolicyType":"정보 없음","lastCheckedAt":""},{"id":"이디야커피_MA010120220803245004","brand":"이디야커피","name":"이디야커피","lat":37.7564045846022,"lng":127.075327212201,"address":"경기도 의정부시 금오로 91","phone":"031-846-5085","openingHours":"","services":{"parking":null,"wifi":null,"outlet":null,"driveThrough":null,"terrace":null,"pet":null},"petPolicyType":"정보 없음","lastCheckedAt":""},{"id":"메가MGC커피_MA010120220803209890","brand":"메가MGC커피","name":"메가엠지씨커피역곡 중앙점","lat":37.4888592898337,"lng":126.813429926307,"address":"경기도 부천시 원미구 지봉로 130","phone":"032-344-0555","openingHours":"","services":{"parking":null,"wifi":null,"outlet":null,"driveThrough":null,"terrace":null,"pet":null},"petPolicyType":"정보 없음","lastCheckedAt":""},{"id":"이디야커피_MA010120220803132909","brand":"이디야커피","name":"이디야커피고양지축 중앙점","lat":37.6487782737647,"lng":126.917416159227,"address":"경기도 고양시 덕양구 지축로 86","phone":"02-381-5095","openingHours":"","services":{"parking":null,"wifi":null,"outlet":null,"driveThrough":null,"terrace":null,"pet":null},"petPolicyType":"정보 없음","lastCheckedAt":""},{"id":"텐퍼센트커피_MA010120220803234859","brand":"텐퍼센트커피","name":"텐퍼센트커피동탄코벤트가든점","lat":37.2110233750325,"lng":127.089472108373,"address":"경기도 화성시 동탄구 동탄첨단산업1로 27","phone":"031-784-8866","openingHours":"","services":{"parking":null,"wifi":null,"outlet":null,"driveThrough":null,"terrace":null,"pet":null},"petPolicyType":"정보 없음","lastCheckedAt":""},{"id":"컴포즈커피_MA010120220803170295","brand":"컴포즈커피","name":"컴포즈커피남양주마석 로터리점","lat":37.6524459501276,"lng":127.306293342937,"address":"경기도 남양주시 화도읍 마석중앙로 60","phone":"","openingHours":"","services":{"parking":null,"wifi":true,"outlet":true,"driveThrough":null,"terrace":null,"pet":null},"petPolicyType":"정보 없음","lastCheckedAt":""},{"id":"공차_MA010120220803162931","brand":"공차","name":"공차야탑역점","lat":37.4110528981728,"lng":127.128724369015,"address":"경기도 성남시 분당구 성남대로 903","phone":"031-778-6197","openingHours":"","services":{"parking":null,"wifi":false,"outlet":false,"driveThrough":null,"terrace":null,"pet":null},"petPolicyType":"정보 없음","lastCheckedAt":""},{"id":"투썸플레이스_MA010120220803139616","brand":"투썸플레이스","name":"투썸플레이스동탄라스플로레스","lat":37.2022224289921,"lng":127.097932531927,"address":"경기도 화성시 동탄구 동탄대로 537","phone":"031-372-2504","openingHours":"","services":{"parking":null,"wifi":true,"outlet":true,"driveThrough":null,"terrace":null,"pet":null},"petPolicyType":"정보 없음","lastCheckedAt":""},{"id":"컴포즈커피_MA010120220803138844","brand":"컴포즈커피","name":"컴포즈커피의정부 호원점","lat":37.7279320597337,"lng":127.043309606322,"address":"경기도 의정부시 호동로 67","phone":"031-875-9993","openingHours":"","services":{"parking":null,"wifi":true,"outlet":true,"driveThrough":null,"terrace":null,"pet":null},"petPolicyType":"정보 없음","lastCheckedAt":""},{"id":"토프레소_MA010120220803215150","brand":"토프레소","name":"토프레소용인 테크노밸리점","lat":37.2912745349389,"lng":127.14813183175,"address":"경기도 용인시 기흥구 구성로 357","phone":"031-299-2975","openingHours":"","services":{"parking":null,"wifi":true,"outlet":null,"driveThrough":null,"terrace":null,"pet":null},"petPolicyType":"정보 없음","lastCheckedAt":""},{"id":"더벤티_MA010120220803285312","brand":"더벤티","name":"더벤티 산본점","lat":37.3598702729615,"lng":126.930364938171,"address":"경기도 군포시 산본로343번길 23","phone":"031-391-1171","openingHours":"","services":{"parking":null,"wifi":null,"outlet":null,"driveThrough":null,"terrace":null,"pet":null},"petPolicyType":"정보 없음","lastCheckedAt":""},{"id":"컴포즈커피_MA010120220803425959","brand":"컴포즈커피","name":"컴포즈커피 시흥능곡점","lat":37.3682632580464,"lng":126.810861519621,"address":"경기도 시흥시 능곡로 182","phone":"031-318-9578","openingHours":"","services":{"parking":null,"wifi":true,"outlet":true,"driveThrough":null,"terrace":null,"pet":null},"petPolicyType":"정보 없음","lastCheckedAt":""},{"id":"공차_MA010120220803347904","brand":"공차","name":"공차수원 호매실점","lat":37.2748511142423,"lng":126.953647673512,"address":"경기도 수원시 권선구 금곡로 213","phone":"031-296-3110","openingHours":"","services":{"parking":null,"wifi":false,"outlet":false,"driveThrough":null,"terrace":null,"pet":null},"petPolicyType":"정보 없음","lastCheckedAt":""},{"id":"메가MGC커피_MA010120220803365786","brand":"메가MGC커피","name":"메가엠지씨커피김포전원 마을점","lat":37.6457640793117,"lng":126.681383326938,"address":"경기도 김포시 김포한강11로 133","phone":"031-982-5599","openingHours":"","services":{"parking":null,"wifi":null,"outlet":null,"driveThrough":null,"terrace":null,"pet":null},"petPolicyType":"정보 없음","lastCheckedAt":""},{"id":"커피에반하다_MA010120220803384742","brand":"커피에반하다","name":"커피에반하다양촌산업단지","lat":37.6150080227111,"lng":126.621553157732,"address":"경기도 김포시 양촌읍 황금1로80번길 39","phone":"031-984-8289","openingHours":"","services":{"parking":null,"wifi":null,"outlet":null,"driveThrough":null,"terrace":null,"pet":null},"petPolicyType":"정보 없음","lastCheckedAt":""},{"id":"빽다방_MA010120220803325931","brand":"빽다방","name":"빽다방동탄석우점","lat":37.2182039202323,"lng":127.077875830029,"address":"경기도 화성시 동탄구 삼성1로 160","phone":"031-8003-3134","openingHours":"","services":{"parking":null,"wifi":true,"outlet":true,"driveThrough":null,"terrace":null,"pet":null},"petPolicyType":"정보 없음","lastCheckedAt":""},{"id":"메가MGC커피_MA010120220803278415","brand":"메가MGC커피","name":"메가엠지씨커피수지아이조움점","lat":37.3110177140973,"lng":127.081626370996,"address":"경기도 용인시 수지구 심곡로 87","phone":"031-262-0922","openingHours":"","services":{"parking":null,"wifi":null,"outlet":null,"driveThrough":null,"terrace":null,"pet":null},"petPolicyType":"정보 없음","lastCheckedAt":""},{"id":"더벤티_MA010120220803356104","brand":"더벤티","name":"더벤티미사테스타 타워점","lat":37.5526650967854,"lng":127.182813367017,"address":"경기도 하남시 미사강변서로 25","phone":"031-5175-6700","openingHours":"","services":{"parking":null,"wifi":null,"outlet":null,"driveThrough":null,"terrace":null,"pet":null},"petPolicyType":"정보 없음","lastCheckedAt":""},{"id":"메가MGC커피_MA010120220803365790","brand":"메가MGC커피","name":"메가엠지씨커피의왕내손점","lat":37.3900459298367,"lng":126.977426443333,"address":"경기도 의왕시 포일로 43","phone":"031-422-9815","openingHours":"","services":{"parking":null,"wifi":null,"outlet":null,"driveThrough":null,"terrace":null,"pet":null},"petPolicyType":"정보 없음","lastCheckedAt":""},{"id":"빽다방_MA010120220803354230","brand":"빽다방","name":"빽다방경기광주 이마트점","lat":37.409636055873,"lng":127.261216359063,"address":"경기도 광주시 광주대로 30","phone":"031-799-7710","openingHours":"","services":{"parking":null,"wifi":true,"outlet":true,"driveThrough":null,"terrace":null,"pet":null},"petPolicyType":"정보 없음","lastCheckedAt":""},{"id":"할리스_MA010120220803283805","brand":"할리스","name":"할리스오산 수청점","lat":37.1702304762009,"lng":127.065283345432,"address":"경기도 오산시 내삼미로79번길 46","phone":"031-377-5823","openingHours":"","services":{"parking":null,"wifi":true,"outlet":true,"driveThrough":null,"terrace":null,"pet":null},"petPolicyType":"정보 없음","lastCheckedAt":""},{"id":"이디야커피_MA010120220803358592","brand":"이디야커피","name":"이디야파주운정 호수공원점","lat":37.7196953740659,"lng":126.751434208642,"address":"경기도 파주시 가온로 172","phone":"031-946-8222","openingHours":"","services":{"parking":null,"wifi":null,"outlet":null,"driveThrough":null,"terrace":null,"pet":null},"petPolicyType":"정보 없음","lastCheckedAt":""},{"id":"컴포즈커피_MA010120220803407169","brand":"컴포즈커피","name":"컴포즈커피일산산들 마을점","lat":37.6828902324734,"lng":126.778356904802,"address":"경기도 고양시 일산동구 고양대로 739","phone":"031-976-8966","openingHours":"","services":{"parking":null,"wifi":true,"outlet":true,"driveThrough":null,"terrace":null,"pet":null},"petPolicyType":"정보 없음","lastCheckedAt":""},{"id":"빽다방_MA010120220803367564","brand":"빽다방","name":"빽다방하남 풍산점","lat":37.5518040412847,"lng":127.207696836385,"address":"경기도 하남시 덕풍동로 111-21","phone":"031-792-2523","openingHours":"","services":{"parking":null,"wifi":true,"outlet":true,"driveThrough":null,"terrace":null,"pet":null},"petPolicyType":"정보 없음","lastCheckedAt":""},{"id":"할리스_MA010120220803406348","brand":"할리스","name":"할리스오산 시청점","lat":37.1484820679952,"lng":127.075204052279,"address":"경기도 오산시 성호대로 124","phone":"031-378-8778","openingHours":"","services":{"parking":null,"wifi":true,"outlet":true,"driveThrough":null,"terrace":null,"pet":null},"petPolicyType":"정보 없음","lastCheckedAt":""},{"id":"이디야커피_MA010120220803366625","brand":"이디야커피","name":"이디야커피부천센트리움점","lat":37.4840111827875,"lng":126.776673137922,"address":"경기도 부천시 소사구 경인로 189","phone":"032-661-7792","openingHours":"","services":{"parking":null,"wifi":null,"outlet":null,"driveThrough":null,"terrace":null,"pet":null},"petPolicyType":"정보 없음","lastCheckedAt":""},{"id":"이디야커피_MA010120220803303783","brand":"이디야커피","name":"이디야커피안산고잔 로데오점","lat":37.3096509161609,"lng":126.828346376825,"address":"경기도 안산시 단원구 광덕2로 164","phone":"031-413-6059","openingHours":"","services":{"parking":null,"wifi":null,"outlet":null,"driveThrough":null,"terrace":null,"pet":null},"petPolicyType":"정보 없음","lastCheckedAt":""},{"id":"더벤티_MA010120220803321300","brand":"더벤티","name":"더벤티뉴코아 부천점","lat":37.5041452583626,"lng":126.756708347621,"address":"경기도 부천시 원미구 송내대로 239","phone":"","openingHours":"","services":{"parking":null,"wifi":null,"outlet":null,"driveThrough":null,"terrace":null,"pet":null},"petPolicyType":"정보 없음","lastCheckedAt":""},